dump 10

ArduCopter V3.1-rc3.1
Free RAM: 1138
APM 2
FMT, 128, 89, FMT, BBnNZ, Type,Length,Name,Format
FMT, 129, 23, PARM, Nf, Name,Value
FMT, 130, 35, GPS, BIBcLLeeEe, Status,Time,NSats,HDop,Lat,Lng,RelAlt,Alt,Spd,GCrs
FMT, 131, 27, IMU, ffffff, GyrX,GyrY,GyrZ,AccX,AccY,AccZ
FMT, 132, 67, MSG, Z, Message
FMT, 9, 19, CURR, hIhhhf, Thr,ThrInt,Volt,Curr,Vcc,CurrTot
FMT, 11, 11, MOT, hhhh, Mot1,Mot2,Mot3,Mot4
FMT, 12, 28, OF, hhBccffee, Dx,Dy,SQual,X,Y,Lat,Lng,Roll,Pitch
FMT, 5, 49, NTUN, Ecffffffffee, WPDst,WPBrg,PErX,PErY,DVelX,DVelY,VelX,VelY,DAcX,DAcY,DRol,DPit
FMT, 4, 25, CTUN, hcefchhhh, ThrIn,SonAlt,BarAlt,WPAlt,DesSonAlt,AngBst,CRate,ThrOut,DCRate
FMT, 15, 21, MAG, hhhhhhhhh, MagX,MagY,MagZ,OfsX,OfsY,OfsZ,MOfsX,MOfsY,MOfsZ
FMT, 6, 17, PM, BBBHHIhB, RenCnt,RenBlw,FixCnt,NLon,NLoop,MaxT,PMT,I2CErr
FMT, 8, 20, CMD, BBBBBeLL, CTot,CNum,CId,COpt,Prm1,Alt,Lat,Lng
FMT, 1, 17, ATT, cccccCC, RollIn,Roll,PitchIn,Pitch,YawIn,Yaw,NavYaw
FMT, 17, 37, INAV, cccfffiiff, BAlt,IAlt,IClb,ACorrX,ACorrY,ACorrZ,GLat,GLng,ILat,ILng
FMT, 3, 6, MODE, Mh, Mode,ThrCrs
FMT, 10, 3, STRT, , 
FMT, 13, 4, EV, B, Id
FMT, 20, 6, D16, Bh, Id,Value
FMT, 21, 6, DU16, BH, Id,Value
FMT, 22, 8, D32, Bi, Id,Value
FMT, 23, 8, DU32, BI, Id,Value
FMT, 24, 8, DFLT, Bf, Id,Value
FMT, 14, 28, PID, Biiiiif, Id,Error,P,I,D,Out,Gain
FMT, 18, 25, CAM, ILLeccC, GPSTime,Lat,Lng,Alt,Roll,Pitch,Yaw
FMT, 19, 5, ERR, BB, Subsys,ECode
D32, 9, 33950
EV, 18
EV, 10
ERR, 7, 1
CTUN, 0, 0.00, 0.01, 0.000000, 0.00, 0, 17, 0, 0
ATT, 0.00, -0.86, 0.00, 0.26, 0.00, 339.52, 339.52
CTUN, 0, 0.00, -0.02, 0.000000, 0.00, 0, 16, 0, 0
ATT, 0.00, -0.86, 0.00, 0.27, 0.00, 339.52, 339.52
CTUN, 0, 0.00, -0.01, 0.000000, 0.00, 0, 14, 0, 0
ATT, 0.00, -0.86, 0.00, 0.27, 0.00, 339.53, 339.53
CTUN, 0, 0.00, -0.04, 0.000000, 0.00, 0, 13, 0, 0
ATT, 0.00, -0.86, 0.00, 0.27, 0.00, 339.54, 339.54
CTUN, 0, 0.00, 0.02, 0.000000, 0.00, 0, 11, 0, 0
ATT, 0.00, -0.86, 0.00, 0.27, 0.00, 339.55, 339.55
DU32, 7, 8792
CURR, 0, 0, 1227, 57, 4813, 0.080264
CTUN, 0, 0.00, 0.00, 0.000000, 0.00, 0, 10, 0, 0
ATT, 0.00, -0.86, 0.00, 0.28, 0.00, 339.57, 339.57
CTUN, 0, 0.00, -0.18, 0.000000, 0.00, 0, 9, 0, 0
ATT, 0.00, -0.87, 0.00, 0.27, 0.00, 339.58, 339.58
CTUN, 0, 0.00, -0.14, 0.000000, 0.00, 0, 8, 0, 0
ATT, 0.00, -0.86, 0.00, 0.28, 0.00, 339.59, 339.59
CTUN, 0, 0.00, -0.12, 0.000000, 0.00, 0, 6, 0, 0
ATT, 0.00, -0.87, 0.00, 0.27, 0.00, 339.60, 339.60
CTUN, 0, 0.00, -0.19, 0.000000, 0.00, 0, 5, 0, 0
ATT, 0.00, -0.87, 0.00, 0.28, 0.00, 339.61, 339.61
CTUN, 0, 0.00, -0.22, 0.000000, 0.00, 0, 4, 0, 0
ATT, 0.00, -0.87, 0.00, 0.27, 0.00, 339.63, 339.63
CTUN, 0, 0.00, -0.08, 0.000000, 0.00, 0, 3, 0, 0
ATT, 0.00, -0.88, 0.00, 0.27, 0.00, 339.64, 339.64
CTUN, 0, 0.00, -0.14, 0.000000, 0.00, 0, 2, 0, 0
ATT, 0.00, -0.87, 0.00, 0.27, 0.00, 339.66, 339.66
CTUN, 0, 0.00, -0.16, 0.000000, 0.00, 0, 1, 0, 0
ATT, 0.00, -0.87, 0.00, 0.28, 0.00, 339.67, 339.67
CTUN, 0, 0.00, -0.19, 0.000000, 0.00, 0, 0, 0, 0
ATT, 0.00, -0.87, 0.00, 0.28, 0.00, 339.68, 339.68
DU32, 7, 8792
CURR, 0, 0, 1226, 59, 4752, 0.243449
CTUN, 0, 0.00, -0.19, 0.000000, 0.00, 0, 0, 0, 0
ATT, 0.00, -0.88, 0.00, 0.27, 0.00, 339.70, 339.70
CTUN, 0, 0.00, -0.22, 0.000000, 0.00, 0, -1, 0, 0
ATT, 0.00, -0.88, 0.00, 0.28, 0.00, 339.71, 339.71
CTUN, 0, 0.00, -0.18, 0.000000, 0.00, 0, -1, 0, 0
ATT, 0.00, -0.88, 0.00, 0.28, 0.00, 339.71, 339.71
CTUN, 0, 0.00, -0.13, 0.000000, 0.00, 0, -2, 0, 0
ATT, 0.00, -0.88, 0.00, 0.28, 0.00, 339.73, 339.73
CTUN, 0, 0.00, -0.12, 0.000000, 0.00, 0, -3, 0, 0
ATT, 0.00, -0.88, 0.00, 0.28, 0.00, 339.75, 339.75
CTUN, 0, 0.00, -0.05, 0.000000, 0.00, 0, -4, 0, 0
ATT, 0.00, -0.88, 0.00, 0.29, 0.00, 339.76, 339.76
CTUN, 0, 0.00, -0.09, 0.000000, 0.00, 0, -4, 0, 0
ATT, 0.00, -0.88, 0.00, 0.28, 0.00, 339.76, 339.76
CTUN, 0, 0.00, -0.20, 0.000000, 0.00, 0, -5, 0, 0
ATT, 0.00, -0.88, 0.00, 0.28, 0.00, 339.78, 339.78
CTUN, 0, 0.00, -0.19, 0.000000, 0.00, 0, -5, 0, 0
ATT, 0.00, -0.88, 0.00, 0.29, 0.00, 339.79, 339.79
CTUN, 0, 0.00, -0.23, 0.000000, 0.00, 0, -5, 0, 0
ATT, 0.00, -0.88, 0.00, 0.29, 0.00, 339.80, 339.80
DU32, 7, 8792
CURR, 0, 0, 1226, 55, 4772, 0.406462
CTUN, 0, 0.00, -0.25, 0.000000, 0.00, 0, -6, 0, 0
ATT, 0.00, -0.89, 0.00, 0.29, 0.00, 339.82, 339.82
CTUN, 0, 0.00, -0.20, 0.000000, 0.00, 0, -7, 0, 0
ATT, 0.00, -0.88, 0.00, 0.29, -14.25, 339.83, 339.83
CTUN, 0, 0.00, -0.08, 0.000000, 0.00, 0, -7, 0, 0
ATT, 0.00, -0.88, 0.00, 0.28, -34.04, 339.84, 339.84
CTUN, 0, 0.00, -0.13, 0.000000, 0.00, 0, -7, 0, 0
ATT, 0.00, -0.88, 0.00, 0.29, -44.29, 339.85, 339.85
CTUN, 0, 0.00, -0.13, 0.000000, 0.00, 0, -7, 0, 0
ATT, 0.00, -0.88, 0.00, 0.28, -44.41, 339.86, 339.86
CTUN, 0, 0.00, -0.16, 0.000000, 0.00, 0, -8, 0, 0
ATT, 0.00, -0.88, 0.00, 0.28, -44.64, 339.87, 339.87
CTUN, 0, 0.00, -0.18, 0.000000, 0.00, 0, -8, 0, 0
ATT, 0.00, -0.88, 0.00, 0.29, -44.64, 339.87, 339.87
CTUN, 0, 0.00, -0.13, 0.000000, 0.00, 0, -8, 0, 0
ATT, 0.00, -0.88, 0.00, 0.29, -44.64, 339.89, 339.89
CTUN, 0, 0.00, -0.13, 0.000000, 0.00, 0, -8, 0, 0
ATT, 0.00, -0.88, 0.00, 0.28, -44.76, 339.91, 339.91
CTUN, 0, 0.00, -0.27, 0.000000, 0.00, 0, -9, 0, 0
ATT, 0.00, -0.88, 0.00, 0.29, -44.52, 339.92, 339.92
PM, 0, 0, 0, 1, 1000, 7331492, 0, 4
DU32, 7, 8792
CURR, 0, 0, 1220, 55, 4752, 0.570035
CTUN, 0, 0.00, -0.20, 0.000000, 0.00, 0, -9, 0, 0
ATT, 0.00, -0.88, 0.00, 0.29, -40.52, 339.94, 339.94
CTUN, 0, 0.00, -0.12, 0.000000, 0.00, 0, -9, 0, 0
ATT, 0.00, -0.88, 0.00, 0.29, -12.84, 339.96, 339.96
CTUN, 0, 0.00, -0.14, 0.000000, 0.00, 0, -9, 0, 0
ATT, 0.00, -0.88, 0.00, 0.29, 0.00, 339.98, 339.98
CTUN, 0, 0.00, -0.07, 0.000000, 0.00, 0, -9, 0, 0
ATT, 0.00, -0.88, 0.00, 0.29, 0.00, 339.99, 339.99
CTUN, 0, 0.00, -0.12, 0.000000, 0.00, 0, -9, 0, 0
ATT, 0.00, -0.88, 0.00, 0.29, 0.00, 340.00, 340.00
CTUN, 0, 0.00, -0.19, 0.000000, 0.00, 0, -9, 0, 0
ATT, 0.00, -0.89, 0.00, 0.30, 0.00, 340.01, 340.01
CTUN, 0, 0.00, -0.14, 0.000000, 0.00, 0, -9, 0, 0
ATT, 0.00, -0.88, 0.00, 0.30, 0.00, 340.03, 340.03
CTUN, 0, 0.00, -0.20, 0.000000, 0.00, 0, -9, 0, 0
ATT, 0.00, -0.88, 0.00, 0.30, 0.00, 340.04, 340.04
CTUN, 0, 0.00, -0.20, 0.000000, 0.00, 0, -9, 0, 0
ATT, 0.00, -0.88, 0.00, 0.30, 0.00, 340.05, 340.05
CTUN, 0, 0.00, -0.16, 0.000000, 0.00, 0, -10, 0, 0
ATT, 0.00, -0.88, 0.00, 0.30, 0.00, 340.06, 340.06
DU32, 7, 8792
CURR, 0, 0, 1225, 57, 4793, 0.731810
CTUN, 0, 0.00, -0.14, 0.000000, 0.00, 0, -10, 0, 0
ATT, 0.00, -0.88, 0.00, 0.30, 0.00, 340.07, 340.07
CTUN, 0, 0.00, -0.22, 0.000000, 0.00, 0, -10, 0, 0
ATT, 0.00, -0.88, 0.00, 0.30, 0.00, 340.08, 340.08
CTUN, 0, 0.00, -0.16, 0.000000, 0.00, 0, -10, 0, 0
ATT, 0.00, -0.88, 0.00, 0.30, 0.00, 340.10, 340.10
CTUN, 0, 0.00, -0.13, 0.000000, 0.00, 0, -9, 0, 0
ATT, 0.00, -0.88, 0.00, 0.30, 0.00, 340.12, 340.12
CTUN, 0, 0.00, -0.15, 0.000000, 0.00, 0, -9, 0, 0
ATT, 0.00, -0.88, 0.00, 0.29, 0.00, 340.13, 340.13
CTUN, 0, 0.00, -0.14, 0.000000, 0.00, 0, -9, 0, 0
ATT, 0.00, -0.88, 0.00, 0.29, 0.00, 340.15, 340.15
CTUN, 0, 0.00, -0.13, 0.000000, 0.00, 0, -9, 0, 0
ATT, 0.00, -0.89, 0.00, 0.29, -13.90, 340.16, 340.16
CTUN, 0, 0.00, -0.30, 0.000000, 0.00, 0, -9, 0, 0
ATT, 0.00, -0.89, 0.00, 0.29, -35.22, 340.17, 340.17
CTUN, 0, 0.00, -0.14, 0.000000, 0.00, 0, -9, 0, 0
ATT, 0.00, -0.89, 0.00, 0.29, -44.41, 340.18, 340.18
CTUN, 0, 0.00, -0.15, 0.000000, 0.00, 0, -9, 0, 0
ATT, 0.00, -0.89, 0.00, 0.29, -44.64, 340.20, 340.20
DU32, 7, 8792
CURR, 0, 0, 1225, 62, 4752, 0.896055
CTUN, 0, 0.00, -0.22, 0.000000, 0.00, 0, -9, 0, 0
ATT, 0.00, -0.89, 0.00, 0.30, -44.64, 340.22, 340.22
CTUN, 0, 0.00, -0.11, 0.000000, 0.00, 0, -9, 0, 0
ATT, 0.00, -0.89, 0.00, 0.29, -44.64, 340.23, 340.23
CTUN, 0, 0.00, -0.28, 0.000000, 0.00, 0, -8, 0, 0
ATT, 0.00, -0.89, 0.00, 0.30, -44.64, 340.25, 340.25
CTUN, 0, 0.00, -0.11, 0.000000, 0.00, 0, -8, 0, 0
ATT, 0.00, -0.89, 0.00, 0.30, -44.76, 340.26, 340.26
CTUN, 0, 0.00, -0.15, 0.000000, 0.00, 0, -8, 0, 0
ATT, 0.00, -0.89, 0.00, 0.30, -44.76, 340.27, 340.27
CTUN, 0, 0.00, -0.12, 0.000000, 0.00, 0, -8, 0, 0
ATT, 0.00, -0.89, 0.00, 0.30, -44.76, 340.29, 340.29
CTUN, 0, 0.00, -0.11, 0.000000, 0.00, 0, -8, 0, 0
ATT, 0.00, -0.89, 0.00, 0.30, -44.76, 340.30, 340.30
CTUN, 0, 0.00, -0.20, 0.000000, 0.00, 0, -8, 0, 0
ATT, 0.00, -0.89, 0.00, 0.30, -44.88, 340.30, 340.30
CTUN, 0, 0.00, -0.19, 0.000000, 0.00, 0, -8, 0, 0
ATT, 0.00, -0.88, 0.00, 0.30, -44.76, 340.31, 340.31
CTUN, 0, 0.00, -0.15, 0.000000, 0.00, 0, -7, 0, 0
ATT, 0.00, -0.89, 0.00, 0.30, -44.76, 340.32, 340.32
DU32, 7, 8792
CURR, 0, 0, 1219, 56, 4752, 1.058627
CTUN, 0, 0.00, -0.12, 0.000000, 0.00, 0, -7, 0, 0
ATT, 0.00, -0.89, 0.00, 0.30, -45.00, 340.34, 340.34
CTUN, 0, 0.00, -0.15, 0.000000, 0.00, 0, -7, 0, 0
ATT, 0.00, -0.89, 0.00, 0.29, -44.88, 340.34, 340.34
CTUN, 0, 0.00, -0.13, 0.000000, 0.00, 0, -7, 0, 0
ATT, 0.00, -0.89, 0.00, 0.30, -44.76, 340.36, 340.36
CTUN, 0, 0.00, -0.23, 0.000000, 0.00, 0, -7, 0, 0
ATT, 0.00, -0.88, 0.00, 0.30, -44.88, 340.36, 340.36
CTUN, 0, 0.00, -0.11, 0.000000, 0.00, 0, -7, 0, 0
ATT, 0.00, -0.89, 0.00, 0.29, -44.88, 340.37, 340.37
CTUN, 0, 0.00, -0.12, 0.000000, 0.00, 0, -7, 0, 0
ATT, 0.00, -0.89, 0.00, 0.29, -44.88, 340.39, 340.39
CTUN, 0, 0.00, -0.26, 0.000000, 0.00, 0, -6, 0, 0
ATT, 0.00, -0.89, 0.00, 0.30, -45.00, 340.40, 340.40
EV, 11
DU32, 7, 8792
DU32, 7, 8792
DU32, 7, 8792
DU32, 7, 8792
DU32, 7, 8792
DU32, 7, 8792
DU32, 7, 8792
PM, 0, 0, 0, 1, 1002, 110000, 0, 4
DU32, 7, 8792
DU32, 7, 8792
DU32, 7, 8792
DU32, 7, 8792
DU32, 7, 8792
DU32, 7, 8792
DU32, 7, 8792
DU32, 7, 8792
DU32, 7, 8792
PM, 0, 0, 0, 0, 1000, 10384, 0, 4
DU32, 7, 8792
DU32, 7, 8792
DU32, 7, 8792
DU32, 7, 8792
DU32, 7, 8792
DU32, 7, 8792
DU32, 7, 8792
DU32, 7, 8792
DU32, 7, 8792
DU32, 7, 8792
PM, 0, 0, 0, 0, 1000, 10484, 0, 4
DU32, 7, 8792
DU32, 7, 8792
DU32, 7, 8792
DU32, 7, 8792
DU32, 7, 8792
DU32, 7, 8792
DU32, 7, 8792
DU32, 7, 8792
DU32, 7, 8792
DU32, 7, 8792
PM, 0, 0, 0, 0, 1000, 10464, 0, 4
DU32, 7, 8792
DU32, 7, 8792
DU32, 7, 8792
DU32, 7, 8792
DU32, 7, 8792
DU32, 7, 8792
D32, 9, 34011
EV, 10
CTUN, 0, 0.00, -0.01, 0.000000, 0.00, 0, 2, 0, 0
ATT, 0.00, -0.88, 0.00, 0.31, 0.00, 340.10, 340.10
CTUN, 0, 0.00, -0.02, 0.000000, 0.00, 0, 1, 0, 0
ATT, 0.00, -0.88, 0.00, 0.31, 0.00, 340.11, 340.11
CTUN, 0, 0.00, -0.14, 0.000000, 0.00, 0, 1, 0, 0
ATT, 0.00, -0.88, 0.00, 0.30, 0.00, 340.12, 340.12
CTUN, 0, 0.00, 0.00, 0.000000, 0.00, 0, 1, 0, 0
ATT, 0.00, -0.89, 0.00, 0.30, 0.00, 340.14, 340.14
CTUN, 0, 0.00, -0.01, 0.000000, 0.00, 0, 1, 0, 0
ATT, 0.00, -0.89, 0.00, 0.30, 0.00, 340.16, 340.16
CTUN, 0, 0.00, -0.12, 0.000000, 0.00, 0, 1, 0, 0
ATT, 0.00, -0.88, 0.00, 0.29, 0.00, 340.17, 340.17
CTUN, 0, 0.00, -0.13, 0.000000, 0.00, 0, 1, 0, 0
ATT, 0.00, -0.89, 0.00, 0.29, 0.00, 340.18, 340.18
CTUN, 0, 0.00, -0.22, 0.000000, 0.00, 0, 1, 0, 0
ATT, 0.00, -0.89, 0.00, 0.29, 0.00, 340.19, 340.19
CTUN, 0, 0.00, -0.11, 0.000000, 0.00, 0, 1, 0, 0
ATT, 0.00, -0.89, 0.00, 0.29, 0.00, 340.19, 340.19
CTUN, 0, 0.00, -0.22, 0.000000, 0.00, 0, 1, 0, 0
DU32, 7, 8792
CURR, 0, 0, 1222, 61, 4752, 1.367475
ATT, 0.00, -0.89, 0.00, 0.29, 0.00, 340.20, 340.20
CTUN, 0, 0.00, -0.19, 0.000000, 0.00, 0, 0, 0, 0
ATT, 0.00, -0.89, 0.00, 0.29, 0.00, 340.22, 340.22
CTUN, 0, 0.00, -0.12, 0.000000, 0.00, 0, 0, 0, 0
ATT, 0.00, -0.89, 0.00, 0.28, 0.00, 340.23, 340.23
CTUN, 0, 0.00, -0.16, 0.000000, 0.00, 0, 0, 0, 0
ATT, 0.00, -0.89, 0.00, 0.29, 0.00, 340.24, 340.24
CTUN, 0, 0.00, -0.25, 0.000000, 0.00, 0, 0, 0, 0
ATT, 0.00, -0.90, 0.00, 0.28, 0.00, 340.25, 340.25
CTUN, 0, 0.00, -0.19, 0.000000, 0.00, 0, 0, 0, 0
ATT, 0.00, -0.90, 0.00, 0.28, 0.00, 340.26, 340.26
CTUN, 0, 0.00, -0.20, 0.000000, 0.00, 0, 0, 0, 0
ATT, 0.00, -0.89, 0.00, 0.27, 0.00, 340.27, 340.27
CTUN, 0, 0.00, -0.16, 0.000000, 0.00, 0, 0, 0, 0
ATT, 0.00, -0.90, 0.00, 0.28, 0.00, 340.28, 340.28
CTUN, 0, 0.00, -0.13, 0.000000, 0.00, 0, 0, 0, 0
ATT, 0.00, -0.90, 0.00, 0.27, -14.60, 340.30, 340.30
CTUN, 0, 0.00, -0.29, 0.000000, 0.00, 0, 0, 0, 0
ATT, 0.00, -0.90, 0.00, 0.27, -37.22, 340.30, 340.30
CTUN, 0, 0.00, -0.29, 0.000000, 0.00, 0, 0, 0, 0
DU32, 7, 8792
CURR, 0, 0, 1223, 59, 4752, 1.530671
ATT, 0.00, -0.90, 0.00, 0.28, -43.82, 340.31, 340.31
CTUN, 0, 0.00, -0.28, 0.000000, 0.00, 0, -1, 0, 0
ATT, 0.00, -0.90, 0.00, 0.27, -44.29, 340.31, 340.31
CTUN, 0, 0.00, -0.25, 0.000000, 0.00, 0, -1, 0, 0
ATT, 0.00, -0.90, 0.00, 0.26, -44.29, 340.32, 340.32
CTUN, 0, 0.00, -0.18, 0.000000, 0.00, 0, -1, 0, 0
ATT, 0.00, -0.90, 0.00, 0.26, -44.29, 340.33, 340.33
CTUN, 0, 0.00, -0.20, 0.000000, 0.00, 0, -1, 0, 0
ATT, 0.00, -0.90, 0.00, 0.26, -44.64, 340.33, 340.33
CTUN, 0, 0.00, -0.25, 0.000000, 0.00, 0, -1, 0, 0
ATT, 0.00, -0.90, 0.00, 0.25, -44.41, 340.34, 340.34
CTUN, 0, 0.00, -0.17, 0.000000, 0.00, 0, -2, 0, 0
ATT, 0.00, -0.90, 0.00, 0.25, -44.41, 340.36, 340.36
CTUN, 0, 0.00, -0.11, 0.000000, 0.00, 0, -2, 0, 0
ATT, 0.00, -0.91, 0.00, 0.25, -44.41, 340.37, 340.37
CTUN, 0, 0.00, -0.10, 0.000000, 0.00, 0, -2, 0, 0
ATT, 0.00, -0.91, 0.00, 0.25, -44.41, 340.38, 340.38
CTUN, 0, 0.00, -0.15, 0.000000, 0.00, 0, -2, 0, 0
ATT, 0.00, -0.90, 0.00, 0.25, -44.41, 340.38, 340.38
CTUN, 0, 0.00, -0.19, 0.000000, 0.00, 0, -2, 0, 0
DU32, 7, 8792
CURR, 0, 0, 1223, 58, 4793, 1.690410
ATT, 0.00, -0.91, 0.00, 0.25, -44.41, 340.40, 340.40
CTUN, 0, 0.00, -0.23, 0.000000, 0.00, 0, -2, 0, 0
ATT, 0.00, -0.91, 0.00, 0.25, -44.41, 340.40, 340.40
CTUN, 0, 0.00, -0.16, 0.000000, 0.00, 0, -2, 0, 0
ATT, 0.00, -0.91, 0.00, 0.24, -44.41, 340.41, 340.41
CTUN, 0, 0.00, -0.10, 0.000000, 0.00, 0, -2, 0, 0
ATT, 0.00, -0.91, 0.00, 0.24, -44.41, 340.42, 340.42
CTUN, 0, 0.00, -0.22, 0.000000, 0.00, 0, -2, 0, 0
ATT, 0.00, -0.91, 0.00, 0.24, -44.41, 340.42, 340.42
CTUN, 0, 0.00, -0.13, 0.000000, 0.00, 0, -2, 0, 0
ATT, 0.00, -0.92, 0.00, 0.24, -44.41, 340.43, 340.43
CTUN, 0, 0.00, -0.18, 0.000000, 0.00, 0, -2, 0, 0
ATT, 0.00, -0.91, 0.00, 0.24, -44.52, 340.44, 340.44
CTUN, 0, 0.00, -0.17, 0.000000, 0.00, 0, -2, 0, 0
ATT, 0.00, -0.92, 0.00, 0.24, -44.52, 340.45, 340.45
CTUN, 0, 0.00, -0.13, 0.000000, 0.00, 0, -2, 0, 0
ATT, 0.00, -0.92, 0.00, 0.24, -44.41, 340.46, 340.46
EV, 11
DU32, 7, 8792
PM, 0, 0, 0, 2, 1000, 2059964, 0, 4
DU32, 7, 8792
DU32, 7, 8792
DU32, 7, 8792
DU32, 7, 8792
DU32, 7, 8792
DU32, 7, 8792
DU32, 7, 8792
DU32, 7, 8792
DU32, 7, 8792
DU32, 7, 8792
PM, 0, 0, 0, 0, 1000, 10488, 0, 4
DU32, 7, 8792
DU32, 7, 8792
DU32, 7, 8792
DU32, 7, 8792
DU32, 7, 8792
DU32, 7, 8792
DU32, 7, 8792
DU32, 7, 8792
DU32, 7, 8792
DU32, 7, 8792
PM, 0, 0, 0, 0, 1000, 10420, 0, 4
DU32, 7, 8792
DU32, 7, 8792
DU32, 7, 8792
DU32, 7, 8792
DU32, 7, 8792
DU32, 7, 8792
DU32, 7, 8792
DU32, 7, 8792
DU32, 7, 8792
DU32, 7, 8792
PM, 0, 0, 0, 0, 1002, 10476, 0, 4
DU32, 7, 8792
DU32, 7, 8792
DU32, 7, 8792
DU32, 7, 8792
DU32, 7, 8792
DU32, 7, 8792
DU32, 7, 8792
DU32, 7, 8792
DU32, 7, 8792
DU32, 7, 8792
PM, 0, 0, 0, 0, 1000, 10412, 0, 4
DU32, 7, 8792
DU32, 7, 8792
DU32, 7, 8792
DU32, 7, 8792
DU32, 7, 8792
DU32, 7, 8792
DU32, 7, 8792
DU32, 7, 8792
DU32, 7, 8792
DU32, 7, 8792
PM, 0, 0, 0, 0, 1000, 10436, 0, 4
DU32, 7, 8792
DU32, 7, 8792
DU32, 7, 8792
DU32, 7, 8792
DU32, 7, 8792
DU32, 7, 8792
DU32, 7, 8792
DU32, 7, 8792
DU32, 7, 8792
DU32, 7, 8792
PM, 0, 0, 0, 0, 1000, 10452, 0, 4
DU32, 7, 8792
DU32, 7, 8792
DU32, 7, 8792
DU32, 7, 8792
DU32, 7, 8792
DU32, 7, 8792
DU32, 7, 8792
DU32, 7, 8792
DU32, 7, 8792
DU32, 7, 8792
PM, 0, 0, 0, 0, 1000, 10420, 0, 4
DU32, 7, 8792
DU32, 7, 8792
DU32, 7, 8792
DU32, 7, 8792
DU32, 7, 8792
DU32, 7, 8792
DU32, 7, 8792
DU32, 7, 8792
DU32, 7, 8792
DU32, 7, 8792
PM, 0, 0, 0, 0, 1000, 10456, 0, 4
DU32, 7, 8792
DU32, 7, 8792
DU32, 7, 8792
DU32, 7, 8792
DU32, 7, 8792
DU32, 7, 8792
DU32, 7, 8792
DU32, 7, 8792
DU32, 7, 8792
DU32, 7, 8792
PM, 0, 0, 0, 0, 1000, 10444, 0, 4
DU32, 7, 8792
logs enabled:  ATTITUDE_MED GPS PM CTUN NTUN CMD CURRENT

10 logs
Log 1,    start 1,   end 756
Log 2,    start 757,   end 1455
Log 3,    start 1456,   end 1476
Log 4,    start 1477,   end 1809
Log 5,    start 1810,   end 2193
Log 6,    start 2194,   end 2872
Log 7,    start 2873,   end 3313
Log 8,    start 3314,   end 3597
Log 9,    start 3598,   end 3617
Log 10,    start 3618,   end 3646

Log] 