dump 34

ArduCopter V3.1-rc5.1
Free RAM: 885
APM 2
FMT, 128, 89, FMT, BBnNZ, Type,Length,Name,Format
FMT, 129, 23, PARM, Nf, Name,Value
FMT, 130, 35, GPS, BIBcLLeeEe, Status,Time,NSats,HDop,Lat,Lng,RelAlt,Alt,Spd,GCrs
FMT, 131, 27, IMU, ffffff, GyrX,GyrY,GyrZ,AccX,AccY,AccZ
FMT, 132, 67, MSG, Z, Message
FMT, 25, 25, ATUN, BBfffff, Axis,TuneStep,RateMin,RateMax,RPGain,RDGain,SPGain
FMT, 26, 9, ATDE, cf, Angle,Rate
FMT, 9, 19, CURR, hIhhhf, Thr,ThrInt,Volt,Curr,Vcc,CurrTot
FMT, 11, 11, MOT, hhhh, Mot1,Mot2,Mot3,Mot4
FMT, 12, 28, OF, hhBccffee, Dx,Dy,SQual,X,Y,Lat,Lng,Roll,Pitch
FMT, 5, 49, NTUN, Ecffffffffee, WPDst,WPBrg,PErX,PErY,DVelX,DVelY,VelX,VelY,DAcX,DAcY,DRol,DPit
FMT, 4, 25, CTUN, hcefchhhh, ThrIn,SonAlt,BarAlt,WPAlt,DesSonAlt,AngBst,CRate,ThrOut,DCRate
FMT, 15, 21, MAG, hhhhhhhhh, MagX,MagY,MagZ,OfsX,OfsY,OfsZ,MOfsX,MOfsY,MOfsZ
FMT, 6, 17, PM, BBBHHIhB, RenCnt,RenBlw,FixCnt,NLon,NLoop,MaxT,PMT,I2CErr
FMT, 8, 20, CMD, BBBBBeLL, CTot,CNum,CId,COpt,Prm1,Alt,Lat,Lng
FMT, 1, 17, ATT, cccccCC, RollIn,Roll,PitchIn,Pitch,YawIn,Yaw,NavYaw
FMT, 17, 37, INAV, cccfffiiff, BAlt,IAlt,IClb,ACorrX,ACorrY,ACorrZ,GLat,GLng,ILat,ILng
FMT, 3, 6, MODE, Mh, Mode,ThrCrs
FMT, 10, 3, STRT, , 
FMT, 13, 4, EV, B, Id
FMT, 20, 6, D16, Bh, Id,Value
FMT, 21, 6, DU16, BH, Id,Value
FMT, 22, 8, D32, Bi, Id,Value
FMT, 23, 8, DU32, BI, Id,Value
FMT, 24, 8, DFLT, Bf, Id,Value
FMT, 14, 28, PID, Biiiiif, Id,Error,P,I,D,Out,Gain
FMT, 18, 25, CAM, ILLeccC, GPSTime,Lat,Lng,Alt,Roll,Pitch,Yaw
FMT, 19, 5, ERR, BB, Subsys,ECode
D32, 9, 13173
CMD, 1, 0, 16, 0, 0, 0.00, -33.7850790, 151.0662656
EV, 10
GPS, 3, 269240000, 12, 1.77, -33.7850790, 151.0662655, 0.00, 86.44, 0.01, 209.57
CTUN, 0, 0.00, -0.05, 0.000000, 0.00, 0, -4, 0, 0
ATT, 0.00, -3.22, 0.00, -3.44, 0.00, 131.72, 131.72
CTUN, 0, 0.00, -0.11, 0.000000, 0.00, 0, -4, 0, 0
ATT, 0.00, -3.39, 0.00, -3.38, 0.00, 131.73, 131.73
GPS, 3, 269247400, 12, 1.76, -33.7850784, 151.0662620, -0.01, 86.29, 0.02, 209.57
CTUN, 0, 0.00, -0.21, 0.000000, 0.00, 0, -4, 0, 0
ATT, 0.00, -3.44, 0.00, -3.35, 0.00, 131.73, 131.73
CTUN, 0, 0.00, -0.42, 0.000000, 0.00, 0, -4, 0, 0
ATT, 0.00, -3.41, 0.00, -3.36, 0.00, 131.74, 131.74
GPS, 3, 269247600, 12, 1.76, -33.7850784, 151.0662619, -0.04, 86.28, 0.01, 209.57
DU32, 7, 8793
CURR, 0, 0, 1223, 69, 4793, 0.042398
CTUN, 0, 0.00, -0.46, 0.000000, 0.00, 0, -5, 0, 0
ATT, 0.00, -3.41, 0.00, -3.35, 0.00, 131.73, 131.73
CTUN, 0, 0.00, -0.48, 0.000000, 0.00, 0, -5, 0, 0
ATT, 0.00, -3.43, 0.00, -3.35, 0.00, 131.71, 131.71
GPS, 3, 269247800, 12, 1.76, -33.7850784, 151.0662619, -0.10, 86.27, 0.01, 209.57
CTUN, 0, 0.00, -0.44, 0.000000, 0.00, 0, -6, 0, 0
ATT, 0.00, -3.42, 0.00, -3.35, 0.00, 131.71, 131.71
CTUN, 0, 0.00, -0.41, 0.000000, 0.00, 0, -6, 0, 0
ATT, 0.00, -3.42, 0.00, -3.36, 0.00, 131.70, 131.70
GPS, 3, 269248000, 12, 1.76, -33.7850784, 151.0662618, -0.16, 86.27, 0.01, 209.57
CTUN, 0, 0.00, -0.47, 0.000000, 0.00, 0, -7, 0, 0
ATT, 0.00, -3.42, 0.00, -3.35, 0.00, 131.70, 131.70
CTUN, 0, 0.00, -0.42, 0.000000, 0.00, 0, -7, 0, 0
ATT, 0.00, -3.43, 0.00, -3.34, 0.00, 131.69, 131.69
GPS, 3, 269248200, 12, 1.76, -33.7850784, 151.0662617, -0.20, 86.27, 0.01, 209.57
CTUN, 0, 0.00, -0.37, 0.000000, 0.00, 0, -7, 0, 0
ATT, 0.00, -3.44, 0.00, -3.35, 0.00, 131.68, 131.68
CTUN, 0, 0.00, -0.50, 0.000000, 0.00, 0, -8, 0, 0
ATT, 0.00, -3.43, 0.00, -3.35, 0.00, 131.68, 131.68
GPS, 3, 269248400, 12, 1.76, -33.7850783, 151.0662617, -0.24, 86.27, 0.01, 209.57
CTUN, 0, 0.00, -0.43, 0.000000, 0.00, 0, -8, 0, 0
ATT, 0.00, -3.44, 0.00, -3.37, 0.00, 131.68, 131.68
CTUN, 0, 0.00, -0.49, 0.000000, 0.00, 0, -8, 0, 0
ATT, 0.00, -3.43, 0.00, -3.34, 0.00, 131.67, 131.67
GPS, 3, 269248600, 12, 1.76, -33.7850783, 151.0662616, -0.29, 86.26, 0.01, 209.57
DU32, 7, 8793
CURR, 0, 0, 1223, 52, 4772, 0.199339
PM, 0, 0, 51, 1, 1000, 7358658, 17, 0
CTUN, 0, 0.00, -0.38, 0.000000, 0.00, 0, -9, 0, 0
ATT, 0.00, -3.43, 0.00, -3.36, 0.00, 131.66, 131.66
CTUN, 0, 0.00, -0.38, 0.000000, 0.00, 0, -9, 0, 0
ATT, 0.00, -3.44, 0.00, -3.35, 0.00, 131.66, 131.66
GPS, 3, 269248800, 12, 1.76, -33.7850783, 151.0662615, -0.32, 86.26, 0.00, 209.57
CTUN, 0, 0.00, -0.10, 0.000000, 0.00, 0, -9, 0, 0
ATT, 0.00, -3.43, 0.00, -3.34, 0.00, 131.65, 131.65
CTUN, 0, 0.00, -0.13, 0.000000, 0.00, 0, -9, 0, 0
ATT, 0.00, -3.43, 0.00, -3.37, 0.00, 131.64, 131.64
GPS, 3, 269249000, 12, 1.76, -33.7850783, 151.0662615, -0.32, 86.26, 0.01, 209.57
CTUN, 0, 0.00, -0.37, 0.000000, 0.00, 0, -8, 0, 0
ATT, 0.00, -3.42, 0.00, -3.36, 0.00, 131.63, 131.63
CTUN, 0, 0.00, -0.21, 0.000000, 0.00, 0, -9, 0, 0
ATT, 0.00, -3.43, 0.00, -3.35, 0.00, 131.62, 131.62
GPS, 3, 269249200, 12, 1.76, -33.7850782, 151.0662614, -0.33, 86.26, 0.01, 209.57
CTUN, 0, 0.00, -0.29, 0.000000, 0.00, 0, -9, 0, 0
ATT, 0.00, -3.43, 0.00, -3.36, 0.00, 131.62, 131.62
CTUN, 0, 0.00, -0.37, 0.000000, 0.00, 0, -8, 0, 0
ATT, 0.00, -3.43, 0.00, -3.34, 0.00, 131.61, 131.61
GPS, 3, 269249400, 12, 1.76, -33.7850782, 151.0662614, -0.34, 86.25, 0.01, 209.57
CTUN, 0, 0.00, -0.10, 0.000000, 0.00, 0, -9, 0, 0
ATT, 0.00, -3.43, 0.00, -3.34, 0.00, 131.62, 131.62
CTUN, 0, 0.00, -0.16, 0.000000, 0.00, 0, -8, 0, 0
ATT, 0.00, -3.42, 0.00, -3.35, 0.00, 131.61, 131.61
GPS, 3, 269249600, 12, 1.76, -33.7850782, 151.0662613, -0.34, 86.25, 0.01, 209.57
DU32, 7, 8793
CURR, 0, 0, 1226, 55, 4752, 0.358493
CTUN, 0, 0.00, -0.20, 0.000000, 0.00, 0, -8, 0, 0
ATT, 0.00, -3.43, 0.00, -3.35, 0.00, 131.60, 131.60
CTUN, 0, 0.00, -0.25, 0.000000, 0.00, 0, -8, 0, 0
ATT, 0.00, -3.42, 0.00, -3.35, 0.00, 131.59, 131.59
GPS, 3, 269249800, 12, 1.76, -33.7850782, 151.0662613, -0.34, 86.25, 0.01, 209.57
CTUN, 0, 0.00, -0.24, 0.000000, 0.00, 0, -8, 0, 0
ATT, 0.00, -3.43, 0.00, -3.35, 0.00, 131.60, 131.60
CTUN, 0, 0.00, -0.23, 0.000000, 0.00, 0, -8, 0, 0
ATT, 0.00, -3.43, 0.00, -3.35, 0.00, 131.59, 131.59
GPS, 3, 269250000, 12, 1.76, -33.7850781, 151.0662612, -0.35, 86.25, 0.01, 209.57
CTUN, 0, 0.00, -0.15, 0.000000, 0.00, 0, -8, 0, 0
ATT, 0.00, -3.42, 0.00, -3.36, 0.00, 131.59, 131.59
CTUN, 0, 0.00, -0.29, 0.000000, 0.00, 0, -7, 0, 0
ATT, 0.00, -3.43, 0.00, -3.35, 0.00, 131.59, 131.59
GPS, 3, 269250200, 12, 1.76, -33.7850781, 151.0662612, -0.35, 86.25, 0.07, 209.57
CTUN, 0, 0.00, -0.36, 0.000000, 0.00, 0, -8, 0, 0
ATT, 0.00, -3.42, 0.00, -3.33, 0.00, 131.58, 131.58
CTUN, 0, 0.00, -0.19, 0.000000, 0.00, 0, -8, 0, 0
ATT, 0.00, -3.43, 0.00, -3.34, 0.00, 131.58, 131.58
GPS, 3, 269250400, 12, 1.76, -33.7850781, 151.0662612, -0.36, 86.24, 0.01, 209.57
CTUN, 0, 0.00, -0.16, 0.000000, 0.00, 0, -7, 0, 0
ATT, 0.00, -3.44, 0.00, -3.32, 0.00, 131.58, 131.58
CTUN, 0, 0.00, -0.15, 0.000000, 0.00, 0, -8, 0, 0
ATT, 0.00, -3.43, 0.00, -3.35, 0.00, 131.58, 131.58
GPS, 3, 269250600, 12, 1.76, -33.7850782, 151.0662611, -0.35, 86.24, 0.01, 209.57
DU32, 7, 8793
CURR, 0, 0, 1227, 58, 4732, 0.515479
CTUN, 0, 0.00, -0.15, 0.000000, 0.00, 0, -7, 0, 0
ATT, 0.00, -3.43, 0.00, -3.35, 0.00, 131.58, 131.58
CTUN, 0, 0.00, -0.17, 0.000000, 0.00, 0, -7, 0, 0
ATT, 0.00, -3.42, 0.00, -3.35, 0.00, 131.58, 131.58
GPS, 3, 269250800, 12, 1.76, -33.7850782, 151.0662611, -0.34, 86.25, 0.02, 209.57
CTUN, 0, 0.00, -0.23, 0.000000, 0.00, 0, -7, 0, 0
ATT, 0.00, -3.42, 0.00, -3.36, 0.00, 131.59, 131.59
CTUN, 0, 0.00, -0.15, 0.000000, 0.00, 0, -6, 0, 0
ATT, 0.00, -3.42, 0.00, -3.35, 0.00, 131.58, 131.58
EV, 15
GPS, 3, 269251000, 12, 1.76, -33.7850781, 151.0662611, -0.34, 86.25, 0.01, 209.57
EV, 28
CTUN, 206, 0.00, -0.23, 0.000000, 0.00, 0, -6, 222, 0
ATT, 0.00, -3.42, 0.00, -3.34, 0.12, 131.57, 131.58
CTUN, 315, 0.00, 0.01, 0.000000, 0.00, 0, -6, 355, 0
ATT, 0.00, -3.41, 0.00, -3.33, 0.00, 131.52, 131.58
GPS, 3, 269251200, 12, 1.76, -33.7850781, 151.0662610, -0.33, 86.25, 0.02, 209.57
CTUN, 407, 0.00, -0.26, 0.000000, 0.00, 0, -5, 466, 0
ATT, 0.00, -3.51, 0.00, -3.18, 0.00, 131.33, 131.58
CTUN, 417, 0.00, -1.02, 0.000000, 0.00, 0, -5, 479, 0
ATT, 0.00, -3.60, 0.00, -2.84, 0.00, 130.62, 131.58
GPS, 3, 269251400, 12, 1.76, -33.7850781, 151.0662610, -0.34, 86.26, 0.00, 209.57
CTUN, 425, 0.00, -2.05, 0.000000, 0.00, 0, -4, 488, 0
ATT, 0.00, -4.22, 0.00, -2.07, 0.00, 129.42, 131.58
CTUN, 459, 0.00, -1.52, 0.000000, 0.00, 0, -6, 530, 0
ATT, 0.00, -4.40, 0.00, -1.09, 0.00, 127.45, 131.58
GPS, 3, 269251600, 12, 1.76, -33.7850778, 151.0662611, -0.50, 86.25, 0.00, 209.57
DU32, 7, 8313
CURR, 468, 2480, 1178, 1149, 4732, 1.928511
CTUN, 475, 0.00, -1.88, 0.000000, 0.00, 0, 0, 549, 0
ATT, 0.00, -4.52, 0.00, 0.86, 0.00, 125.72, 131.58
CTUN, 480, 0.00, -1.09, 0.000000, 0.00, 0, 2, 555, 0
ATT, 0.00, -2.87, -0.49, 3.33, 0.00, 124.75, 131.58
GPS, 3, 269251800, 12, 1.76, -33.7850776, 151.0662616, -0.63, 86.30, 0.18, 209.57
CTUN, 480, 0.00, -0.03, 0.000000, 0.00, 0, 6, 555, 0
ATT, 0.00, -2.55, -1.22, 4.17, 0.00, 124.91, 131.58
CTUN, 481, 0.00, 0.12, 0.000000, 0.00, 0, 10, 556, 0
ATT, 0.00, -4.45, -4.90, 3.62, 0.00, 125.57, 131.58
GPS, 3, 269252000, 12, 1.76, -33.7850773, 151.0662620, -0.58, 86.35, 0.21, 209.57
CTUN, 480, 0.00, 0.47, 0.000000, 0.00, 0, 12, 555, 0
ATT, 1.25, -6.97, -6.86, 0.59, 0.00, 126.00, 131.58
CTUN, 481, 0.00, 0.54, 0.000000, 0.00, 0, 16, 556, 0
ATT, 1.03, -7.80, -11.28, -2.09, 0.00, 125.74, 131.58
GPS, 3, 269252200, 12, 1.76, -33.7850768, 151.0662623, -0.44, 86.42, 0.25, 209.57
CTUN, 480, 0.00, 0.32, 0.000000, 0.00, 0, 20, 555, 0
ATT, 0.68, -6.03, -10.79, -6.34, 0.00, 125.43, 131.58
CTUN, 480, 0.00, 0.46, 0.000000, 0.00, 0, 22, 555, 0
ATT, 2.86, -2.98, -9.68, -8.28, 0.00, 125.12, 131.58
GPS, 3, 269252400, 12, 1.76, -33.7850758, 151.0662632, -0.29, 86.47, 0.31, 105.93
CTUN, 481, 0.00, 0.71, 0.000000, 0.00, 0, 22, 556, 0
ATT, 6.06, 0.31, -6.86, -8.05, 0.00, 125.13, 131.58
CTUN, 481, 0.00, 0.67, 0.000000, 0.00, 0, 20, 556, 0
ATT, 13.62, 4.00, -6.00, -5.97, 0.00, 125.50, 131.58
GPS, 3, 269252600, 12, 1.76, -33.7850748, 151.0662648, -0.14, 86.56, 0.62, 58.24
DU32, 7, 8313
CURR, 481, 8021, 1165, 1295, 4732, 5.495093
CTUN, 483, 0.00, 0.65, 0.000000, 0.00, 0, 16, 559, 0
ATT, 12.02, 9.30, -4.53, -3.80, 0.00, 126.11, 131.58
CTUN, 481, 0.00, 0.90, 0.000000, 0.00, 0, 13, 556, 0
ATT, 13.05, 13.08, -4.53, -2.35, 0.00, 126.51, 131.58
GPS, 3, 269252800, 12, 1.76, -33.7850743, 151.0662671, -0.01, 86.66, 0.92, 57.53
CTUN, 482, 0.00, 0.79, 0.000000, 0.00, 0, 10, 558, 0
ATT, 11.56, 13.43, -4.53, -2.07, 0.00, 126.51, 131.58
CTUN, 481, 0.00, 0.80, 0.000000, 0.00, 0, 3, 556, 0
ATT, 10.41, 10.82, -4.78, -2.25, 0.00, 126.23, 131.58
GPS, 3, 269253000, 12, 1.76, -33.7850745, 151.0662687, 0.09, 86.66, 1.08, 68.37
CTUN, 483, 0.00, 0.87, 0.000000, 0.00, 0, 1, 559, 0
ATT, 8.81, 9.74, -6.74, -2.48, 0.00, 125.86, 131.58
CTUN, 484, 0.00, 0.81, 0.000000, 0.00, 0, -2, 560, 0
ATT, 8.35, 8.37, -7.23, -3.09, 0.00, 125.50, 131.58
GPS, 3, 269253200, 12, 1.76, -33.7850742, 151.0662707, 0.18, 86.71, 0.78, 76.27
CTUN, 484, 0.00, 0.83, 0.000000, 0.00, 0, -2, 560, 0
ATT, 8.12, 7.42, -7.11, -3.64, 0.00, 125.28, 131.58
CTUN, 484, 0.00, 0.79, 0.000000, 0.00, 0, -5, 560, 0
ATT, 8.47, 5.12, -7.11, -4.62, 0.00, 125.01, 131.58
GPS, 3, 269253400, 12, 1.76, -33.7850730, 151.0662711, 0.25, 86.68, 0.93, 77.80
CTUN, 488, 0.00, 0.82, 0.000000, 0.00, 0, -6, 565, 0
ATT, 8.01, 2.65, -5.88, -5.01, 0.00, 125.06, 131.58
EV, 16
CTUN, 494, 0.00, 0.79, 0.000000, 0.00, 0, -7, 572, 0
ATT, 9.84, 0.00, -2.08, -4.33, 0.00, 125.47, 131.58
GPS, 3, 269253600, 12, 1.76, -33.7850727, 151.0662716, 0.30, 86.63, 0.66, 46.64
DU32, 7, 8569
CURR, 499, 13622, 1165, 1326, 4772, 9.125284
CTUN, 499, 0.00, 0.91, 0.000000, 0.00, 0, -5, 578, 0
ATT, 9.96, 0.79, 0.00, -1.13, 0.00, 125.80, 131.58
CTUN, 499, 0.00, 1.04, 0.000000, 0.00, 0, 0, 578, 0
ATT, 10.53, 3.82, 0.00, 2.61, 0.00, 125.89, 131.58
GPS, 3, 269253800, 11, 1.95, -33.7850733, 151.0662723, 0.36, 86.62, 0.34, 46.64
CTUN, 501, 0.00, 1.03, 0.000000, 0.00, 0, 4, 580, 0
ATT, 16.94, 7.50, 0.00, 3.09, 0.00, 125.66, 131.58
CTUN, 501, 0.00, 0.95, 0.000000, 0.00, 0, 8, 580, 0
ATT, 15.11, 12.16, 0.00, 3.10, 0.00, 125.09, 131.58
GPS, 3, 269254000, 11, 1.95, -33.7850749, 151.0662732, 0.45, 86.60, 0.39, 46.64
CTUN, 503, 0.00, 0.87, 0.000000, 0.00, 0, 12, 582, 0
ATT, 12.25, 13.87, 0.00, 3.48, 0.00, 124.77, 131.58
CTUN, 501, 0.00, 0.81, 0.000000, 0.00, 0, 13, 580, 0
ATT, 12.82, 11.09, 0.00, 3.66, 0.00, 124.67, 131.58
GPS, 3, 269254200, 12, 1.76, -33.7850763, 151.0662737, 0.53, 86.57, 0.76, 46.64
CTUN, 501, 0.00, 0.73, 0.000000, 0.00, 0, 14, 580, 0
ATT, 12.36, 9.94, 0.00, 2.33, 0.00, 124.64, 131.58
CTUN, 501, 0.00, 0.68, 0.000000, 0.00, 0, 20, 580, 0
ATT, 12.25, 9.21, 0.00, 2.00, 0.00, 124.77, 131.58
GPS, 3, 269254400, 12, 1.76, -33.7850771, 151.0662737, 0.59, 86.54, 0.80, 98.27
CTUN, 503, 0.00, 0.69, 0.000000, 0.00, 0, 21, 582, 0
ATT, 12.02, 8.69, 0.00, 2.64, 0.00, 125.06, 131.58
CTUN, 503, 0.00, 0.68, 0.000000, 0.00, 0, 22, 582, 0
ATT, 11.67, 8.34, 0.00, 2.19, 0.00, 125.07, 131.58
GPS, 3, 269254600, 11, 1.95, -33.7850790, 151.0662731, 0.64, 86.52, 0.58, 98.27
DU32, 7, 8569
CURR, 501, 19422, 1162, 1370, 4732, 12.95821
CTUN, 502, 0.00, 0.66, 0.000000, 0.00, 0, 27, 581, 0
ATT, 11.22, 7.69, 0.00, 1.96, 0.00, 124.97, 131.58
CTUN, 503, 0.00, 0.52, 0.000000, 0.00, 0, 30, 582, 0
ATT, 10.53, 7.09, 0.00, 2.01, 0.00, 124.63, 131.58
GPS, 3, 269254800, 11, 1.95, -33.7850813, 151.0662721, 0.69, 86.51, 0.88, 129.35
CTUN, 503, 0.00, 0.46, 0.000000, 0.00, 0, 26, 582, 0
ATT, 11.45, 7.14, 0.00, 1.69, 0.00, 124.32, 131.58
CTUN, 504, 0.00, 0.46, 0.000000, 0.00, 0, 29, 583, 0
ATT, 12.82, 6.91, 0.00, 1.93, 0.00, 124.04, 131.58
GPS, 3, 269255000, 11, 1.95, -33.7850840, 151.0662708, 0.72, 86.50, 1.18, 173.87
CTUN, 503, 0.00, 0.38, 0.000000, 0.00, 0, 30, 582, 0
ATT, 12.48, 6.96, 0.00, 2.14, 0.00, 123.71, 131.58
CTUN, 513, 0.00, 0.41, 0.000000, 0.00, 0, 33, 590, 0
ATT, 10.76, 6.53, 0.00, 1.89, 0.00, 123.68, 131.58
GPS, 3, 269255200, 11, 1.95, -33.7850866, 151.0662693, 0.74, 86.49, 1.43, 191.48
CTUN, 519, 0.00, 0.64, 0.000000, 0.00, 0, 32, 595, 0
ATT, 8.70, 5.26, 0.00, 1.30, 0.00, 123.69, 131.58
CTUN, 526, 0.00, 0.78, 0.000000, 0.00, 0, 33, 601, 0
ATT, 5.15, 3.04, 0.92, 1.22, 0.00, 123.73, 131.58
GPS, 3, 269255400, 11, 1.95, -33.7850893, 151.0662675, 0.79, 86.49, 1.54, 198.61
CTUN, 530, 0.00, 0.76, 0.000000, 0.00, 0, 40, 605, 0
ATT, 4.12, 0.56, 2.66, 1.88, 0.00, 123.61, 131.58
CTUN, 537, 0.00, 0.63, 0.000000, 0.00, 0, 47, 611, 0
ATT, 3.09, -1.16, 4.52, 2.56, 0.00, 123.72, 131.58
GPS, 3, 269255600, 11, 1.95, -33.7850916, 151.0662657, 0.87, 86.51, 1.63, 204.36
DU32, 7, 8569
CURR, 541, 25331, 1151, 1503, 4732, 16.90164
CTUN, 541, 0.00, 0.64, 0.000000, 0.00, 0, 44, 614, 0
ATT, 2.74, -3.15, 6.49, 5.30, 0.00, 123.21, 131.58
CTUN, 541, 0.00, 0.55, 0.000000, 0.00, 0, 52, 614, 0
ATT, 2.74, -2.64, 8.69, 7.93, 0.00, 122.58, 131.58
GPS, 3, 269255800, 12, 1.76, -33.7850931, 151.0662639, 0.94, 86.50, 1.62, 208.09
CTUN, 542, 0.00, 0.60, 0.000000, 0.00, 0, 65, 615, 0
ATT, 2.86, -3.15, 9.97, 9.46, 0.00, 122.47, 131.58
CTUN, 542, 0.00, 0.77, 0.000000, 0.00, 0, 74, 615, 0
ATT, 1.25, -2.77, 9.97, 10.86, 0.00, 122.68, 131.58
GPS, 3, 269256000, 11, 1.95, -33.7850949, 151.0662623, 1.03, 86.52, 1.35, 210.76
CTUN, 542, 0.00, 1.04, 0.000000, 0.00, 0, 84, 615, 0
ATT, 0.91, -2.47, 8.23, 11.45, 0.00, 123.21, 131.58
CTUN, 542, 0.00, 1.13, 0.000000, 0.00, 0, 95, 615, 0
ATT, 0.45, -1.19, 6.37, 10.02, 0.00, 124.19, 131.58
GPS, 3, 269256200, 11, 1.95, -33.7850954, 151.0662607, 1.20, 86.64, 1.28, 212.56
CTUN, 542, 0.00, 1.05, 0.000000, 0.00, 0, 98, 615, 0
ATT, 0.00, -0.84, 1.15, 7.81, 0.00, 124.93, 131.58
CTUN, 542, 0.00, 0.94, 0.000000, 0.00, 0, 110, 615, 0
ATT, 0.00, -1.05, 0.00, 2.96, 0.00, 125.72, 131.58
GPS, 3, 269256400, 11, 1.95, -33.7850948, 151.0662588, 1.38, 86.86, 1.01, 218.86
CTUN, 542, 0.00, 1.22, 0.000000, 0.00, 0, 124, 615, 0
ATT, 0.00, -0.66, 0.00, 0.41, 0.00, 126.27, 131.58
CTUN, 542, 0.00, 1.17, 0.000000, 0.00, 0, 135, 615, 0
ATT, 0.00, -0.07, 0.00, -0.34, 0.00, 126.73, 131.58
GPS, 3, 269256600, 11, 1.95, -33.7850942, 151.0662568, 1.60, 87.09, 0.85, 239.71
DU32, 7, 8569
CURR, 542, 31481, 1155, 1510, 4732, 21.14564
CTUN, 542, 0.00, 1.25, 0.000000, 0.00, 0, 138, 615, 0
ATT, 0.00, 1.21, 0.00, -0.22, 0.00, 127.23, 131.58
CTUN, 544, 0.00, 1.37, 0.000000, 0.00, 0, 142, 616, 0
ATT, 0.00, 3.02, 0.00, 0.64, 0.00, 127.77, 131.58
GPS, 3, 269256800, 12, 1.76, -33.7850934, 151.0662548, 1.83, 87.35, 0.94, 260.38
CTUN, 544, 0.00, 1.29, 0.000000, 0.00, 0, 150, 616, 0
ATT, 0.00, 5.25, 0.00, 1.05, 0.00, 128.27, 131.58
CTUN, 544, 0.00, 1.42, 0.000000, 0.00, 0, 154, 616, 0
ATT, 0.00, 6.46, 0.00, 1.07, 0.00, 128.45, 131.58
GPS, 3, 269257000, 12, 1.76, -33.7850937, 151.0662528, 2.07, 87.46, 0.95, 277.65
CTUN, 542, 0.00, 1.52, 0.000000, 0.00, 0, 158, 615, 0
ATT, 0.00, 5.41, 0.00, 0.98, 0.00, 128.33, 131.58
CTUN, 542, 0.00, 1.69, 0.000000, 0.00, 0, 165, 615, 0
ATT, 0.00, 4.45, 0.00, 0.93, 0.00, 128.18, 131.58
GPS, 3, 269257200, 12, 1.76, -33.7850924, 151.0662499, 2.32, 87.87, 0.92, 273.38
CTUN, 542, 0.00, 1.66, 0.000000, 0.00, 0, 174, 615, 0
ATT, 0.00, 3.32, 0.00, 0.84, 0.00, 127.99, 131.58
CTUN, 499, 0.00, 1.91, 0.000000, 0.00, 0, 178, 578, 0
ATT, 0.00, 2.27, 0.00, 0.45, 0.00, 127.89, 131.58
GPS, 3, 269257400, 12, 1.76, -33.7850922, 151.0662473, 2.59, 88.14, 1.43, 284.55
CTUN, 494, 0.00, 2.11, 0.000000, 0.00, 0, 175, 572, 0
ATT, 0.00, 1.99, 0.00, 0.32, 0.00, 127.92, 131.58
CTUN, 489, 0.00, 2.14, 0.000000, 0.00, 0, 171, 566, 0
ATT, 0.00, 1.55, 0.00, 0.07, 0.00, 128.02, 131.58
GPS, 3, 269257600, 12, 1.76, -33.7850921, 151.0662448, 2.89, 88.29, 1.17, 280.86
DU32, 7, 8569
CURR, 489, 37513, 1158, 1324, 4673, 25.21398
CTUN, 489, 0.00, 2.43, 0.000000, 0.00, 0, 163, 566, 0
ATT, -1.17, 1.67, 0.00, -0.24, 0.00, 128.11, 131.58
CTUN, 485, 0.00, 2.44, 0.000000, 0.00, 0, 159, 561, 0
ATT, -2.34, 1.67, 0.00, 0.16, 0.00, 128.20, 131.58
GPS, 3, 269257800, 12, 1.76, -33.7850919, 151.0662420, 3.12, 88.63, 1.17, 280.86
CTUN, 475, 0.00, 2.60, 0.000000, 0.00, 0, 154, 549, 0
ATT, -3.86, 0.99, 0.00, 1.30, 0.00, 128.14, 131.58
CTUN, 465, 0.00, 2.80, 0.000000, 0.00, 0, 151, 537, 0
ATT, -4.57, -1.00, -0.85, 1.45, 0.00, 128.17, 131.58
GPS, 3, 269258000, 12, 1.76, -33.7850917, 151.0662390, 3.36, 88.86, 1.32, 277.27
CTUN, 465, 0.00, 3.03, 0.000000, 0.00, 0, 141, 537, 0
ATT, -3.28, -3.50, -3.43, 0.70, 0.00, 128.23, 131.58
CTUN, 457, 0.00, 3.10, 0.000000, 0.00, 0, 133, 527, 0
ATT, -5.39, -4.65, -3.06, -1.51, 0.00, 128.62, 131.58
GPS, 3, 269258200, 12, 1.76, -33.7850916, 151.0662360, 3.60, 89.08, 1.40, 276.05
CTUN, 456, 0.00, 3.10, 0.000000, 0.00, 0, 124, 526, 0
ATT, -7.50, -4.99, -2.82, -2.35, 0.00, 129.16, 131.58
CTUN, 451, 0.00, 3.38, 0.000000, 0.00, 0, 115, 520, 0
ATT, -11.83, -4.52, 0.00, -2.15, 0.00, 129.83, 131.58
GPS, 3, 269258400, 12, 1.76, -33.7850915, 151.0662331, 3.77, 89.26, 1.40, 276.05
CTUN, 449, 0.00, 3.10, 0.000000, 0.00, 0, 106, 517, 0
ATT, -9.84, -6.38, 0.00, -0.45, 0.00, 130.09, 131.58
CTUN, 450, 0.00, 3.36, 0.000000, 0.00, 0, 97, 519, 0
ATT, -9.84, -7.66, 0.00, 0.62, 0.00, 130.27, 131.58
GPS, 3, 269258600, 12, 1.76, -33.7850906, 151.0662302, 3.90, 89.42, 1.34, 275.39
DU32, 7, 8569
CURR, 451, 42876, 1168, 1141, 4712, 28.57158
PM, 0, 0, 50, 0, 1000, 10143, 10, 0
CTUN, 447, 0.00, 3.39, 0.000000, 0.00, 0, 87, 515, 0
ATT, -12.30, -8.22, 0.00, 1.20, 0.00, 130.23, 131.58
CTUN, 449, 0.00, 3.45, 0.000000, 0.00, 0, 77, 517, 0
ATT, -13.59, -9.49, 0.00, 0.96, 0.00, 130.40, 131.58
GPS, 3, 269258800, 12, 1.76, -33.7850899, 151.0662278, 4.01, 89.53, 1.41, 280.53
CTUN, 449, 0.00, 3.39, 0.000000, 0.00, 0, 65, 517, 0
ATT, -14.17, -11.10, 0.00, 0.70, 0.00, 130.61, 131.58
CTUN, 449, 0.00, 3.62, 0.000000, 0.00, 0, 53, 517, 0
ATT, -15.46, -11.43, 0.00, 0.52, 0.00, 130.92, 131.58
GPS, 3, 269259000, 12, 1.76, -33.7850889, 151.0662258, 4.06, 89.59, 1.13, 299.49
CTUN, 449, 0.00, 3.53, 0.000000, 0.00, 0, 41, 517, 0
ATT, -16.17, -10.78, 0.00, 0.46, 0.00, 131.28, 131.58
CTUN, 451, 0.00, 3.65, 0.000000, 0.00, 0, 29, 520, 0
ATT, -13.82, -10.04, -0.49, 0.69, 0.00, 131.51, 131.58
GPS, 3, 269259200, 12, 1.76, -33.7850877, 151.0662245, 4.07, 89.61, 1.13, 299.49
CTUN, 451, 0.00, 3.86, 0.000000, 0.00, 0, 16, 520, 0
ATT, -9.14, -8.05, -3.18, 0.98, 0.00, 131.66, 131.58
CTUN, 451, 0.00, 3.90, 0.000000, 0.00, 0, 7, 520, 0
ATT, -7.14, -4.20, -4.16, -0.36, 0.00, 131.20, 131.58
GPS, 3, 269259400, 12, 1.76, -33.7850860, 151.0662236, 4.07, 89.57, 1.01, 311.93
CTUN, 451, 0.00, 3.61, 0.000000, 0.00, 0, -1, 520, 0
ATT, -6.91, -1.33, -4.04, -2.28, 0.00, 130.22, 131.58
CTUN, 451, 0.00, 3.97, 0.000000, 0.00, 0, -10, 520, 0
ATT, -7.61, -2.47, -3.43, -3.47, 0.00, 127.97, 131.58
GPS, 3, 269259600, 12, 1.76, -33.7850841, 151.0662228, 4.02, 89.49, 1.19, 338.66
DU32, 7, 8569
CURR, 457, 48061, 1162, 1161, 4732, 31.72414
CTUN, 457, 0.00, 3.82, 0.000000, 0.00, 0, -17, 527, 0
ATT, -8.32, -5.56, -3.43, -4.26, 0.00, 125.51, 131.58
CTUN, 457, 0.00, 3.68, 0.000000, 0.00, 0, -25, 527, 0
ATT, -6.91, -7.68, -5.27, -3.79, 0.00, 123.26, 131.58
GPS, 3, 269259800, 12, 1.76, -33.7850822, 151.0662224, 3.95, 89.39, 1.19, 343.45
CTUN, 457, 0.00, 3.59, 0.000000, 0.00, 0, -29, 527, 0
ATT, -6.67, -7.07, -7.47, -4.83, 0.00, 121.81, 131.58
CTUN, 459, 0.00, 3.58, 0.000000, 0.00, 0, -33, 530, 0
ATT, 0.00, -7.56, -13.11, -6.62, 0.00, 121.37, 131.37
GPS, 3, 269260000, 12, 1.76, -33.7850802, 151.0662225, 3.86, 89.29, 1.19, 343.45
CTUN, 459, 0.00, 3.43, 0.000000, 0.00, 0, -43, 530, 0
ATT, 0.00, -3.03, -12.01, -9.99, 0.00, 122.01, 131.32
CTUN, 459, 0.00, 3.36, 0.000000, 0.00, 0, -50, 530, 0
ATT, 0.00, 0.93, -9.93, -10.33, 0.00, 123.38, 131.32
GPS, 3, 269260200, 12, 1.76, -33.7850783, 151.0662231, 3.71, 89.16, 1.20, 359.73
CTUN, 460, 0.00, 2.92, 0.000000, 0.00, 0, -60, 531, 0
ATT, 0.00, 6.25, -8.58, -9.20, 0.00, 125.08, 131.32
CTUN, 459, 0.00, 2.57, 0.000000, 0.00, 0, -60, 530, 0
ATT, 0.00, 6.69, -1.47, -6.33, 0.00, 126.69, 131.32
GPS, 3, 269260400, 12, 1.76, -33.7850766, 151.0662237, 3.50, 88.98, 1.10, 6.37
CTUN, 459, 0.00, 2.73, 0.000000, 0.00, 0, -67, 530, 0
ATT, 0.00, 1.75, 0.00, -1.30, 0.00, 128.02, 131.32
CTUN, 459, 0.00, 2.73, 0.000000, 0.00, 0, -72, 530, 0
ATT, 0.00, -1.07, 0.00, 3.03, 0.00, 128.94, 131.32
GPS, 3, 269260600, 12, 1.76, -33.7850752, 151.0662244, 3.27, 88.82, 0.93, 12.00
DU32, 7, 8569
CURR, 484, 53349, 1159, 1216, 4752, 35.09761
CTUN, 503, 0.00, 2.60, 0.000000, 0.00, 0, -78, 582, 0
ATT, 0.00, -1.82, 0.00, 3.85, 0.00, 129.87, 131.32
CTUN, 502, 0.00, 2.40, 0.000000, 0.00, 0, -80, 581, 0
ATT, 0.00, -1.96, -1.10, 3.50, 0.00, 130.17, 131.32
GPS, 3, 269260800, 12, 1.76, -33.7850731, 151.0662249, 3.03, 88.62, 1.21, 12.04
CTUN, 523, 0.00, 2.26, 0.000000, 0.00, 0, -75, 599, 0
ATT, -1.05, -0.63, -2.20, 1.82, 0.00, 129.85, 131.32
CTUN, 545, 0.00, 1.89, 0.000000, 0.00, 0, -66, 617, 0
ATT, -0.82, -0.27, -1.47, 0.84, 0.00, 129.42, 131.32
GPS, 3, 269261000, 12, 1.76, -33.7850714, 151.0662254, 2.82, 88.42, 1.21, 12.04
CTUN, 545, 0.00, 1.77, 0.000000, 0.00, 0, -55, 617, 0
ATT, -1.17, 1.26, -0.24, 1.60, 0.00, 129.00, 131.32
CTUN, 545, 0.00, 1.60, 0.000000, 0.00, 0, -39, 617, 0
ATT, 0.00, 1.51, 0.00, 1.91, 0.00, 129.26, 131.32
GPS, 3, 269261200, 12, 1.76, -33.7850695, 151.0662258, 2.58, 88.20, 1.17, 10.43
CTUN, 546, 0.00, 1.76, 0.000000, 0.00, 0, -23, 618, 0
ATT, 0.00, 0.89, 0.00, 3.35, 0.00, 129.57, 131.32
CTUN, 545, 0.00, 1.69, 0.000000, 0.00, 0, -11, 617, 0
ATT, -2.92, -0.28, 0.00, 3.38, 0.00, 130.24, 131.32
GPS, 3, 269261400, 12, 1.76, -33.7850676, 151.0662261, 2.46, 88.17, 1.17, 10.43
CTUN, 545, 0.00, 1.91, 0.000000, 0.00, 0, 0, 617, 0
ATT, -7.61, -2.06, 0.00, 3.62, 0.00, 131.20, 131.32
CTUN, 545, 0.00, 1.66, 0.000000, 0.00, 0, 11, 617, 0
ATT, -5.97, -4.44, -0.24, 3.82, 0.00, 131.82, 131.32
GPS, 3, 269261600, 12, 1.76, -33.7850654, 151.0662259, 2.39, 88.09, 1.21, 0.49
DU32, 7, 8569
CURR, 546, 59404, 1147, 1504, 4772, 39.15930
CTUN, 547, 0.00, 1.47, 0.000000, 0.00, 0, 18, 619, 0
ATT, -5.74, -3.70, 0.00, 3.32, 0.00, 132.07, 131.32
CTUN, 543, 0.00, 1.42, 0.000000, 0.00, 0, 25, 616, 0
ATT, -7.03, -0.94, 0.00, 2.61, 0.00, 131.87, 131.32
GPS, 3, 269261800, 12, 1.76, -33.7850631, 151.0662256, 2.33, 88.07, 1.31, 357.95
CTUN, 544, 0.00, 1.27, 0.000000, 0.00, 0, 35, 616, 0
ATT, -7.50, -1.15, 0.00, 4.00, 0.00, 131.20, 131.32
CTUN, 545, 0.00, 1.57, 0.000000, 0.00, 0, 43, 617, 0
ATT, -6.56, -4.36, -0.24, 4.36, 0.00, 130.21, 131.32
GPS, 3, 269262000, 12, 1.76, -33.7850604, 151.0662252, 2.30, 88.09, 1.50, 355.98
CTUN, 545, 0.00, 1.61, 0.000000, 0.00, 0, 54, 617, 0
ATT, -3.63, -8.72, -2.08, 2.99, 0.00, 129.74, 131.32
CTUN, 545, 0.00, 1.60, 0.000000, 0.00, 0, 60, 617, 0
ATT, -4.80, -8.58, -1.22, 1.66, 0.00, 129.68, 131.32
GPS, 3, 269262200, 12, 1.76, -33.7850570, 151.0662248, 2.33, 88.16, 1.88, 355.67
CTUN, 545, 0.00, 1.74, 0.000000, 0.00, 0, 70, 617, 0
ATT, -0.23, -6.24, -2.82, 1.23, 0.00, 129.79, 131.32
CTUN, 544, 0.00, 1.77, 0.000000, 0.00, 0, 78, 616, 0
ATT, 0.00, -1.74, -7.23, 0.18, 0.00, 130.01, 131.32
GPS, 3, 269262400, 12, 1.76, -33.7850532, 151.0662246, 2.40, 88.24, 2.08, 356.98
CTUN, 487, 0.00, 1.75, 0.000000, 0.00, 0, 86, 564, 0
ATT, 0.00, 0.84, -10.79, -2.68, 0.00, 130.34, 131.32
CTUN, 484, 0.00, 1.87, 0.000000, 0.00, 0, 86, 560, 0
ATT, 0.00, 1.73, -12.62, -7.42, 0.00, 130.72, 131.32
GPS, 3, 269262600, 12, 1.76, -33.7850493, 151.0662246, 2.50, 88.34, 2.15, 358.09
DU32, 7, 8569
CURR, 484, 65484, 1159, 1244, 4772, 43.23140
CTUN, 484, 0.00, 2.01, 0.000000, 0.00, 0, 80, 560, 0
ATT, 0.00, 1.50, -14.10, -10.20, 0.00, 130.95, 131.32
CTUN, 485, 0.00, 1.90, 0.000000, 0.00, 0, 76, 561, 0
ATT, 0.00, 0.79, -15.08, -12.27, 0.00, 131.27, 131.32
GPS, 3, 269262800, 12, 1.76, -33.7850456, 151.0662247, 2.59, 88.45, 2.08, 0.02
CTUN, 485, 0.00, 2.08, 0.000000, 0.00, 0, 67, 561, 0
ATT, 0.00, 0.31, -17.65, -13.41, 0.00, 131.69, 131.32
CTUN, 485, 0.00, 2.20, 0.000000, 0.00, 0, 60, 561, 0
ATT, 0.00, 1.08, -18.39, -15.28, 0.00, 132.17, 131.32
GPS, 3, 269263000, 12, 1.76, -33.7850423, 151.0662249, 2.65, 88.57, 1.89, 1.64
CTUN, 482, 0.00, 2.16, 0.000000, 0.00, 0, 52, 558, 0
ATT, 0.00, 1.84, -18.76, -15.97, 0.00, 132.50, 131.32
CTUN, 484, 0.00, 2.16, 0.000000, 0.00, 0, 45, 560, 0
ATT, 0.00, 1.97, -20.47, -16.40, 0.00, 132.65, 131.32
GPS, 3, 269263200, 12, 1.76, -33.7850397, 151.0662254, 2.69, 88.64, 1.53, 4.09
CTUN, 484, 0.00, 2.36, 0.000000, 0.00, 0, 37, 560, 0
ATT, 0.00, 1.07, -20.84, -16.72, 0.00, 132.64, 131.32
CTUN, 484, 0.00, 2.29, 0.000000, 0.00, 0, 32, 560, 0
ATT, 0.00, -0.44, -20.84, -16.54, 0.00, 132.38, 131.32
GPS, 3, 269263400, 12, 1.76, -33.7850378, 151.0662262, 2.71, 88.67, 1.19, 8.30
CTUN, 484, 0.00, 2.38, 0.000000, 0.00, 0, 28, 560, 0
ATT, 0.00, -1.74, -20.23, -16.00, 0.00, 131.74, 131.32
CTUN, 484, 0.00, 2.52, 0.000000, 0.00, 0, 26, 560, 0
ATT, 0.00, -2.30, -19.98, -14.52, 0.00, 131.02, 131.32
GPS, 3, 269263600, 12, 1.76, -33.7850364, 151.0662273, 2.73, 88.71, 0.97, 11.34
DU32, 7, 8569
CURR, 484, 71085, 1155, 1292, 4712, 46.75890
CTUN, 484, 0.00, 2.34, 0.000000, 0.00, 0, 25, 560, 0
ATT, 0.00, -1.39, -19.74, -13.09, 0.00, 130.24, 131.32
CTUN, 484, 0.00, 2.29, 0.000000, 0.00, 0, 25, 560, 0
ATT, 3.20, -0.43, -19.86, -12.11, 0.00, 129.85, 131.32
GPS, 3, 269263800, 12, 1.76, -33.7850358, 151.0662288, 2.73, 88.73, 0.85, 25.13
CTUN, 484, 0.00, 2.19, 0.000000, 0.00, 0, 24, 560, 0
ATT, 5.26, 1.62, -18.39, -11.63, 0.00, 129.29, 131.32
CTUN, 484, 0.00, 2.30, 0.000000, 0.00, 0, 28, 560, 0
ATT, 7.78, 3.36, -14.71, -9.07, 0.00, 129.11, 131.32
GPS, 3, 269264000, 12, 1.76, -33.7850356, 151.0662306, 2.73, 88.72, 0.86, 62.07
CTUN, 484, 0.00, 1.42, 0.000000, 0.00, 0, 33, 560, 0
ATT, 9.50, 7.63, -12.75, -4.77, 0.00, 129.17, 131.32
CTUN, 484, 0.00, 1.55, 0.000000, 0.00, 0, 37, 560, 0
ATT, 10.30, 10.79, -10.29, -1.87, 0.00, 129.73, 131.32
GPS, 3, 269264200, 12, 1.76, -33.7850358, 151.0662323, 2.67, 88.73, 0.80, 71.33
CTUN, 484, 0.00, 1.38, 0.000000, 0.00, 0, 39, 560, 0
ATT, 9.96, 11.57, -8.46, -0.34, 0.00, 130.13, 131.32
CTUN, 484, 0.00, 2.23, 0.000000, 0.00, 0, 36, 560, 0
ATT, 10.41, 7.01, -7.72, 0.54, 0.00, 130.57, 131.32
GPS, 3, 269264400, 12, 1.76, -33.7850362, 151.0662334, 2.63, 88.75, 0.58, 86.01
CTUN, 484, 0.00, 1.83, 0.000000, 0.00, 0, 34, 560, 0
ATT, 11.33, 1.81, -7.72, 0.27, 0.00, 130.58, 131.32
CTUN, 484, 0.00, 2.38, 0.000000, 0.00, 0, 31, 560, 0
ATT, 11.67, -0.18, -8.09, -0.15, 0.00, 130.64, 131.32
GPS, 3, 269264600, 12, 1.76, -33.7850366, 151.0662340, 2.63, 88.78, 0.33, 86.01
DU32, 7, 8569
CURR, 484, 76686, 1152, 1290, 4772, 50.34478
CTUN, 484, 0.00, 2.71, 0.000000, 0.00, 0, 30, 560, 0
ATT, 13.28, -0.68, -9.68, -0.50, 0.00, 130.73, 131.32
CTUN, 484, 0.00, 2.73, 0.000000, 0.00, 0, 26, 560, 0
ATT, 14.77, 1.82, -12.13, -1.90, 0.00, 130.89, 131.32
GPS, 3, 269264800, 12, 1.76, -33.7850367, 151.0662347, 2.68, 88.81, 0.35, 86.01
CTUN, 485, 0.00, 2.77, 0.000000, 0.00, 0, 24, 561, 0
ATT, 15.45, 4.73, -17.28, -3.92, 0.00, 131.03, 131.32
CTUN, 482, 0.00, 2.18, 0.000000, 0.00, 0, 21, 558, 0
ATT, 16.14, 6.62, -18.39, -8.02, 0.00, 131.16, 131.32
GPS, 3, 269265000, 12, 1.76, -33.7850331, 151.0662453, 2.71, 88.72, 3.89, 76.56
CTUN, 483, 0.00, 2.49, 0.000000, 0.00, 0, 17, 559, 0
ATT, 16.94, 6.88, -18.14, -11.05, 0.00, 131.55, 131.32
CTUN, 485, 0.00, 2.06, 0.000000, 0.00, 0, 15, 561, 0
ATT, 17.29, 7.33, -18.26, -11.80, 0.00, 131.92, 131.32
GPS, 3, 269265200, 10, 2.30, -33.7850301, 151.0662577, 2.70, 88.39, 3.89, 76.56
CTUN, 485, 0.00, 2.01, 0.000000, 0.00, 0, 12, 561, 0
ATT, 17.51, 8.91, -18.26, -11.91, 0.00, 132.21, 131.32
CTUN, 485, 0.00, 1.91, 0.000000, 0.00, 0, 12, 561, 0
ATT, 18.09, 10.21, -18.39, -11.58, 0.00, 132.55, 131.32
GPS, 3, 269265400, 8, 2.76, -33.7850380, 151.0662703, 2.65, 87.83, 5.27, 74.94
CTUN, 484, 0.00, 1.99, 0.000000, 0.00, 0, 9, 560, 0
ATT, 18.20, 11.31, -18.02, -11.39, 0.00, 132.75, 131.32
CTUN, 484, 0.00, 2.20, 0.000000, 0.00, 0, 5, 560, 0
ATT, 18.20, 12.15, -17.77, -11.47, 0.00, 132.82, 131.32
GPS, 3, 269265600, 8, 2.76, -33.7850632, 151.0662827, 2.59, 86.80, 5.41, 74.94
DU32, 7, 8569
CURR, 484, 82283, 1153, 1280, 4752, 53.90712
CTUN, 484, 0.00, 2.27, 0.000000, 0.00, 0, 1, 560, 0
ATT, 17.97, 13.34, -17.53, -11.44, 0.00, 132.80, 131.32
CTUN, 484, 0.00, 2.40, 0.000000, 0.00, 0, 0, 560, 0
ATT, 17.51, 14.28, -16.92, -11.04, 0.00, 132.67, 131.32
GPS, 3, 269265800, 8, 2.73, -33.7850993, 151.0662883, 2.55, 85.53, 7.68, 104.87
CTUN, 485, 0.00, 2.42, 0.000000, 0.00, 0, -4, 561, 0
ATT, 15.45, 14.89, -16.55, -10.23, 0.00, 132.77, 131.32
CTUN, 485, 0.00, 2.30, 0.000000, 0.00, 0, -5, 561, 0
ATT, 6.29, 13.71, -11.89, -9.87, 0.00, 132.67, 131.32
GPS, 3, 269266000, 5, 4.07, -33.7851292, 151.0662836, 2.52, 84.94, 12.22, 176.53
CTUN, 485, 0.00, 2.28, 0.000000, 0.00, 0, -6, 561, 0
ATT, 0.00, 7.04, -8.58, -6.75, 0.00, 132.78, 131.32
CTUN, 485, 0.00, 2.29, 0.000000, 0.00, 0, 0, 561, 0
ATT, 0.00, -0.49, -7.35, -2.65, 0.00, 132.33, 131.32
GPS, 3, 269266200, 7, 3.56, -33.7851634, 151.0662768, 2.49, 84.39, 12.22, 176.53
CTUN, 485, 0.00, 2.23, 0.000000, 0.00, 0, 5, 561, 0
ATT, 0.00, -3.58, -7.23, 0.83, 0.00, 131.23, 131.32
CTUN, 485, 0.00, 1.78, 0.000000, 0.00, 0, 8, 561, 0
ATT, 0.00, -3.70, -8.09, 2.45, 0.00, 129.93, 131.32
GPS, 3, 269266400, 8, 2.69, -33.7851671, 151.0662774, 2.46, 83.89, 11.05, 179.70
CTUN, 482, 0.00, 2.03, 0.000000, 0.00, 0, 15, 558, 0
ATT, 0.00, -4.05, -5.27, 1.72, 0.00, 128.75, 131.32
CTUN, 484, 0.00, 2.63, 0.000000, 0.00, 0, 15, 560, 0
ATT, 0.00, -5.65, -2.08, 1.75, 0.00, 127.37, 131.32
GPS, 3, 269266600, 8, 2.69, -33.7851380, 151.0662728, 2.45, 83.81, 4.50, 179.17
DU32, 7, 8569
CURR, 484, 87890, 1151, 1336, 4712, 57.52422
CTUN, 484, 0.00, 2.69, 0.000000, 0.00, 0, 17, 560, 0
ATT, 0.00, -5.74, -6.13, 3.68, 0.00, 125.90, 131.32
CTUN, 485, 0.00, 2.69, 0.000000, 0.00, 0, 15, 561, 0
ATT, 0.00, -4.85, -12.38, 2.75, 0.00, 125.21, 131.32
GPS, 3, 269266800, 8, 2.69, -33.7851371, 151.0662709, 2.51, 83.52, 3.00, 179.37
CTUN, 485, 0.00, 2.51, 0.000000, 0.00, 0, 13, 561, 0
ATT, 6.06, -4.81, -17.53, -2.63, 0.00, 125.46, 131.32
CTUN, 483, 0.00, 2.40, 0.000000, 0.00, 0, 14, 559, 0
ATT, 7.32, -2.59, -18.76, -8.43, 0.00, 125.77, 131.32
GPS, 3, 269267000, 8, 2.69, -33.7851365, 151.0662691, 2.53, 83.31, 1.91, 179.57
CTUN, 485, 0.00, 2.10, 0.000000, 0.00, 0, 9, 561, 0
ATT, 7.21, 0.12, -18.76, -11.54, 0.00, 125.96, 131.32
CTUN, 484, 0.00, 2.26, 0.000000, 0.00, 0, 2, 560, 0
ATT, 8.70, 1.82, -19.12, -13.16, 0.00, 126.60, 131.32
GPS, 3, 269267200, 8, 2.69, -33.7851345, 151.0662676, 2.51, 83.32, 0.86, 179.57
CTUN, 484, 0.00, 2.34, 0.000000, 0.00, 0, -5, 560, 0
ATT, 9.16, 3.52, -19.49, -14.17, 0.00, 127.52, 131.32
CTUN, 484, 0.00, 2.13, 0.000000, 0.00, 0, -10, 560, 0
ATT, 9.96, 4.94, -19.74, -14.55, 0.00, 128.33, 131.32
GPS, 3, 269267400, 9, 2.64, -33.7851338, 151.0662668, 2.46, 83.19, 0.66, 179.57
CTUN, 484, 0.00, 2.12, 0.000000, 0.00, 0, -18, 560, 0
ATT, 11.33, 6.59, -19.74, -14.49, 0.00, 129.23, 131.32
CTUN, 484, 0.00, 2.21, 0.000000, 0.00, 0, -23, 560, 0
ATT, 11.45, 8.66, -19.12, -13.85, 0.00, 130.15, 131.32
GPS, 3, 269267600, 10, 2.30, -33.7851331, 151.0662664, 2.38, 83.07, 0.62, 179.57
DU32, 7, 8569
CURR, 484, 93492, 1156, 1288, 4712, 61.16474
CTUN, 484, 0.00, 2.43, 0.000000, 0.00, 0, -28, 560, 0
ATT, 11.33, 9.87, -18.88, -13.29, 0.00, 131.00, 131.32
CTUN, 484, 0.00, 2.21, 0.000000, 0.00, 0, -34, 560, 0
ATT, 12.82, 10.48, -18.26, -12.90, 0.00, 131.66, 131.32
GPS, 3, 269267800, 10, 2.30, -33.7851328, 151.0662663, 2.31, 82.90, 0.62, 179.57
CTUN, 484, 0.00, 2.40, 0.000000, 0.00, 0, -40, 560, 0
ATT, 12.13, 10.67, -15.69, -12.27, 0.00, 131.92, 131.32
CTUN, 485, 0.00, 2.28, 0.000000, 0.00, 0, -45, 561, 0
ATT, 9.27, 10.83, -12.13, -10.83, 0.00, 132.14, 131.32
GPS, 3, 269268000, 10, 2.30, -33.7851333, 151.0662658, 2.23, 82.82, 0.84, 179.57
CTUN, 485, 0.00, 2.46, 0.000000, 0.00, 0, -48, 561, 0
ATT, 0.22, 10.40, -6.00, -6.86, 0.00, 132.65, 131.32
CTUN, 485, 0.00, 2.08, 0.000000, 0.00, 0, -46, 561, 0
ATT, 0.00, 5.60, -4.78, -0.10, 0.00, 133.33, 131.32
GPS, 3, 269268200, 10, 2.30, -33.7851346, 151.0662648, 2.15, 82.81, 0.84, 179.57
CTUN, 485, 0.00, 1.44, 0.000000, 0.00, 0, -41, 561, 0
ATT, 0.00, 2.03, -4.04, 3.57, 0.00, 133.35, 131.32
CTUN, 485, 0.00, 1.30, 0.000000, 0.00, 0, -36, 561, 0
ATT, 0.00, -0.10, -3.80, 4.76, 0.00, 133.03, 131.32
GPS, 3, 269268400, 11, 2.11, -33.7851319, 151.0662631, 2.00, 82.52, 1.14, 170.80
CTUN, 484, 0.00, 1.56, 0.000000, 0.00, 0, -36, 560, 0
ATT, 0.00, -1.00, -5.14, 5.74, 0.00, 132.72, 131.32
CTUN, 484, 0.00, 1.50, 0.000000, 0.00, 0, -34, 560, 0
ATT, 0.00, 0.30, -6.74, 6.24, 0.00, 132.34, 131.32
GPS, 3, 269268600, 11, 1.95, -33.7851321, 151.0662622, 1.87, 82.39, 0.15, 170.80
DU32, 7, 8569
CURR, 484, 99098, 1152, 1331, 4693, 64.75725
PM, 0, 0, 50, 0, 1000, 10324, 9, 0
CTUN, 484, 0.00, 1.72, 0.000000, 0.00, 0, -34, 560, 0
ATT, 0.00, 0.89, -5.14, 3.96, 0.00, 131.92, 131.32
MODE, LOITER, 573
NTUN, 0.00, 0.00, 0.000000, 0.000000, 0.000000, 0.000000, -307.4308, 58.42849, 0.000000, 0.000000, 0.46, 3.50
CTUN, 484, 0.00, 1.84, 1.490000, 0.00, 0, -31, 544, 0
ATT, 0.00, -1.28, -4.29, 3.93, 0.00, 131.48, 131.32
NTUN, 0.01, 1.26, -1.107178, 1.577423, -308.5380, 60.00591, -276.8055, 40.89384, -6.000000, 4.000000, 0.10, -0.40
GPS, 3, 269268800, 10, 2.30, -33.7851324, 151.0662637, 1.79, 81.97, 0.85, 170.80
CTUN, 482, 0.00, 1.90, 1.490000, 0.00, 4, -30, 562, 0
ATT, 0.00, -1.79, 0.00, 7.76, 0.00, 130.73, 131.32
NTUN, 0.49, 1.47, -43.37927, 23.86429, -335.6478, 78.63393, -249.3039, 26.02230, -335.4139, 227.4358, 6.01, -21.77
CTUN, 485, 0.00, 1.32, 1.490000, 0.00, 0, -27, 544, 0
ATT, 0.00, 1.81, 0.00, -0.31, 0.00, 130.86, 131.32
NTUN, 0.94, 1.51, -84.37604, 42.75356, -361.3055, 92.65785, -228.2106, 15.62204, -386.8134, 216.1013, 8.78, -22.99
GPS, 3, 269269000, 10, 2.30, -33.7851350, 151.0662638, 1.72, 81.57, 1.21, 170.80
CTUN, 483, 0.00, 1.83, 1.490000, 0.00, 7, -30, 590, 0
ATT, 0.00, 4.76, 0.00, -10.51, 0.00, 130.64, 131.32
NTUN, 1.41, 1.52, -126.7516, 62.07628, -383.0663, 104.4922, -220.1998, 10.78557, -389.4529, 216.1713, 8.84, -23.09
CTUN, 484, 0.00, 2.30, 1.490000, 0.00, 15, -25, 591, 0
ATT, 0.00, 7.92, 0.00, -13.79, 0.00, 130.58, 131.32
NTUN, 1.81, 1.53, -163.2032, 78.87955, -393.5617, 111.1346, -223.2123, 8.704326, -304.0144, 182.0954, 6.38, -18.91
GPS, 3, 269269200, 10, 2.30, -33.7851403, 151.0662644, 1.69, 80.72, 2.35, 163.88
CTUN, 485, 0.00, 2.04, 1.490000, 0.00, 21, -26, 618, 0
ATT, 0.00, 8.81, 0.00, -14.29, 0.00, 130.69, 131.32
NTUN, 2.19, 1.53, -198.1439, 95.30992, -400.0028, 116.1541, -232.7237, 9.832436, -272.7730, 176.6980, 5.18, -17.63
CTUN, 483, 0.00, 1.99, 1.490000, 0.00, 14, -19, 565, 0
ATT, 0.00, 7.00, 0.00, -12.30, 0.00, 130.71, 131.32
NTUN, 2.47, 1.52, -222.1226, 108.1118, -399.4947, 119.0410, -240.9090, 11.73262, -201.8675, 162.1612, 2.70, -14.54
GPS, 3, 269269400, 10, 2.30, -33.7851438, 151.0662642, 1.69, 78.96, 2.73, 165.19
CTUN, 485, 0.00, 1.69, 1.490000, 0.00, 6, -14, 533, 0
ATT, 0.00, 4.51, 0.00, -8.50, 0.00, 131.34, 131.32
NTUN, 2.50, 1.52, -224.5254, 110.8271, -387.7741, 116.7021, -244.4827, 11.41430, -78.95525, 111.8425, -0.78, -7.90
CTUN, 483, 0.00, 1.92, 1.490000, 0.00, 2, -14, 533, 0
ATT, 0.00, 3.24, 0.00, -3.61, 0.00, 132.10, 131.32
NTUN, 2.49, 1.52, -223.0552, 112.5094, -375.2818, 114.5166, -238.8357, 7.537243, -59.52714, 116.6984, -1.93, -7.36
GPS, 3, 269269600, 10, 2.30, -33.7851474, 151.0662641, 1.68, 78.19, 2.72, 166.86
DU32, 7, 8569
CURR, 483, 104713, 1156, 1156, 4752, 68.46559
CTUN, 483, 0.00, 2.09, 1.490000, 0.00, 0, -19, 553, 0
ATT, 0.00, 1.32, 0.00, -1.07, 0.00, 132.75, 131.32
NTUN, 2.49, 1.51, -222.1351, 114.4845, -363.0558, 112.4485, -229.3877, 3.109278, -65.95007, 125.5244, -2.10, -7.95
CTUN, 483, 0.00, 1.73, 1.490000, 0.00, 0, -21, 562, 0
ATT, 0.00, -1.71, 0.00, -1.40, 0.00, 133.31, 131.32
NTUN, 2.49, 1.50, -220.6444, 116.7214, -351.2078, 110.8747, -215.4706, 1.759254, -72.32331, 138.1026, -2.41, -8.71
GPS, 3, 269269800, 10, 2.30, -33.7851526, 151.0662645, 1.67, 77.35, 2.72, 166.86
CTUN, 484, 0.00, 2.21, 1.490000, 0.00, 1, -21, 556, 0
ATT, 0.00, -4.20, 0.00, -1.95, 0.00, 133.76, 131.32
NTUN, 2.49, 1.50, -219.6932, 118.8035, -339.9484, 109.2031, -202.0382, 3.531231, -90.52141, 142.4493, -1.91, -9.58
CTUN, 484, 0.00, 1.76, 1.490000, 0.00, 1, -21, 562, 0
ATT, 0.00, -3.31, 0.00, -1.90, 0.00, 133.56, 131.32
NTUN, 2.49, 1.49, -218.1608, 120.7706, -329.0400, 107.7311, -188.7111, 6.730516, -99.81366, 145.1313, -1.64, -10.05
GPS, 3, 269270000, 10, 2.30, -33.7851581, 151.0662652, 1.66, 76.75, 3.55, 168.53
CTUN, 484, 0.00, 1.89, 1.490000, 0.00, 0, -21, 568, 0
ATT, 0.00, -3.04, 0.00, -2.23, 0.00, 133.24, 131.32
NTUN, 2.49, 1.49, -217.4182, 122.3193, -318.9720, 105.9597, -177.6699, 9.853984, -119.3207, 142.2861, -0.64, -10.70
CTUN, 484, 0.00, 1.01, 1.490000, 0.00, 0, -21, 573, 0
ATT, 0.00, -2.52, 0.00, -2.72, 0.00, 132.60, 131.32
NTUN, 2.49, 1.49, -216.2560, 123.5561, -309.2158, 104.1770, -168.0140, 14.96231, -129.4517, 140.9926, -0.07, -11.04
GPS, 3, 269270200, 10, 2.30, -33.7851636, 151.0662661, 1.61, 76.10, 3.64, 167.38
CTUN, 484, 0.00, 1.97, 1.490000, 0.00, 1, -24, 603, 0
ATT, 0.00, -1.79, 0.00, -4.49, 0.00, 131.92, 131.32
NTUN, 2.49, 1.49, -215.8763, 124.3448, -300.1904, 102.0383, -161.8042, 21.47508, -144.6403, 133.8254, 0.99, -11.32
CTUN, 484, 0.00, 2.05, 1.490000, 0.00, 1, -19, 588, 0
ATT, 0.00, -1.46, 0.00, -5.05, 0.00, 131.02, 131.32
NTUN, 2.46, 1.48, -213.3464, 123.9603, -290.6340, 99.65556, -158.0594, 28.83191, -140.4707, 125.9317, 1.26, -10.81
GPS, 3, 269270400, 11, 1.95, -33.7851682, 151.0662676, 1.59, 75.31, 3.64, 167.38
CTUN, 484, 0.00, 1.99, 1.490000, 0.00, 1, -12, 572, 0
ATT, 0.00, -0.06, 0.00, -4.55, 0.00, 130.15, 131.32
NTUN, 2.43, 1.48, -210.3828, 122.6816, -281.1368, 99.10818, -156.0859, 35.30283, -142.9681, 140.5804, 1.02, -11.51
CTUN, 484, 0.00, 2.47, 1.490000, 0.00, 1, -8, 553, 0
ATT, 0.00, 0.71, 0.00, -3.78, 0.00, 129.78, 131.32
NTUN, 2.36, 1.49, -204.4497, 119.2878, -270.6573, 97.38265, -154.5865, 39.07468, -127.1469, 124.5704, 1.04, -10.23
GPS, 3, 269270600, 11, 1.95, -33.7851712, 151.0662688, 1.64, 74.81, 3.84, 163.68
DU32, 7, 8569
CURR, 485, 110388, 1149, 1288, 4752, 72.12518
CTUN, 484, 0.00, 2.53, 1.490000, 0.00, 0, -7, 539, 0
ATT, 0.00, 0.42, 0.00, -2.86, 0.00, 129.81, 131.32
NTUN, 2.28, 1.49, -197.8661, 115.2390, -260.0729, 95.21830, -153.1877, 39.91383, -125.1556, 116.3565, 1.27, -9.80
CTUN, 484, 0.00, 1.78, 1.490000, 0.00, 0, -12, 542, 0
ATT, 0.00, 0.90, 0.00, -2.31, 0.00, 130.05, 131.32
NTUN, 2.20, 1.49, -190.6414, 110.3921, -249.5130, 92.48006, -149.4519, 39.60672, -119.3344, 110.3410, 1.21, -9.33
GPS, 3, 269270800, 11, 1.95, -33.7851735, 151.0662696, 1.69, 74.71, 3.12, 162.40
CTUN, 484, 0.00, 1.53, 1.490000, 0.00, 0, -18, 543, 0
ATT, 0.00, 0.29, 0.00, -2.79, 0.00, 130.58, 131.32
NTUN, 2.11, 1.49, -183.2350, 105.4837, -238.9202, 89.64523, -144.4554, 39.53814, -119.1206, 109.9324, 1.15, -9.31
CTUN, 484, 0.00, 1.86, 1.490000, 0.00, 0, -20, 547, 0
ATT, 0.00, 0.18, 0.00, -2.64, 0.00, 131.30, 131.32
NTUN, 2.03, 1.49, -176.2284, 100.7957, -228.8712, 86.85482, -140.7369, 38.56095, -121.4947, 109.8141, 1.15, -9.41
GPS, 3, 269271000, 11, 1.95, -33.7851777, 151.0662715, 1.65, 74.22, 2.49, 161.48
CTUN, 484, 0.00, 1.41, 1.490000, 0.00, 0, -22, 568, 0
ATT, 0.00, 0.71, 0.00, -2.67, 0.00, 131.89, 131.32
NTUN, 1.94, 1.49, -169.2555, 96.22269, -218.8781, 84.07449, -136.9379, 38.93524, -122.0587, 109.4720, 1.08, -9.43
CTUN, 484, 0.00, 1.91, 1.490000, 0.00, 0, -23, 590, 0
ATT, 0.00, 0.33, 0.00, -2.69, 0.00, 132.41, 131.32
NTUN, 1.84, 1.49, -160.1586, 90.70959, -207.8335, 80.69685, -132.5688, 40.39220, -105.4381, 101.8824, 0.56, -8.48
GPS, 3, 269271200, 11, 1.95, -33.7851817, 151.0662735, 1.61, 73.83, 2.98, 159.99
CTUN, 484, 0.00, 1.92, 1.490000, 0.00, 0, -17, 570, 0
ATT, 0.00, -0.85, 0.00, -1.18, 0.00, 132.55, 131.32
NTUN, 1.73, 1.50, -150.7560, 85.04086, -196.5693, 77.08749, -127.5416, 41.85785, -100.3586, 96.90633, 0.48, -8.08
CTUN, 484, 0.00, 1.05, 1.490000, 0.00, 0, -11, 550, 0
ATT, 0.00, -0.29, 0.00, 0.39, 0.00, 132.40, 131.32
NTUN, 1.60, 1.50, -139.9324, 78.46332, -184.3944, 72.68422, -120.0437, 40.59872, -87.02140, 83.52255, 0.45, -6.99
GPS, 3, 269271400, 11, 1.95, -33.7851864, 151.0662761, 1.59, 73.32, 3.21, 157.32
CTUN, 484, 0.00, 1.25, 1.490000, 0.00, 0, -14, 581, 0
ATT, 0.00, 0.62, 0.00, 1.37, 0.00, 132.24, 131.32
NTUN, 1.47, 1.50, -129.2052, 71.77682, -172.0152, 67.91906, -112.8994, 37.54506, -84.43310, 79.82021, 0.50, -6.73
CTUN, 484, 0.00, 1.66, 1.490000, 0.00, 0, -12, 583, 0
ATT, 0.00, 0.64, 0.00, 2.14, 0.00, 131.84, 131.32
NTUN, 1.33, 1.50, -116.6342, 64.11548, -158.0336, 62.10170, -105.2224, 34.23357, -60.77220, 67.23883, 0.00, -5.28
GPS, 3, 269271600, 12, 1.76, -33.7851898, 151.0662785, 1.53, 72.76, 3.48, 155.33
DU32, 7, 8569
CURR, 484, 115954, 1150, 1355, 4772, 75.65176
CTUN, 486, 0.00, 1.30, 1.490000, 0.00, 0, -8, 575, 0
ATT, 0.00, -0.88, 0.00, 2.67, 0.00, 131.10, 131.32
NTUN, 1.18, 1.51, -104.2224, 56.68579, -143.4176, 55.98174, -95.23984, 33.65190, -53.28700, 63.40633, -0.12, -4.82
CTUN, 484, 0.00, 1.40, 1.490000, 0.00, 0, -9, 594, 0
ATT, 0.00, -2.29, 0.00, 1.65, 0.00, 130.22, 131.32
NTUN, 1.04, 1.52, -91.98303, 48.78067, -128.1219, 48.74251, -84.64698, 34.72623, -39.49829, 43.87645, 0.07, -3.44
GPS, 3, 269271800, 12, 1.76, -33.7851917, 151.0662803, 1.50, 72.16, 3.18, 153.27
CTUN, 484, 0.00, 1.97, 1.490000, 0.00, 0, -8, 600, 0
ATT, 0.00, -2.44, 0.00, 2.75, 0.00, 129.15, 131.32
NTUN, 0.90, 1.53, -80.33130, 40.67191, -112.4127, 40.67191, -73.97278, 35.35603, -34.90726, 27.29394, 0.55, -2.52
CTUN, 484, 0.00, 1.71, 1.490000, 0.00, 1, -1, 556, 0
ATT, 0.00, -2.18, 0.00, 5.15, 0.00, 128.38, 131.32
NTUN, 0.77, 1.56, -70.68958, 32.46164, -98.86672, 32.46164, -61.29002, 32.05622, -53.17220, 17.06802, 1.79, -2.71
GPS, 3, 269272000, 12, 1.76, -33.7851937, 151.0662823, 1.53, 71.54, 2.55, 150.40
CTUN, 484, 0.00, 0.96, 1.490000, 0.00, 3, 3, 539, 0
ATT, 0.00, -0.60, 0.00, 7.05, 0.00, 128.00, 131.32
NTUN, 0.66, 1.60, -62.02625, 24.45834, -86.39774, 24.45834, -48.48522, 24.18751, -67.54469, 19.75945, 2.37, -3.34
CTUN, 484, 0.00, 1.29, 1.490000, 0.00, 2, 0, 555, 0
ATT, 0.00, 0.55, 0.00, 5.71, 0.00, 128.21, 131.32
NTUN, 0.57, 1.65, -54.73474, 16.81555, -75.54549, 16.81555, -36.61786, 17.12762, -86.38132, 19.80008, 3.23, -4.01
GPS, 3, 269272200, 12, 1.76, -33.7851940, 151.0662838, 1.49, 71.24, 2.17, 146.24
CTUN, 484, 0.00, 1.12, 1.490000, 0.00, 1, -2, 562, 0
ATT, 0.00, 0.77, 0.00, 4.01, 0.00, 128.44, 131.32
NTUN, 0.49, 1.72, -48.42212, 9.857178, -65.76202, 9.857178, -27.82998, 11.38655, -100.1340, 27.10521, 3.59, -4.85
CTUN, 484, 0.00, 1.16, 1.490000, 0.00, 0, -1, 558, 0
ATT, 0.00, -0.25, 0.00, 2.94, 0.00, 128.73, 131.32
NTUN, 0.44, 1.79, -44.61707, 3.791321, -58.74227, 3.791321, -18.09640, 8.492963, -130.3699, 34.10350, 4.69, -6.27
GPS, 3, 269272400, 12, 1.76, -33.7851929, 151.0662847, 1.45, 71.38, 1.52, 140.38
CTUN, 484, 0.00, 1.33, 1.490000, 0.00, 0, -1, 569, 0
ATT, 0.00, -0.41, 0.00, 2.07, 0.00, 128.87, 131.32
NTUN, 0.41, 1.86, -41.71265, -1.845520, -52.67086, -1.845520, -7.797997, 7.915995, -147.8870, 35.18970, 5.42, -6.97
CTUN, 485, 0.00, 1.03, 1.490000, 0.00, 0, -3, 597, 0
ATT, 0.00, 2.03, 0.00, 1.01, 0.00, 128.83, 131.32
NTUN, 0.42, 1.92, -42.02393, -6.744354, -50.01895, -6.744354, -1.393976, 7.515835, -189.2130, 37.51683, 7.18, -8.58
GPS, 3, 269272600, 11, 1.91, -33.7851950, 151.0662869, 1.42, 70.71, 0.84, 140.38
DU32, 7, 8569
CURR, 484, 121670, 1144, 1371, 4732, 79.33443
CTUN, 484, 0.00, 0.73, 1.490000, 0.00, 0, -2, 600, 0
ATT, 0.00, 3.57, 0.00, -1.42, 0.00, 128.81, 131.32
NTUN, 0.44, 1.99, -43.17310, -11.49431, -48.30835, -11.49431, 0.922801, 4.371720, -204.8940, 34.50046, 8.01, -8.99
CTUN, 484, 0.00, 0.78, 1.490000, 0.00, 1, 1, 607, 0
ATT, 0.00, 3.99, 0.00, -2.27, 0.00, 128.92, 131.32
NTUN, 0.45, 2.06, -42.13293, -17.19221, -44.53710, -17.19221, 1.873244, 3.815844, -186.2875, 22.02094, 7.61, -7.78
GPS, 3, 269272800, 12, 1.76, -33.7851953, 151.0662891, 1.34, 70.24, 1.39, 131.49
CTUN, 484, 0.00, 1.12, 1.490000, 0.00, 1, 6, 592, 0
ATT, 0.00, 4.09, 0.00, -2.05, 0.00, 129.00, 131.32
NTUN, 0.46, 2.13, -40.78662, -22.87778, -40.78662, -22.87778, 0.302018, 4.550338, -185.4952, 14.14438, 7.84, -7.42
CTUN, 482, 0.00, 1.11, 1.490000, 0.00, 1, 11, 597, 0
ATT, 0.00, 4.37, 0.00, -2.52, 0.00, 128.94, 131.32
NTUN, 0.49, 2.21, -39.46814, -29.48700, -39.46814, -29.48700, -1.532827, 4.823102, -207.6820, -4.759819, 9.50, -7.38
GPS, 3, 269273000, 12, 1.76, -33.7851928, 151.0662889, 1.33, 70.30, 1.61, 131.49
CTUN, 484, 0.00, 1.03, 1.490000, 0.00, 2, 12, 598, 0
ATT, 0.00, 5.64, 0.00, -1.86, 0.00, 128.74, 131.32
NTUN, 0.52, 2.25, -37.93701, -36.26460, -37.93701, -36.26460, -3.403748, 2.205930, -203.8403, -12.10498, 9.61, -6.89
CTUN, 484, 0.00, 0.95, 1.490000, 0.00, 2, 15, 586, 0
ATT, 0.00, 6.16, 0.00, -1.97, 0.00, 128.87, 131.32
NTUN, 0.57, 2.27, -39.44360, -41.23772, -39.44360, -41.23772, -6.897723, -0.418281, -235.2181, -1.233475, 10.62, -8.49
GPS, 3, 269273200, 12, 1.76, -33.7851892, 151.0662885, 1.32, 70.52, 0.48, 131.49
CTUN, 485, 0.00, 0.88, 1.490000, 0.00, 3, 19, 562, 0
ATT, 0.00, 7.03, 0.00, -2.26, 0.00, 129.13, 131.32
NTUN, 0.61, 2.27, -41.09338, -45.79564, -41.09338, -45.79564, -9.405111, -4.350626, -235.4978, -0.579223, 10.58, -8.56
CTUN, 484, 0.00, 0.64, 1.490000, 0.00, 3, 17, 579, 0
ATT, 0.00, 7.12, 0.00, -1.82, 0.00, 129.37, 131.32
NTUN, 0.67, 2.25, -46.29321, -48.52101, -46.29321, -48.52101, -12.01740, -10.61380, -276.9983, 16.74628, 11.74, -10.85
GPS, 3, 269273400, 12, 1.76, -33.7851854, 151.0662880, 1.30, 70.93, 0.74, 131.49
CTUN, 484, 0.00, 1.03, 1.490000, 0.00, 4, 22, 554, 0
ATT, 0.00, 8.01, 0.00, -2.70, 0.00, 129.80, 131.32
NTUN, 0.72, 2.21, -51.77686, -50.60175, -51.77686, -50.60175, -12.95900, -17.99982, -285.8364, 26.19266, 11.71, -11.65
CTUN, 484, 0.00, 0.84, 1.490000, 0.00, 6, 20, 575, 0
ATT, 0.00, 9.17, 0.00, -4.20, 0.00, 130.39, 131.32
NTUN, 0.78, 2.17, -60.33960, -50.86865, -60.33960, -50.86865, -15.96655, -25.62634, -326.4924, 50.30397, 12.47, -14.23
GPS, 3, 269273600, 12, 1.76, -33.7851823, 151.0662873, 1.29, 71.09, 0.89, 63.59
DU32, 7, 8569
CURR, 484, 127561, 1147, 1319, 4752, 83.20280
CTUN, 485, 0.00, 0.76, 1.490000, 0.00, 7, 20, 573, 0
ATT, 0.00, 8.60, 0.00, -5.44, 0.00, 130.95, 131.32
NTUN, 0.85, 2.13, -69.05579, -50.21336, -69.05579, -50.21336, -18.33423, -29.80144, -335.2989, 65.48801, 12.13, -15.29
CTUN, 485, 0.00, 0.79, 1.490000, 0.00, 8, 21, 570, 0
ATT, 0.00, 8.46, 0.00, -7.38, 0.00, 131.29, 131.32
NTUN, 0.92, 2.08, -79.25110, -48.11435, -79.25110, -48.11435, -22.75310, -33.17258, -360.9830, 86.20216, 12.27, -17.15
GPS, 3, 269273800, 12, 1.76, -33.7851793, 151.0662863, 1.27, 71.24, 0.79, 63.59
CTUN, 485, 0.00, 1.11, 1.490000, 0.00, 10, 20, 573, 0
ATT, 0.00, 9.10, 0.00, -8.63, 0.00, 131.73, 131.32
NTUN, 1.00, 2.04, -89.26062, -45.51086, -89.26046, -45.51078, -28.44216, -35.78009, -367.0936, 96.03565, 12.05, -17.81
CTUN, 484, 0.00, 0.89, 1.490000, 0.00, 12, 20, 579, 0
ATT, 0.00, 9.33, 0.00, -9.97, 0.00, 132.34, 131.32
NTUN, 1.08, 2.00, -100.1252, -42.03000, -99.81155, -41.89832, -35.78603, -36.30907, -381.5766, 111.4896, 11.87, -19.02
GPS, 3, 269274000, 12, 1.76, -33.7851769, 151.0662853, 1.28, 71.38, 0.78, 63.59
CTUN, 484, 0.00, 1.13, 1.490000, 0.00, 14, 21, 570, 0
ATT, 0.00, 9.35, 0.00, -11.70, 0.00, 132.55, 131.32
NTUN, 1.16, 1.97, -110.4960, -38.35034, -109.3279, -37.94492, -44.34706, -36.14513, -374.2209, 119.1425, 11.07, -19.15
CTUN, 484, 0.00, 1.04, 1.490000, 0.00, 16, 18, 592, 0
ATT, 0.00, 9.12, 0.00, -12.47, 0.00, 132.61, 131.32
NTUN, 1.25, 1.94, -120.3872, -34.34692, -117.9248, -33.64439, -52.92393, -34.81215, -369.8378, 126.4397, 10.53, -19.29
GPS, 3, 269274200, 12, 1.76, -33.7851750, 151.0662839, 1.29, 71.55, 0.68, 63.59
CTUN, 485, 0.00, 1.10, 1.490000, 0.00, 17, 15, 599, 0
ATT, 0.00, 9.02, 0.00, -12.86, 0.00, 132.36, 131.32
NTUN, 1.32, 1.91, -129.4435, -30.36784, -125.4035, -29.42006, -60.85500, -30.71900, -360.0471, 127.8250, 10.08, -18.99
CTUN, 485, 0.00, 1.22, 1.490000, 0.00, 16, 14, 605, 0
ATT, 0.00, 8.09, 0.00, -12.71, 0.00, 131.86, 131.32
NTUN, 1.40, 1.89, -137.6388, -26.15280, -131.8801, -25.05858, -68.97405, -25.85611, -353.4192, 131.0554, 9.85, -18.81
GPS, 3, 269274400, 12, 1.76, -33.7851733, 151.0662822, 1.30, 71.79, 0.57, 63.59
CTUN, 485, 0.00, 1.19, 1.490000, 0.00, 12, 18, 571, 0
ATT, 0.00, 5.88, 0.00, -11.74, 0.00, 131.62, 131.32
NTUN, 1.46, 1.87, -145.1339, -22.37051, -137.5502, -21.20159, -74.13361, -20.71816, -347.7017, 124.5700, 9.99, -18.29
CTUN, 484, 0.00, 1.03, 1.490000, 0.00, 9, 21, 554, 0
ATT, 0.00, 4.80, 0.00, -10.85, 0.00, 131.40, 131.32
NTUN, 1.53, 1.85, -152.0625, -18.37611, -142.6070, -17.23346, -75.31919, -14.06875, -344.0790, 123.0820, 9.99, -18.08
GPS, 3, 269274600, 12, 1.76, -33.7851723, 151.0662804, 1.32, 72.05, 0.49, 63.59
DU32, 7, 8569
CURR, 484, 133328, 1152, 1245, 4772, 86.97147
CTUN, 484, 0.00, 1.32, 1.490000, 0.00, 7, 21, 543, 0
ATT, 0.00, 4.47, 0.00, -10.04, 0.00, 131.24, 131.32
NTUN, 1.59, 1.84, -158.6715, -14.92053, -147.2500, -13.84652, -74.29888, -8.749919, -347.9702, 114.5340, 10.53, -17.85
CTUN, 484, 0.00, 1.24, 1.490000, 0.00, 6, 21, 530, 0
ATT, 0.00, 5.82, 0.00, -8.55, 0.00, 131.18, 131.32
NTUN, 1.65, 1.83, -164.9196, -11.22269, -151.5054, -10.30986, -74.84092, -8.074943, -352.9840, 115.7238, 10.79, -18.04
GPS, 3, 269274800, 12, 1.76, -33.7851716, 151.0662788, 1.36, 72.28, 0.47, 63.59
CTUN, 486, 0.00, 1.09, 1.490000, 0.00, 8, 20, 519, 0
ATT, 0.00, 9.54, 0.00, -7.87, 0.00, 131.10, 131.32
NTUN, 1.71, 1.81, -171.1188, -7.677582, -155.5939, -6.981026, -78.10679, -10.69643, -358.4793, 115.9588, 11.06, -18.23
CTUN, 484, 0.00, 1.38, 1.490000, 0.00, 13, 13, 554, 0
ATT, 0.00, 10.12, 0.00, -10.55, 0.00, 130.91, 131.32
NTUN, 1.76, 1.80, -176.5889, -3.355469, -159.1069, -3.023284, -81.02351, -13.59227, -355.4855, 129.9772, 10.44, -18.66
GPS, 3, 269275000, 12, 1.76, -33.7851711, 151.0662772, 1.37, 72.45, 0.51, 63.59
CTUN, 484, 0.00, 1.21, 1.490000, 0.00, 15, 3, 593, 0
ATT, 0.00, 7.83, 0.00, -12.58, 0.00, 131.02, 131.32
NTUN, 1.81, 1.78, -181.6941, 1.349854, -162.2910, 1.205703, -86.36429, -11.23737, -356.8408, 139.2899, 10.10, -19.06
CTUN, 484, 0.00, 0.95, 1.490000, 0.00, 15, 0, 607, 0
ATT, 0.00, 6.97, 0.00, -13.14, 0.00, 131.33, 131.32
NTUN, 1.85, 1.77, -185.8234, 6.676941, -164.7835, 5.920944, -91.36540, -8.489275, -352.1767, 147.6287, 9.47, -19.27
GPS, 3, 269275200, 12, 1.76, -33.7851710, 151.0662757, 1.35, 72.61, 0.63, 63.59
CTUN, 484, 0.00, 1.30, 1.490000, 0.00, 15, -1, 634, 0
ATT, 0.00, 7.25, 0.00, -12.29, 0.00, 131.62, 131.32
NTUN, 1.89, 1.75, -189.3373, 11.77408, -166.8322, 10.37458, -95.56284, -3.988312, -348.2839, 145.0954, 9.29, -19.09
CTUN, 484, 0.00, 1.19, 1.490000, 0.00, 13, 4, 609, 0
ATT, 0.00, 6.48, 0.00, -11.75, 0.00, 131.74, 131.32
NTUN, 1.92, 1.74, -191.5522, 16.81313, -168.0481, 14.75010, -102.2861, -1.091834, -339.2824, 146.1971, 8.83, -18.85
GPS, 3, 269275400, 12, 1.76, -33.7851711, 151.0662741, 1.34, 72.74, 0.77, 134.62
CTUN, 484, 0.00, 1.32, 1.490000, 0.00, 11, 8, 602, 0
ATT, 0.00, 6.42, 0.00, -10.58, 0.00, 131.79, 131.32
NTUN, 1.94, 1.72, -193.0825, 21.56255, -168.8227, 18.85332, -104.8383, 0.740982, -333.6691, 146.6260, 8.58, -18.69
CTUN, 484, 0.00, 1.47, 1.490000, 0.00, 9, 14, 572, 0
ATT, 0.00, 5.96, 0.00, -9.77, 0.00, 131.84, 131.32
NTUN, 1.95, 1.71, -193.5372, 26.52477, -168.9181, 23.15065, -107.2002, 2.629051, -326.9734, 150.8503, 8.16, -18.62
GPS, 3, 269275600, 12, 1.76, -33.7851715, 151.0662726, 1.36, 72.89, 0.99, 193.19
DU32, 7, 8569
CURR, 484, 139103, 1143, 1413, 4712, 90.71186
CTUN, 484, 0.00, 0.70, 1.490000, 0.00, 6, 21, 524, 0
ATT, 0.00, 6.65, 0.00, -8.51, 0.00, 132.09, 131.32
NTUN, 1.96, 1.69, -193.7015, 31.33427, -168.8140, 27.30832, -109.5519, -2.540598, -324.9694, 156.1651, 7.85, -18.78
CTUN, 484, 0.00, 0.90, 1.490000, 0.00, 8, 17, 549, 0
ATT, 0.00, 8.23, 0.00, -8.73, 0.00, 132.16, 131.32
NTUN, 1.96, 1.68, -192.9431, 36.84314, -168.0939, 32.09810, -113.4261, -8.036052, -318.7263, 173.3816, 6.92, -19.24
GPS, 3, 269275800, 12, 1.76, -33.7851730, 151.0662709, 1.34, 73.08, 1.22, 195.06
CTUN, 484, 0.00, 1.16, 1.490000, 0.00, 10, 17, 548, 0
ATT, 0.00, 7.72, 0.00, -10.27, 0.00, 132.28, 131.32
NTUN, 1.96, 1.66, -191.7697, 42.91486, -167.0482, 37.38261, -119.3225, -13.32287, -312.6464, 191.3218, 5.92, -19.73
CTUN, 484, 0.00, 1.47, 1.490000, 0.00, 10, 13, 567, 0
ATT, 0.00, 5.18, 0.00, -11.58, 0.00, 132.24, 131.32
NTUN, 1.94, 1.63, -188.4242, 50.05453, -164.5625, 43.71570, -123.7948, -12.34830, -292.8914, 215.9707, 4.09, -19.99
GPS, 3, 269276000, 12, 1.76, -33.7851751, 151.0662687, 1.36, 73.45, 1.53, 195.93
CTUN, 484, 0.00, 1.54, 1.490000, 0.00, 8, 15, 541, 0
ATT, 0.00, 1.57, 0.00, -11.63, 0.00, 132.45, 131.32
NTUN, 1.93, 1.61, -184.4146, 57.42499, -161.5520, 50.30579, -124.4771, -8.943218, -284.1931, 225.2484, 3.33, -20.05
CTUN, 485, 0.00, 1.41, 1.490000, 0.00, 8, 9, 571, 0
ATT, 0.00, 1.44, 0.00, -11.50, 0.00, 132.29, 131.32
NTUN, 1.89, 1.58, -178.3297, 65.21167, -157.0862, 57.44333, -125.5032, -3.420033, -263.4310, 238.8321, 1.92, -19.84
GPS, 3, 269276200, 12, 1.76, -33.7851775, 151.0662667, 1.39, 73.81, 2.00, 198.71
CTUN, 484, 0.00, 1.50, 1.490000, 0.00, 10, 5, 577, 0
ATT, 0.00, 1.39, 0.00, -12.34, 0.00, 132.38, 131.32
NTUN, 1.86, 1.55, -171.9957, 72.58881, -152.3291, 64.28874, -126.1117, 4.259130, -258.9002, 238.7764, 1.75, -19.68
CTUN, 484, 0.00, 1.70, 1.490000, 0.00, 10, 4, 571, 0
ATT, 0.00, 1.38, 0.00, -12.46, 0.00, 132.45, 131.32
NTUN, 1.82, 1.52, -163.9983, 79.57581, -146.3386, 71.00690, -128.1872, 10.69253, -236.4895, 240.8602, 0.67, -18.98
GPS, 3, 269276400, 12, 1.76, -33.7851799, 151.0662650, 1.42, 74.05, 2.09, 197.97
CTUN, 484, 0.00, 1.65, 1.490000, 0.00, 8, 6, 546, 0
ATT, 0.00, 0.79, 0.00, -11.29, 0.00, 132.46, 131.32
NTUN, 1.77, 1.49, -155.6058, 85.96564, -139.9248, 77.30251, -130.8054, 17.45668, -227.4969, 238.3327, 0.40, -18.56
CTUN, 484, 0.00, 1.40, 1.490000, 0.00, 7, 5, 551, 0
ATT, 0.00, -0.25, 0.00, -10.91, 0.00, 132.65, 131.32
NTUN, 1.72, 1.45, -145.8666, 91.70892, -132.4031, 83.24418, -131.4660, 24.18165, -204.0234, 239.0169, -0.66, -17.75
GPS, 3, 269276600, 12, 1.76, -33.7851820, 151.0662637, 1.45, 74.36, 2.13, 196.16
DU32, 7, 8569
CURR, 484, 144694, 1146, 1243, 4712, 94.24814
CTUN, 485, 0.00, 1.16, 1.490000, 0.00, 6, 5, 542, 0
ATT, 0.00, -1.11, 0.00, -9.78, 0.00, 132.68, 131.32
NTUN, 1.66, 1.42, -135.8412, 96.74783, -124.4780, 88.65481, -128.0662, 31.45502, -194.5337, 234.5706, -0.91, -17.24
CTUN, 484, 0.00, 1.21, 1.490000, 0.00, 5, 3, 551, 0
ATT, 0.00, -1.76, 0.00, -8.66, 0.00, 132.49, 131.32
NTUN, 1.61, 1.39, -125.5521, 101.0452, -116.1593, 93.48580, -123.3675, 37.60591, -183.1154, 231.2959, -1.24, -16.70
GPS, 3, 269276800, 11, 1.95, -33.7851849, 151.0662630, 1.43, 74.59, 1.91, 193.85
CTUN, 484, 0.00, 1.79, 1.490000, 0.00, 4, 2, 560, 0
ATT, 0.00, -2.27, 0.00, -7.86, 0.00, 132.17, 131.32
NTUN, 1.56, 1.35, -115.6394, 104.7185, -107.9303, 97.73748, -116.5130, 42.87591, -183.5249, 225.0958, -0.92, -16.47
CTUN, 484, 0.00, 1.38, 1.490000, 0.00, 3, 3, 546, 0
ATT, 0.00, -2.01, 0.00, -7.54, 0.00, 131.99, 131.32
NTUN, 1.50, 1.32, -105.1185, 107.4048, -99.05955, 101.2141, -109.3058, 46.82808, -173.3964, 219.1172, -1.04, -15.87
GPS, 3, 269277000, 11, 1.95, -33.7851885, 151.0662630, 1.45, 74.92, 2.12, 188.08
CTUN, 485, 0.00, 1.52, 1.490000, 0.00, 3, 3, 548, 0
ATT, 0.00, -1.84, 0.00, -7.09, 0.00, 131.84, 131.32
NTUN, 1.45, 1.28, -95.18323, 109.5846, -90.46124, 104.1481, -102.2438, 49.56014, -175.8682, 214.0499, -0.69, -15.76
CTUN, 486, 0.00, 1.81, 1.490000, 0.00, 3, 2, 553, 0
ATT, 0.00, -1.18, 0.00, -6.95, 0.00, 131.56, 131.32
NTUN, 1.39, 1.24, -84.07361, 110.7335, -80.69230, 106.2799, -96.27591, 52.82972, -157.3239, 209.5334, -1.28, -14.90
GPS, 3, 269277200, 11, 1.95, -33.7851920, 151.0662634, 1.47, 75.24, 2.43, 180.24
CTUN, 484, 0.00, 1.63, 1.490000, 0.00, 2, 5, 517, 0
ATT, 0.00, -2.77, 0.00, -6.46, 0.00, 131.37, 131.32
NTUN, 1.33, 1.20, -73.31079, 111.5924, -70.96307, 108.0187, -88.66441, 56.44603, -155.6711, 206.2158, -1.16, -14.71
CTUN, 484, 0.00, 1.13, 1.490000, 0.00, 1, 6, 505, 0
ATT, 0.00, -2.51, 0.00, -4.65, 0.00, 131.05, 131.32
NTUN, 1.27, 1.16, -61.63000, 111.4041, -60.19487, 108.8099, -82.13349, 59.30923, -136.1203, 196.0728, -1.57, -13.59
GPS, 3, 269277400, 11, 1.95, -33.7851952, 151.0662643, 1.49, 75.39, 2.52, 175.82
CTUN, 486, 0.00, 1.52, 1.490000, 0.00, 0, 2, 518, 0
ATT, 0.00, -1.26, 0.00, -3.07, 0.00, 130.52, 131.32
NTUN, 1.21, 1.11, -50.49817, 110.7861, -49.68570, 109.0037, -72.88823, 62.12020, -137.9488, 190.9189, -1.17, -13.45
CTUN, 484, 0.00, 0.95, 1.490000, 0.00, 0, 3, 509, 0
ATT, 0.00, -1.76, 0.00, -3.16, 0.00, 130.38, 131.32
NTUN, 1.15, 1.06, -39.01160, 108.9916, -38.64824, 107.9765, -63.04510, 62.80432, -125.5105, 177.6243, -1.13, -12.45
GPS, 3, 269277600, 12, 1.76, -33.7851984, 151.0662656, 1.47, 75.57, 2.51, 168.03
DU32, 7, 8569
CURR, 484, 150081, 1148, 1120, 4732, 97.60101
CTUN, 484, 0.00, 1.62, 1.490000, 0.00, 0, 0, 523, 0
ATT, 0.00, -2.14, 1.04, -2.93, 0.00, 130.19, 131.32
NTUN, 1.10, 1.01, -28.31177, 106.9508, -28.18066, 106.4556, -53.00071, 63.57839, -132.3242, 171.7910, -0.59, -12.45
CTUN, 484, 0.00, 1.01, 1.490000, 0.00, 0, 2, 518, 0
ATT, 0.00, -1.82, 0.92, -2.09, 0.00, 129.92, 131.32
NTUN, 1.05, 0.96, -17.50903, 103.8607, -17.48663, 103.7278, -43.84640, 64.60179, -127.0597, 157.7225, -0.24, -11.66
GPS, 3, 269277800, 12, 1.76, -33.7852010, 151.0662673, 1.45, 75.71, 2.51, 164.56
CTUN, 484, 0.00, 2.21, 1.490000, 0.00, 0, -4, 564, 0
ATT, 0.00, -1.68, 0.69, -3.35, 0.00, 129.96, 131.32
NTUN, 1.00, 0.90, -7.479492, 100.5793, -7.479223, 100.5757, -33.51564, 66.08215, -130.9259, 151.4782, 0.18, -11.53
