dump 5

ArduCopter V3.1-rc2
Free RAM: 1133
APM 2
FMT, 128, 89, FMT, BBnNZ, Type,Length,Name,Format
FMT, 129, 23, PARM, Nf, Name,Value
FMT, 130, 35, GPS, BIBcLLeeEe, Status,Time,NSats,HDop,Lat,Lng,RelAlt,Alt,Spd,GCrs
FMT, 131, 27, IMU, ffffff, GyrX,GyrY,GyrZ,AccX,AccY,AccZ
FMT, 132, 67, MSG, Z, Message
FMT, 9, 19, CURR, hIhhhf, Thr,ThrInt,Volt,Curr,Vcc,CurrTot
FMT, 11, 11, MOT, hhhh, Mot1,Mot2,Mot3,Mot4
FMT, 12, 28, OF, hhBccffee, Dx,Dy,SQual,X,Y,Lat,Lng,Roll,Pitch
FMT, 5, 49, NTUN, Ecffffffffee, WPDst,WPBrg,PErX,PErY,DVelX,DVelY,VelX,VelY,DAcX,DAcY,DRol,DPit
FMT, 4, 25, CTUN, hcefchhhh, ThrIn,SonAlt,BarAlt,WPAlt,DesSonAlt,AngBst,CRate,ThrOut,DCRate
FMT, 15, 21, MAG, hhhhhhhhh, MagX,MagY,MagZ,OfsX,OfsY,OfsZ,MOfsX,MOfsY,MOfsZ
FMT, 6, 17, PM, BBBHHIhB, RenCnt,RenBlw,FixCnt,NLon,NLoop,MaxT,PMT,I2CErr
FMT, 8, 20, CMD, BBBBBeLL, CTot,CNum,CId,COpt,Prm1,Alt,Lat,Lng
FMT, 1, 17, ATT, cccccCC, RollIn,Roll,PitchIn,Pitch,YawIn,Yaw,NavYaw
FMT, 17, 37, INAV, cccfffiiff, BAlt,IAlt,IClb,ACorrX,ACorrY,ACorrZ,GLat,GLng,ILat,ILng
FMT, 3, 6, MODE, Mh, Mode,ThrCrs
FMT, 10, 3, STRT, , 
FMT, 13, 4, EV, B, Id
FMT, 20, 6, D16, Bh, Id,Value
FMT, 21, 6, DU16, BH, Id,Value
FMT, 22, 8, D32, Bi, Id,Value
FMT, 23, 8, DU32, BI, Id,Value
FMT, 24, 8, DFLT, Bf, Id,Value
FMT, 14, 28, PID, Biiiiif, Id,Error,P,I,D,Out,Gain
FMT, 16, 15, DMP, ccccCC, DCMRoll,DMPRoll,DCMPtch,DMPPtch,DCMYaw,DMPYaw
FMT, 18, 25, CAM, ILLeccC, GPSTime,Lat,Lng,Alt,Roll,Pitch,Yaw
FMT, 19, 5, ERR, BB, Subsys,ECode
D32, 9, 5477
CMD, 6, 0, 16, 0, 0, 0.00, -33.7840629, 151.0681952
EV, 10
GPS, 3, 111053400, 12, 1.36, -33.7840629, 151.0681951, 0.42, 95.03, 0.03, 165.85
CTUN, 0, 0.00, 0.04, 0.000000, 0.00, 0, 0, 0, 0
ATT, 0.00, -0.53, 0.00, -0.93, 0.00, 54.76, 54.76
GPS, 3, 111060800, 12, 1.36, -33.7840637, 151.0681893, 0.40, 94.88, 0.01, 165.85
CTUN, 0, 0.00, -0.01, 0.000000, 0.00, 0, 0, 0, 0
ATT, 0.00, -0.55, 0.00, -0.90, 0.00, 54.76, 54.76
CTUN, 0, 0.00, 0.00, 0.000000, 0.00, 0, -1, 0, 0
ATT, 0.00, -0.55, 0.00, -0.90, 0.00, 54.76, 54.76
GPS, 3, 111061000, 8, 2.17, -33.7840638, 151.0681892, 0.35, 94.86, 0.02, 165.85
CTUN, 0, 0.00, 0.02, 0.000000, 0.00, 0, -1, 0, 0
ATT, 0.00, -0.55, 0.00, -0.90, 0.00, 54.76, 54.76
CTUN, 0, 0.00, 0.04, 0.000000, 0.00, 0, -2, 0, 0
ATT, 0.00, -0.56, 0.00, -0.90, 0.00, 54.76, 54.76
GPS, 3, 111061200, 8, 2.17, -33.7840639, 151.0681892, 0.31, 94.83, 0.01, 165.85
CTUN, 0, 0.00, 0.12, 0.000000, 0.00, 0, -2, 0, 0
DU32, 7, 98393
CURR, 0, 0, 1102, 0, 4469, 0.000000
ATT, 0.00, -0.56, 0.00, -0.90, 0.00, 54.76, 54.76
CTUN, 176, 0.00, 0.03, 0.000000, 0.00, 0, -2, 0, 0
EV, 15
EV, 28
ATT, 0.00, -0.55, 0.00, -0.90, 0.00, 54.77, 54.77
GPS, 3, 111061400, 8, 2.17, -33.7840640, 151.0681890, 0.27, 94.82, 0.01, 165.85
CTUN, 258, 0.00, -0.02, 0.000000, 0.00, 0, -3, 249, 0
ATT, 0.00, -0.50, 0.00, -0.85, 0.00, 54.59, 54.77
CTUN, 302, 0.00, 0.06, 0.000000, 0.00, 0, -2, 302, 0
ATT, 0.00, -0.39, 0.00, -0.84, 0.00, 54.55, 54.77
GPS, 3, 111061600, 8, 2.17, -33.7840641, 151.0681889, 0.24, 94.80, 0.01, 165.85
CTUN, 301, 0.00, -0.57, 0.000000, 0.00, 0, -3, 302, 0
ATT, 0.00, -0.41, 0.00, -0.75, 0.00, 54.60, 54.77
CTUN, 259, 0.00, -0.78, 0.000000, 0.00, 0, -5, 262, 0
ATT, 0.00, -0.39, 0.00, -0.76, 0.00, 54.53, 54.77
GPS, 3, 111061800, 8, 2.17, -33.7840641, 151.0681888, 0.13, 94.79, 0.02, 165.85
CTUN, 258, 0.00, -0.62, 0.000000, 0.00, 0, -5, 258, 0
ATT, 0.00, -0.42, 0.00, -0.74, 0.00, 54.52, 54.77
CTUN, 259, 0.00, -0.76, 0.000000, 0.00, 0, -7, 259, 0
GPS, 3, 111062000, 8, 2.17, -33.7840643, 151.0681887, 0.02, 94.76, 0.03, 165.85
ATT, 0.00, -0.39, 0.00, -0.79, 0.00, 54.45, 54.77
CTUN, 259, 0.00, -0.80, 0.000000, 0.00, 0, -7, 259, 0
ATT, 0.00, -0.41, 0.00, -0.78, 0.00, 54.43, 54.77
CTUN, 259, 0.00, -0.94, 0.000000, 0.00, 0, -8, 259, 0
GPS, 3, 111062200, 8, 2.17, -33.7840644, 151.0681886, -0.09, 94.75, 0.01, 165.85
CTUN, 259, 0.00, -0.74, 0.000000, 0.00, 0, -10, 259, 0
DU32, 7, 65657
CURR, 259, 2129, 1102, 0, 4487, 0.000000
ATT, 0.00, -0.37, 0.00, -0.78, 0.00, 54.37, 54.77
CTUN, 259, 0.00, -0.75, 0.000000, 0.00, 0, -10, 259, 0
ATT, 0.00, -0.40, 0.00, -0.77, 0.00, 54.36, 54.77
GPS, 3, 111062400, 8, 2.17, -33.7840645, 151.0681885, -0.19, 94.72, 0.02, 165.85
CTUN, 259, 0.00, -0.80, 0.000000, 0.00, 0, -11, 259, 0
ATT, 0.00, -0.39, 0.00, -0.76, 0.00, 54.30, 54.77
CTUN, 259, 0.00, -0.75, 0.000000, 0.00, 0, -13, 259, 0
ATT, 0.00, -0.37, 0.00, -0.77, 0.00, 54.26, 54.77
GPS, 3, 111062600, 8, 2.17, -33.7840645, 151.0681884, -0.28, 94.68, 0.09, 165.85
CTUN, 349, 0.00, -0.97, 0.000000, 0.00, 0, -13, 313, 0
ATT, 0.00, -0.38, 0.00, -0.80, 0.00, 54.22, 54.77
CTUN, 425, 0.00, -0.84, 0.000000, 0.00, 0, -13, 425, 0
ATT, 0.00, -0.29, 0.00, -0.77, 0.00, 54.11, 54.77
EV, 16
GPS, 3, 111062800, 8, 2.17, -33.7840647, 151.0681883, -0.38, 94.67, 0.06, 165.85
CTUN, 514, 0.00, -1.19, 0.000000, 0.00, 0, -14, 488, 0
ATT, 0.00, -0.15, 0.00, -0.29, 0.00, 53.66, 54.77
CTUN, 573, 0.00, -1.52, 0.000000, 0.00, 0, -13, 563, 0
GPS, 3, 111063000, 8, 2.17, -33.7840648, 151.0681882, -0.50, 94.66, 0.03, 165.85
ATT, 0.00, 0.23, 0.00, 2.48, 0.00, 52.15, 54.77
CTUN, 586, 0.00, -1.82, 0.000000, 0.00, 0, -6, 589, 0
ATT, 0.00, 0.53, 0.00, 3.63, 0.00, 50.15, 54.77
CTUN, 611, 0.00, -1.31, 0.000000, 0.00, 0, 12, 601, 0
GPS, 3, 111063200, 8, 2.17, -33.7840650, 151.0681879, -0.61, 94.66, 0.06, 165.85
CTUN, 625, 0.00, -0.25, 0.000000, 0.00, 1, 27, 625, 0
DU32, 7, 82041
CURR, 626, 5934, 1102, 0, 4505, 0.000000
ATT, 0.00, 0.33, 0.00, 4.11, 0.00, 47.53, 54.77
CTUN, 626, 0.00, 0.02, 0.000000, 0.00, 1, 49, 627, 0
ATT, 0.00, 0.42, -5.42, 4.25, 0.00, 45.36, 54.77
GPS, 3, 111063400, 9, 1.43, -33.7840650, 151.0681877, -0.48, 94.66, 0.02, 165.85
CTUN, 626, 0.00, 0.31, 0.000000, 0.00, 0, 65, 626, 0
ATT, 0.00, 0.53, -6.87, 1.05, 0.00, 43.12, 53.12
CTUN, 627, 0.00, 0.34, 0.000000, 0.00, 0, 82, 624, 0
ATT, 0.00, 0.21, -10.49, -1.88, 0.00, 41.47, 51.47
GPS, 3, 111063600, 9, 1.43, -33.7840655, 151.0681870, -0.24, 94.71, 0.35, 165.85
CTUN, 581, 0.00, 0.51, 0.000000, 0.00, 0, 94, 582, 0
ATT, 0.00, 1.48, -13.27, -5.37, 0.00, 39.46, 49.46
CTUN, 563, 0.00, 0.54, 0.000000, 0.00, 2, 101, 565, 0
ATT, 0.00, 1.80, -14.23, -8.16, 0.00, 38.08, 48.08
GPS, 3, 111063800, 9, 1.43, -33.7840666, 151.0681862, 0.04, 94.87, 0.69, 167.24
CTUN, 563, 0.00, 0.77, 0.000000, 0.00, 4, 103, 567, 0
ATT, 0.00, 2.17, -14.23, -10.58, 0.00, 36.70, 46.70
CTUN, 528, 0.00, 0.85, 0.000000, 0.00, 7, 103, 555, 0
GPS, 3, 111064000, 9, 1.43, -33.7840668, 151.0681847, 0.32, 95.24, 0.44, 189.84
ATT, 0.00, 3.04, -13.87, -11.25, 1.81, 35.58, 45.58
CTUN, 519, 0.00, 0.94, 0.000000, 0.00, 8, 101, 528, 0
PM, 0, 0, 51, 6, 1000, 7351764, 0, 4
ATT, 0.00, 3.32, -12.66, -11.35, 9.82, 35.09, 45.09
CTUN, 502, 0.00, 1.10, 0.000000, 0.00, 8, 92, 515, 0
GPS, 3, 111064200, 10, 1.34, -33.7840669, 151.0681843, 0.58, 95.46, 0.12, 189.84
CTUN, 503, 0.00, 1.20, 0.000000, 0.00, 7, 87, 510, 0
DU32, 7, 82041
CURR, 503, 11101, 1102, 0, 4505, 0.000000
ATT, -0.58, 3.86, -11.82, -10.57, 15.16, 36.34, 46.34
CTUN, 476, 0.00, 1.33, 0.000000, 0.00, 6, 78, 482, 0
ATT, -2.21, 4.19, -10.73, -9.15, 14.67, 38.93, 48.93
GPS, 3, 111064400, 12, 1.25, -33.7840664, 151.0681839, 0.81, 95.74, 0.19, 189.84
CTUN, 474, 0.00, 1.31, 0.000000, 0.00, 4, 69, 478, 0
ATT, -2.21, 2.95, -10.49, -7.53, 8.12, 43.18, 53.17
CTUN, 475, 0.00, 1.53, 0.000000, 0.00, 3, 50, 479, 0
ATT, -1.98, 0.96, -10.49, -7.85, 5.33, 46.50, 56.16
GPS, 3, 111064600, 12, 1.25, -33.7840660, 151.0681848, 0.98, 95.92, 0.60, 101.62
CTUN, 476, 0.00, 1.55, 0.000000, 0.00, 3, 32, 479, 0
ATT, -1.98, -0.53, -9.28, -8.56, 0.00, 49.52, 57.10
CTUN, 476, 0.00, 1.63, 0.000000, 0.00, 3, 16, 478, 0
ATT, -2.56, -1.16, -7.96, -7.99, 0.00, 50.89, 57.10
GPS, 3, 111064800, 13, 1.22, -33.7840653, 151.0681856, 1.09, 96.08, 0.57, 85.66
CTUN, 478, 0.00, 1.55, 0.000000, 0.00, 3, 3, 477, 0
ATT, -1.51, -1.44, -10.13, -6.46, 0.00, 51.36, 57.10
CTUN, 501, 0.00, 1.69, 0.000000, 0.00, 2, -13, 477, 0
ATT, 0.00, -1.10, -10.97, -6.58, 0.00, 51.29, 57.10
GPS, 3, 111065000, 13, 1.22, -33.7840648, 151.0681868, 1.13, 96.08, 0.58, 76.80
CTUN, 522, 0.00, 1.55, 0.000000, 0.00, 2, -23, 524, 0
ATT, 0.00, -0.54, -9.16, -7.66, 0.00, 50.81, 57.10
CTUN, 569, 0.00, 1.63, 0.000000, 0.00, 3, -29, 563, 0
GPS, 3, 111065200, 13, 1.22, -33.7840637, 151.0681880, 1.13, 96.12, 0.81, 64.86
ATT, 0.00, 0.13, -7.60, -6.84, 0.00, 49.91, 57.10
CTUN, 594, 0.00, 1.63, 0.000000, 0.00, 3, -29, 588, 0
DU32, 7, 82041
CURR, 604, 15551, 1102, 0, 4505, 0.000000
ATT, 0.00, 0.42, -7.11, -5.79, 0.00, 48.95, 57.10
CTUN, 603, 0.00, 1.54, 0.000000, 0.00, 2, -21, 606, 0
GPS, 3, 111065400, 12, 1.36, -33.7840626, 151.0681893, 1.14, 96.13, 0.85, 64.15
CTUN, 604, 0.00, 1.48, 0.000000, 0.00, 1, -10, 605, 0
ATT, 0.00, 0.92, -7.23, -4.61, 0.00, 47.77, 57.10
CTUN, 604, 0.00, 1.52, 0.000000, 0.00, 1, 4, 605, 0
ATT, 0.00, 1.14, -3.86, -3.95, 0.00, 46.98, 56.98
GPS, 3, 111065600, 13, 1.22, -33.7840615, 151.0681909, 1.19, 96.21, 1.04, 65.44
CTUN, 598, 0.00, 1.58, 0.000000, 0.00, 0, 16, 603, 0
ATT, 0.00, 0.68, 0.00, -2.05, 0.00, 46.38, 56.38
CTUN, 470, 0.00, 1.61, 0.000000, 0.00, 0, 30, 480, 0
ATT, 0.00, 1.00, 0.00, 0.23, 0.00, 45.84, 55.84
GPS, 3, 111065800, 13, 1.22, -33.7840603, 151.0681924, 1.30, 96.34, 1.02, 63.40
CTUN, 469, 0.00, 1.64, 0.000000, 0.00, 0, 28, 468, 0
ATT, 0.00, 1.04, 0.00, 1.37, 0.00, 45.30, 55.30
CTUN, 470, 0.00, 1.82, 0.000000, 0.00, 0, 13, 470, 0
ATT, 0.00, 0.17, 0.00, 1.03, 0.00, 45.28, 55.25
GPS, 3, 111066000, 11, 1.42, -33.7840592, 151.0681942, 1.37, 96.45, 1.06, 66.10
CTUN, 468, 0.00, 1.82, 0.000000, 0.00, 0, -1, 468, 0
ATT, 0.00, -0.41, 0.00, 0.35, 0.00, 45.49, 55.25
CTUN, 468, 0.00, 1.77, 0.000000, 0.00, 0, -17, 468, 0
GPS, 3, 111066200, 11, 1.42, -33.7840584, 151.0681955, 1.39, 96.52, 0.80, 68.02
ATT, -0.23, -0.31, 0.00, 0.25, 0.00, 45.86, 55.25
CTUN, 557, 0.00, 1.77, 0.000000, 0.00, 0, -30, 547, 0
DU32, 7, 82041
CURR, 557, 20366, 1102, 0, 4487, 0.000000
ATT, 0.00, -0.47, 0.00, 0.11, 0.00, 46.30, 55.25
CTUN, 557, 0.00, 1.71, 0.000000, 0.00, 0, -38, 558, 0
GPS, 3, 111066400, 11, 1.42, -33.7840576, 151.0681966, 1.37, 96.59, 0.74, 69.92
ATT, 0.00, -0.80, 0.00, -0.11, 0.00, 46.64, 55.25
CTUN, 563, 0.00, 1.70, 0.000000, 0.00, 0, -39, 563, 0
ATT, 0.00, -0.52, 0.00, 0.02, 0.00, 46.84, 55.25
CTUN, 566, 0.00, 1.63, 0.000000, 0.00, 0, -39, 566, 0
GPS, 3, 111066600, 11, 1.42, -33.7840570, 151.0681976, 1.33, 96.61, 0.57, 70.30
CTUN, 565, 0.00, 1.66, 0.000000, 0.00, 0, -39, 562, 0
ATT, 0.00, -0.56, 0.00, -0.02, 0.00, 47.13, 55.25
CTUN, 565, 0.00, 1.54, 0.000000, 0.00, 0, -38, 566, 0
ATT, 0.00, -0.54, 0.00, -0.17, 0.00, 47.35, 55.25
GPS, 3, 111066800, 12, 1.29, -33.7840564, 151.0681984, 1.29, 96.60, 0.55, 71.79
CTUN, 565, 0.00, 1.65, 0.000000, 0.00, 0, -37, 565, 0
ATT, 0.00, -0.47, 0.00, -0.36, 0.00, 47.66, 55.25
CTUN, 566, 0.00, 1.48, 0.000000, 0.00, 0, -37, 562, 0
ATT, 0.00, -0.48, 0.00, -0.47, 0.00, 47.95, 55.25
GPS, 3, 111067000, 12, 1.29, -33.7840559, 151.0681988, 1.25, 96.64, 0.41, 74.27
CTUN, 563, 0.00, 1.53, 0.000000, 0.00, 0, -37, 562, 0
ATT, 0.00, -0.39, 0.00, -0.69, 0.00, 48.31, 55.25
CTUN, 562, 0.00, 1.70, 0.000000, 0.00, 0, -37, 562, 0
GPS, 3, 111067200, 12, 1.29, -33.7840555, 151.0681993, 1.21, 96.69, 0.32, 75.63
ATT, 0.00, -0.43, 0.00, -0.95, 0.00, 48.63, 55.25
CTUN, 562, 0.00, 1.59, 0.000000, 0.00, 0, -38, 566, 0
DU32, 7, 82041
CURR, 565, 25424, 1102, 0, 4505, 0.000000
ATT, 0.00, -0.41, 0.00, -1.11, 0.00, 48.84, 55.25
CTUN, 565, 0.00, 1.68, 0.000000, 0.00, 0, -38, 565, 0
GPS, 3, 111067400, 12, 1.29, -33.7840552, 151.0681996, 1.19, 96.71, 0.25, 75.63
ATT, 0.00, -0.42, 0.00, -1.06, 0.00, 49.02, 55.25
CTUN, 562, 0.00, 1.53, 0.000000, 0.00, 0, -36, 563, 0
ATT, 0.00, -0.37, 0.00, -0.95, 0.00, 49.13, 55.25
CTUN, 565, 0.00, 1.57, 0.000000, 0.00, 0, -34, 565, 0
GPS, 3, 111067600, 12, 1.29, -33.7840548, 151.0682000, 1.16, 96.75, 0.27, 76.90
CTUN, 563, 0.00, 1.43, 0.000000, 0.00, 0, -31, 565, 0
ATT, 0.00, -0.37, 0.00, -1.05, 0.00, 49.23, 55.25
CTUN, 563, 0.00, 1.55, 0.000000, 0.00, 0, -27, 562, 0
ATT, 0.00, -0.30, 0.00, -1.16, 0.00, 49.32, 55.25
GPS, 3, 111067800, 12, 1.29, -33.7840547, 151.0682002, 1.15, 96.70, 0.16, 76.90
CTUN, 563, 0.00, 1.56, 0.000000, 0.00, 0, -25, 563, 0
ATT, 0.00, -0.10, 0.00, -1.10, 0.00, 49.39, 55.25
CTUN, 563, 0.00, 1.57, 0.000000, 0.00, 0, -23, 565, 0
ATT, 0.00, -0.04, 0.00, -1.06, 0.00, 49.48, 55.25
GPS, 3, 111068000, 12, 1.29, -33.7840545, 151.0682004, 1.15, 96.71, 0.10, 76.90
CTUN, 563, 0.00, 1.60, 0.000000, 0.00, 0, -21, 563, 0
ATT, 0.00, -0.02, 0.00, -1.12, 0.00, 49.56, 55.25
CTUN, 563, 0.00, 1.68, 0.000000, 0.00, 0, -20, 563, 0
GPS, 3, 111068200, 12, 1.29, -33.7840545, 151.0682007, 1.16, 96.67, 0.09, 76.90
ATT, -0.23, -0.12, 0.00, -1.17, 0.00, 49.59, 55.25
CTUN, 563, 0.00, 1.71, 0.000000, 0.00, 0, -20, 563, 0
DU32, 7, 82041
CURR, 563, 31053, 1102, 0, 4469, 0.000000
ATT, -0.81, -0.13, 0.00, -1.12, 0.00, 49.56, 55.25
CTUN, 562, 0.00, 1.68, 0.000000, 0.00, 0, -20, 563, 0
GPS, 3, 111068400, 12, 1.29, -33.7840545, 151.0682009, 1.18, 96.69, 0.09, 76.90
ATT, -3.61, -0.78, 0.00, -0.97, 0.00, 49.48, 55.25
CTUN, 563, 0.00, 1.73, 0.000000, 0.00, 0, -20, 563, 0
ATT, -3.38, -2.31, 0.00, -1.20, 0.00, 49.46, 55.25
CTUN, 563, 0.00, 1.60, 0.000000, 0.00, 0, -19, 563, 0
GPS, 3, 111068600, 11, 1.42, -33.7840545, 151.0682010, 1.20, 96.69, 0.08, 76.90
CTUN, 563, 0.00, 1.67, 0.000000, 0.00, 0, -19, 563, 0
ATT, -3.26, -2.71, 0.00, -1.32, 0.00, 49.41, 55.25
CTUN, 563, 0.00, 1.61, 0.000000, 0.00, 0, -17, 565, 0
ATT, -2.91, -2.56, 0.00, -1.31, 0.00, 49.37, 55.25
GPS, 3, 111068800, 11, 1.42, -33.7840544, 151.0682010, 1.22, 96.68, 0.05, 76.90
CTUN, 563, 0.00, 1.61, 0.000000, 0.00, 0, -13, 563, 0
ATT, -2.44, -2.56, 0.00, -1.58, 0.00, 49.36, 55.25
CTUN, 563, 0.00, 1.59, 0.000000, 0.00, 0, -12, 563, 0
ATT, -2.56, -2.28, 0.00, -1.59, 0.00, 49.33, 55.25
GPS, 3, 111069000, 11, 1.42, -33.7840543, 151.0682010, 1.24, 96.66, 0.07, 76.90
CTUN, 562, 0.00, 1.73, 0.000000, 0.00, 0, -13, 562, 0
ATT, -2.44, -1.91, 0.00, -1.45, 0.00, 49.20, 55.25
CTUN, 563, 0.00, 1.60, 0.000000, 0.00, 0, -12, 563, 0
GPS, 3, 111069200, 12, 1.29, -33.7840540, 151.0682009, 1.27, 96.68, 0.14, 76.90
ATT, -2.44, -1.60, 0.00, -1.19, 0.00, 48.99, 55.25
CTUN, 562, 0.00, 1.68, 0.000000, 0.00, 0, -9, 562, 0
DU32, 7, 82041
CURR, 563, 36118, 1102, 0, 4469, 0.000000
ATT, -2.21, -1.42, 0.00, -1.21, 0.00, 48.77, 55.25
CTUN, 566, 0.00, 1.67, 0.000000, 0.00, 0, -10, 563, 0
GPS, 3, 111069400, 12, 1.29, -33.7840535, 151.0682005, 1.29, 96.69, 0.29, 13.92
ATT, -2.44, -1.16, 0.00, -1.09, 0.00, 48.49, 55.25
CTUN, 563, 0.00, 1.72, 0.000000, 0.00, 0, -9, 563, 0
ATT, -2.44, -1.02, 0.00, -0.98, 0.00, 48.29, 55.25
CTUN, 563, 0.00, 1.65, 0.000000, 0.00, 0, -8, 563, 0
GPS, 3, 111069600, 12, 1.29, -33.7840531, 151.0681999, 1.32, 96.69, 0.34, 328.90
CTUN, 563, 0.00, 1.77, 0.000000, 0.00, 0, -8, 563, 0
ATT, -0.93, -0.98, 0.00, -1.15, 0.00, 48.12, 55.25
CTUN, 563, 0.00, 1.70, 0.000000, 0.00, 0, -7, 565, 0
ATT, -0.46, -0.41, 0.00, -0.99, 0.00, 48.05, 55.25
GPS, 3, 111069800, 11, 1.42, -33.7840526, 151.0681993, 1.35, 96.68, 0.34, 314.76
CTUN, 563, 0.00, 1.66, 0.000000, 0.00, 0, -5, 563, 0
ATT, 0.00, 0.64, -0.48, -0.63, 0.00, 48.06, 55.25
CTUN, 563, 0.00, 1.73, 0.000000, 0.00, 0, -4, 563, 0
ATT, 0.00, 1.03, 0.00, -0.81, 0.00, 48.18, 55.25
GPS, 3, 111070000, 12, 1.29, -33.7840520, 151.0681987, 1.39, 96.69, 0.38, 308.46
CTUN, 563, 0.00, 1.69, 0.000000, 0.00, 0, -4, 563, 0
ATT, 0.00, 0.95, 0.00, -0.78, 0.00, 48.44, 55.25
CTUN, 563, 0.00, 1.71, 0.000000, 0.00, 0, -3, 563, 0
GPS, 3, 111070200, 12, 1.29, -33.7840517, 151.0681979, 1.41, 96.77, 0.31, 297.70
ATT, 0.00, 1.12, 0.00, -0.55, 0.00, 48.74, 55.25
CTUN, 563, 0.00, 1.78, 0.000000, 0.00, 0, -3, 563, 0
DU32, 7, 82041
CURR, 565, 41190, 1102, 0, 4505, 0.000000
ATT, 0.00, 1.12, 0.00, -0.39, 0.00, 49.01, 55.25
CTUN, 563, 0.00, 1.79, 0.000000, 0.00, 0, -2, 563, 0
GPS, 3, 111070400, 11, 1.42, -33.7840514, 151.0681971, 1.45, 96.76, 0.36, 289.60
ATT, -0.93, 0.88, 0.00, -0.29, 0.00, 49.26, 55.25
CTUN, 563, 0.00, 1.83, 0.000000, 0.00, 0, -1, 562, 0
ATT, -1.39, 0.51, 0.00, -0.17, 0.00, 49.42, 55.25
CTUN, 562, 0.00, 1.78, 0.000000, 0.00, 0, -2, 562, 0
GPS, 3, 111070600, 11, 1.42, -33.7840511, 151.0681964, 1.49, 96.79, 0.38, 281.88
CTUN, 563, 0.00, 1.87, 0.000000, 0.00, 0, -1, 563, 0
ATT, -1.86, -0.37, 0.00, -0.21, 0.00, 49.64, 55.25
CTUN, 562, 0.00, 1.89, 0.000000, 0.00, 0, 0, 562, 0
ATT, -3.38, -0.83, 0.00, -0.14, 0.00, 49.82, 55.25
GPS, 3, 111070800, 12, 1.29, -33.7840512, 151.0681955, 1.53, 96.77, 0.46, 266.43
CTUN, 562, 0.00, 1.91, 0.000000, 0.00, 0, 0, 563, 0
ATT, -4.19, -2.32, 0.00, -0.20, 0.00, 50.03, 55.25
CTUN, 563, 0.00, 1.87, 0.000000, 0.00, 0, 0, 563, 0
ATT, -4.77, -3.14, 0.00, -0.40, 0.00, 50.12, 55.25
GPS, 3, 111071000, 12, 1.29, -33.7840513, 151.0681947, 1.57, 96.80, 0.41, 263.06
CTUN, 562, 0.00, 1.95, 0.000000, 0.00, 0, 0, 563, 0
ATT, -4.77, -3.67, 0.00, -0.51, 0.00, 50.16, 55.25
CTUN, 563, 0.00, 1.91, 0.000000, 0.00, 0, 1, 563, 0
GPS, 3, 111071200, 12, 1.29, -33.7840513, 151.0681936, 1.61, 96.81, 0.54, 260.60
ATT, -4.43, -3.98, 0.00, -0.62, 0.00, 50.21, 55.25
CTUN, 563, 0.00, 1.89, 0.000000, 0.00, 1, 2, 564, 0
DU32, 7, 82041
CURR, 563, 46258, 1102, 0, 4487, 0.000000
ATT, -4.77, -4.13, 0.00, -0.41, 0.00, 50.23, 55.25
CTUN, 563, 0.00, 1.90, 0.000000, 0.00, 1, 3, 564, 0
GPS, 3, 111071400, 12, 1.29, -33.7840510, 151.0681923, 1.65, 96.82, 0.59, 266.43
ATT, -4.77, -4.28, -1.20, -0.44, 0.00, 50.25, 55.25
CTUN, 563, 0.00, 1.99, 0.000000, 0.00, 1, 3, 564, 0
ATT, -3.26, -4.55, -2.65, -1.30, 0.00, 50.30, 55.25
CTUN, 563, 0.00, 2.07, 0.000000, 0.00, 1, 3, 564, 0
GPS, 3, 111071600, 12, 1.29, -33.7840506, 151.0681910, 1.70, 96.82, 0.68, 274.30
CTUN, 563, 0.00, 1.93, 0.000000, 0.00, 1, 4, 564, 0
ATT, -2.68, -3.73, -3.49, -2.57, 0.00, 50.25, 55.25
CTUN, 562, 0.00, 1.95, 0.000000, 0.00, 1, 3, 564, 0
ATT, -3.14, -3.10, -3.37, -3.38, 0.00, 50.14, 55.25
GPS, 3, 111071800, 12, 1.29, -33.7840502, 151.0681891, 1.74, 96.83, 0.85, 276.30
CTUN, 563, 0.00, 1.95, 0.000000, 0.00, 1, 4, 564, 0
ATT, -1.86, -2.52, -4.70, -3.61, 0.00, 49.96, 55.25
CTUN, 563, 0.00, 2.12, 0.000000, 0.00, 1, 4, 564, 0
ATT, 0.00, -1.46, -6.87, -4.37, 0.00, 49.79, 55.25
GPS, 3, 111072000, 12, 1.29, -33.7840494, 151.0681873, 1.78, 96.83, 0.90, 281.76
CTUN, 563, 0.00, 2.03, 0.000000, 0.00, 1, 4, 564, 0
ATT, 0.00, -0.07, -7.11, -5.94, 0.00, 49.58, 55.25
CTUN, 563, 0.00, 2.16, 0.000000, 0.00, 2, 6, 565, 0
GPS, 3, 111072200, 11, 1.35, -33.7840485, 151.0681857, 1.82, 96.81, 0.83, 286.91
ATT, 0.00, 0.67, -7.35, -6.94, 0.00, 49.40, 55.25
CTUN, 563, 0.00, 2.00, 0.000000, 0.00, 3, 5, 565, 0
DU32, 7, 82041
CURR, 563, 51337, 1102, 0, 4469, 0.000000
ATT, 0.00, 1.17, -7.96, -7.37, 0.00, 49.26, 55.25
CTUN, 563, 0.00, 1.99, 0.000000, 0.00, 3, 7, 566, 0
GPS, 3, 111072400, 11, 1.35, -33.7840476, 151.0681844, 1.86, 96.79, 0.75, 291.40
ATT, 0.00, 1.55, -7.96, -7.36, 0.00, 49.05, 55.25
CTUN, 562, 0.00, 2.08, 0.000000, 0.00, 3, 7, 565, 0
ATT, 0.00, 1.89, -7.72, -7.04, 0.00, 48.89, 55.25
CTUN, 563, 0.00, 2.11, 0.000000, 0.00, 3, 8, 566, 0
GPS, 3, 111072600, 11, 1.35, -33.7840468, 151.0681834, 1.90, 96.84, 0.64, 295.35
CTUN, 562, 0.00, 2.12, 0.000000, 0.00, 3, 9, 566, 0
ATT, 0.00, 1.62, -8.08, -6.63, 0.00, 48.75, 55.25
CTUN, 563, 0.00, 2.15, 0.000000, 0.00, 3, 10, 566, 0
ATT, 0.00, 1.52, -7.84, -6.47, 0.00, 48.73, 55.25
GPS, 3, 111072800, 11, 1.35, -33.7840461, 151.0681827, 1.94, 96.79, 0.53, 302.93
CTUN, 563, 0.00, 2.14, 0.000000, 0.00, 2, 12, 565, 0
ATT, 0.00, 1.11, -6.51, -6.19, 0.00, 48.82, 55.25
CTUN, 563, 0.00, 2.06, 0.000000, 0.00, 2, 13, 565, 0
ATT, 0.00, 0.76, -4.94, -5.48, 0.00, 48.96, 55.25
GPS, 3, 111073000, 11, 1.35, -33.7840452, 151.0681824, 1.99, 96.80, 0.40, 313.27
CTUN, 563, 0.00, 2.10, 0.000000, 0.00, 1, 13, 564, 0
ATT, 0.00, 0.59, 0.00, -4.09, 0.00, 49.09, 55.25
CTUN, 563, 0.00, 2.22, 0.000000, 0.00, 0, 14, 563, 0
ATT, 0.00, 0.37, 0.00, -1.36, 0.00, 49.22, 55.25
GPS, 3, 111073200, 11, 1.35, -33.7840443, 151.0681825, 2.04, 96.85, 0.35, 330.03
CTUN, 563, 0.00, 2.21, 0.000000, 0.00, 0, 16, 563, 0
ATT, 0.00, 0.56, 0.00, 0.32, 0.00, 49.28, 55.25
DU32, 7, 82041
CURR, 563, 56419, 1102, 0, 4505, 0.000000
CTUN, 563, 0.00, 2.16, 0.000000, 0.00, 0, 16, 563, 0
GPS, 3, 111073400, 11, 1.35, -33.7840434, 151.0681824, 2.09, 96.86, 0.33, 351.59
ATT, 0.00, 0.19, 0.00, 0.77, 0.00, 49.33, 55.25
CTUN, 563, 0.00, 2.17, 0.000000, 0.00, 0, 17, 563, 0
ATT, 0.00, 0.02, 0.00, 1.05, 0.00, 49.35, 55.25
CTUN, 563, 0.00, 2.17, 0.000000, 0.00, 0, 18, 563, 0
GPS, 3, 111073600, 11, 1.35, -33.7840427, 151.0681822, 2.13, 96.92, 0.24, 348.27
ATT, 0.00, -0.03, 0.00, 1.06, 0.00, 49.32, 55.25
CTUN, 563, 0.00, 2.18, 0.000000, 0.00, 0, 17, 563, 0
ATT, 0.00, -0.18, 0.00, 0.84, 0.00, 49.31, 55.25
CTUN, 537, 0.00, 2.25, 0.000000, 0.00, 0, 19, 559, 0
GPS, 3, 111073800, 12, 1.29, -33.7840419, 151.0681816, 2.18, 97.05, 0.28, 331.85
CTUN, 532, 0.00, 2.27, 0.000000, 0.00, 0, 19, 532, 0
ATT, 0.00, -0.18, -1.80, 0.41, 0.00, 49.35, 55.25
CTUN, 532, 0.00, 2.32, 0.000000, 0.00, 0, 12, 532, 0
ATT, 0.00, -0.17, -5.79, -0.87, 0.00, 49.45, 55.25
GPS, 3, 111074000, 12, 1.29, -33.7840415, 151.0681810, 2.22, 97.07, 0.24, 314.22
PM, 0, 0, 50, 2, 1000, 13164, 0, 4
CTUN, 475, 0.00, 2.37, 0.000000, 0.00, 0, 6, 526, 0
ATT, 0.68, -0.20, -6.51, -3.81, 0.00, 49.60, 55.25
CTUN, 451, 0.00, 2.23, 0.000000, 0.00, 1, -2, 452, 0
ATT, 0.00, -0.27, -5.54, -5.68, 0.00, 49.65, 55.25
GPS, 3, 111074200, 12, 1.29, -33.7840411, 151.0681800, 2.22, 97.13, 0.40, 293.65
CTUN, 451, 0.00, 2.28, 0.000000, 0.00, 1, -15, 452, 0
ATT, 0.00, 0.09, -5.42, -5.91, 0.00, 49.91, 55.25
CTUN, 451, 0.00, 2.39, 0.000000, 0.00, 1, -36, 452, 0
DU32, 7, 82041
CURR, 451, 61621, 1102, 0, 4487, 0.000000
ATT, 0.00, 0.51, -2.65, -5.56, 0.00, 50.28, 55.25
GPS, 3, 111074400, 12, 1.29, -33.7840408, 151.0681793, 2.17, 97.14, 0.33, 290.08
CTUN, 451, 0.00, 2.28, 0.000000, 0.00, 1, -54, 452, 0
ATT, 1.95, -0.02, -0.36, -4.53, 0.00, 50.66, 55.25
CTUN, 502, 0.00, 2.19, 0.000000, 0.00, 1, -75, 498, 0
GPS, 3, 111074600, 12, 1.29, -33.7840403, 151.0681792, 2.04, 97.03, 0.28, 303.58
ATT, 2.06, 0.88, 0.00, -2.66, 0.00, 51.07, 55.25
CTUN, 548, 0.00, 2.07, 0.000000, 0.00, 0, -87, 540, 0
ATT, 0.34, 1.79, -0.84, -1.55, 0.00, 51.18, 55.25
CTUN, 569, 0.00, 2.12, 0.000000, 0.00, 0, -94, 569, 0
GPS, 3, 111074800, 12, 1.29, -33.7840401, 151.0681793, 1.89, 96.87, 0.10, 303.58
CTUN, 585, 0.00, 1.87, 0.000000, 0.00, 0, -95, 580, 0
ATT, 1.83, 1.56, -2.53, -1.80, 0.00, 51.15, 55.25
CTUN, 612, 0.00, 1.81, 0.000000, 0.00, 0, -91, 611, 0
ATT, 2.06, 2.04, -5.06, -3.18, 0.00, 51.06, 55.25
GPS, 3, 111075000, 12, 1.29, -33.7840397, 151.0681787, 1.71, 96.73, 0.28, 301.94
CTUN, 626, 0.00, 1.77, 0.000000, 0.00, 1, -82, 627, 0
ATT, 0.00, 2.35, -5.79, -5.01, 0.00, 50.86, 55.25
CTUN, 624, 0.00, 1.74, 0.000000, 0.00, 2, -70, 627, 0
ATT, 0.00, 1.56, -6.27, -5.71, 0.00, 50.75, 55.25
GPS, 3, 111075200, 12, 1.29, -33.7840396, 151.0681784, 1.56, 96.60, 0.12, 301.94
CTUN, 626, 0.00, 1.58, 0.000000, 0.00, 2, -58, 629, 0
ATT, 0.00, 1.73, -6.27, -5.83, 0.00, 50.51, 55.25
CTUN, 625, 0.00, 1.56, 0.000000, 0.00, 2, -43, 629, 0
DU32, 7, 82041
CURR, 627, 66804, 1102, 0, 4505, 0.000000
GPS, 3, 111075400, 12, 1.29, -33.7840396, 151.0681784, 1.48, 96.51, 0.11, 301.94
ATT, 0.00, 1.48, -7.11, -5.69, 0.00, 50.22, 55.25
CTUN, 611, 0.00, 1.52, 0.000000, 0.00, 2, -30, 620, 0
ATT, 0.00, 1.11, -7.11, -5.60, 0.00, 49.86, 55.25
CTUN, 609, 0.00, 1.49, 0.000000, 0.00, 2, -17, 611, 0
GPS, 3, 111075600, 12, 1.29, -33.7840397, 151.0681790, 1.44, 96.46, 0.33, 41.08
ATT, 0.00, 0.99, -6.27, -5.48, 0.00, 49.35, 55.25
CTUN, 607, 0.00, 1.51, 0.000000, 0.00, 2, -6, 611, 0
ATT, 0.00, 0.83, -5.79, -5.23, 0.00, 48.90, 55.25
CTUN, 607, 0.00, 1.42, 0.000000, 0.00, 2, 4, 609, 0
GPS, 3, 111075800, 12, 1.29, -33.7840397, 151.0681796, 1.46, 96.49, 0.28, 79.44
CTUN, 574, 0.00, 1.45, 0.000000, 0.00, 1, 14, 595, 0
ATT, 0.00, 0.29, -5.30, -4.66, 0.00, 48.30, 55.25
CTUN, 551, 0.00, 1.48, 0.000000, 0.00, 1, 23, 552, 0
ATT, 0.00, 0.06, -5.06, -3.99, 0.00, 47.74, 55.25
GPS, 3, 111076000, 12, 1.29, -33.7840399, 151.0681808, 1.50, 96.44, 0.53, 101.92
CTUN, 551, 0.00, 1.41, 0.000000, 0.00, 0, 25, 551, 0
ATT, 0.00, -0.11, -2.65, -3.10, 0.00, 47.29, 55.25
CTUN, 548, 0.00, 1.45, 0.000000, 0.00, 0, 25, 548, 0
ATT, 0.00, -0.73, -0.48, -1.91, 0.00, 47.10, 55.25
GPS, 3, 111076200, 12, 1.29, -33.7840401, 151.0681818, 1.54, 96.46, 0.54, 110.71
CTUN, 548, 0.00, 1.49, 0.000000, 0.00, 0, 24, 548, 0
ATT, 0.00, -1.20, 0.00, -0.41, 0.00, 47.05, 55.25
CTUN, 547, 0.00, 1.51, 0.000000, 0.00, 0, 22, 546, 0
ATT, 0.00, -1.25, 0.00, 0.61, 0.00, 47.17, 55.25
GPS, 3, 111076400, 12, 1.29, -33.7840402, 151.0681828, 1.58, 96.54, 0.51, 110.72
CTUN, 546, 0.00, 1.60, 0.000000, 0.00, 0, 20, 546, 0
DU32, 7, 82041
CURR, 546, 72549, 1102, 0, 4523, 0.000000
ATT, 0.00, -1.52, -0.96, 0.83, 0.00, 47.46, 55.25
CTUN, 546, 0.00, 1.45, 0.000000, 0.00, 0, 16, 546, 0
ATT, 0.00, -1.92, -1.20, 0.02, 0.00, 47.86, 55.25
GPS, 3, 111076600, 12, 1.29, -33.7840402, 151.0681835, 1.60, 96.63, 0.42, 110.17
CTUN, 546, 0.00, 1.53, 0.000000, 0.00, 0, 12, 547, 0
ATT, 0.00, -2.20, -2.17, -0.96, 0.00, 48.41, 55.25
CTUN, 546, 0.00, 1.64, 0.000000, 0.00, 0, 8, 546, 0
ATT, 0.00, -1.41, -3.37, -1.59, 0.00, 48.83, 55.25
GPS, 3, 111076800, 12, 1.29, -33.7840404, 151.0681839, 1.62, 96.64, 0.29, 114.49
CTUN, 546, 0.00, 1.55, 0.000000, 0.00, 0, 5, 546, 0
ATT, 0.00, -1.09, -3.37, -2.54, 0.00, 49.19, 55.25
CTUN, 546, 0.00, 1.72, 0.000000, 0.00, 0, 0, 546, 0
ATT, 0.00, -1.07, -3.49, -3.28, 0.00, 49.46, 55.25
GPS, 3, 111077000, 12, 1.29, -33.7840404, 151.0681842, 1.62, 96.64, 0.20, 114.49
CTUN, 546, 0.00, 1.51, 0.000000, 0.00, 0, -2, 546, 0
ATT, 0.00, -0.76, -3.49, -3.47, 0.00, 49.59, 55.25
CTUN, 546, 0.00, 1.64, 0.000000, 0.00, 0, -6, 546, 0
GPS, 3, 111077200, 12, 1.29, -33.7840404, 151.0681847, 1.60, 96.66, 0.23, 114.49
ATT, 0.00, -0.43, -3.49, -3.49, 0.00, 49.63, 55.25
CTUN, 546, 0.00, 1.60, 0.000000, 0.00, 0, -9, 546, 0
ATT, 0.00, -0.43, -2.17, -3.68, 0.00, 49.67, 55.25
CTUN, 546, 0.00, 1.64, 0.000000, 0.00, 0, -12, 546, 0
GPS, 3, 111077400, 12, 1.29, -33.7840404, 151.0681851, 1.58, 96.65, 0.19, 114.49
CTUN, 548, 0.00, 1.61, 0.000000, 0.00, 0, -17, 547, 0
ATT, 0.00, -0.72, -1.93, -3.22, 0.00, 49.75, 55.25
DU32, 7, 82041
CURR, 548, 77464, 1102, 0, 4487, 0.000000
CTUN, 548, 0.00, 1.46, 0.000000, 0.00, 0, -19, 548, 0
ATT, 0.00, -0.48, -1.32, -2.58, 0.00, 49.78, 55.25
GPS, 3, 111077600, 12, 1.29, -33.7840403, 151.0681854, 1.54, 96.63, 0.14, 114.49
CTUN, 548, 0.00, 1.66, 0.000000, 0.00, 0, -22, 546, 0
ATT, 0.00, -0.35, -1.32, -1.93, 0.00, 49.81, 55.25
CTUN, 548, 0.00, 1.44, 0.000000, 0.00, 0, -26, 548, 0
ATT, 0.00, -0.24, -1.93, -1.77, 0.00, 49.84, 55.25
GPS, 3, 111077800, 12, 1.29, -33.7840403, 151.0681858, 1.49, 96.60, 0.15, 114.49
CTUN, 547, 0.00, 1.51, 0.000000, 0.00, 0, -28, 547, 0
ATT, 0.00, 0.13, -1.68, -1.69, 0.00, 49.88, 55.25
CTUN, 548, 0.00, 1.42, 0.000000, 0.00, 0, -34, 548, 0
ATT, 0.00, 0.23, -1.20, -1.86, 0.00, 49.98, 55.25
GPS, 3, 111078000, 12, 1.29, -33.7840403, 151.0681860, 1.42, 96.59, 0.10, 114.49
CTUN, 548, 0.00, 1.45, 0.000000, 0.00, 0, -36, 548, 0
ATT, 0.00, 0.26, -0.96, -1.82, 0.00, 50.15, 55.25
CTUN, 548, 0.00, 1.34, 0.000000, 0.00, 0, -40, 548, 0
ATT, 0.00, 0.48, -0.36, -1.62, 0.00, 50.24, 55.25
GPS, 3, 111078200, 12, 1.29, -33.7840403, 151.0681862, 1.33, 96.53, 0.10, 114.49
CTUN, 548, 0.00, 1.33, 0.000000, 0.00, 0, -44, 549, 0
ATT, 0.00, 0.33, 0.00, -1.40, 0.00, 50.35, 55.25
CTUN, 552, 0.00, 1.18, 0.000000, 0.00, 0, -47, 548, 0
GPS, 3, 111078400, 12, 1.29, -33.7840403, 151.0681864, 1.25, 96.49, 0.13, 114.49
ATT, 0.00, 0.53, 0.00, -1.21, 0.00, 50.44, 55.25
CTUN, 563, 0.00, 1.32, 0.000000, 0.00, 0, -51, 563, 0
DU32, 7, 82041
CURR, 563, 82399, 1102, 0, 4505, 0.000000
ATT, 0.00, 0.54, 0.00, -1.02, 0.00, 50.49, 55.25
CTUN, 578, 0.00, 1.18, 0.000000, 0.00, 0, -54, 572, 0
GPS, 3, 111078600, 12, 1.29, -33.7840403, 151.0681864, 1.14, 96.44, 0.08, 114.49
ATT, 0.00, 0.41, 0.00, -1.07, 0.00, 50.46, 55.25
CTUN, 589, 0.00, 1.13, 0.000000, 0.00, 0, -54, 584, 0
ATT, 0.00, 0.32, 0.00, -0.89, 0.00, 50.25, 55.25
CTUN, 601, 0.00, 1.09, 0.000000, 0.00, 0, -51, 601, 0
GPS, 3, 111078800, 12, 1.29, -33.7840404, 151.0681865, 1.04, 96.38, 0.11, 114.49
CTUN, 601, 0.00, 1.09, 0.000000, 0.00, 0, -45, 601, 0
ATT, 0.00, 0.37, 0.00, -0.78, 0.00, 49.80, 55.25
CTUN, 599, 0.00, 1.04, 0.000000, 0.00, 0, -38, 601, 0
ATT, 0.00, 0.48, 0.00, -0.60, 0.00, 49.27, 55.25
GPS, 3, 111079000, 12, 1.29, -33.7840407, 151.0681865, 0.97, 96.29, 0.15, 114.49
CTUN, 599, 0.00, 1.02, 0.000000, 0.00, 0, -31, 600, 0
ATT, 0.00, 0.58, 0.00, -0.23, 0.00, 48.48, 55.25
CTUN, 600, 0.00, 1.07, 0.000000, 0.00, 0, -25, 600, 0
ATT, 0.00, 0.67, 0.00, -0.28, 0.00, 47.66, 55.25
GPS, 3, 111079200, 12, 1.29, -33.7840412, 151.0681865, 0.92, 96.22, 0.34, 146.51
CTUN, 601, 0.00, 1.04, 0.000000, 0.00, 0, -17, 601, 0
ATT, 0.00, 0.59, 0.00, -0.43, 0.00, 46.90, 55.25
CTUN, 601, 0.00, 0.88, 0.000000, 0.00, 0, -11, 600, 0
GPS, 3, 111079400, 11, 1.37, -33.7840415, 151.0681865, 0.91, 96.14, 0.25, 146.51
ATT, 0.00, 0.81, 0.00, -0.28, 0.00, 46.19, 55.25
CTUN, 599, 0.00, 0.89, 0.000000, 0.00, 0, -6, 601, 0
DU32, 7, 82041
CURR, 599, 87732, 1102, 0, 4452, 0.000000
ATT, 0.00, 0.76, 0.00, -0.60, 0.00, 45.75, 55.25
CTUN, 601, 0.00, 0.85, 0.000000, 0.00, 0, 0, 601, 0
GPS, 3, 111079600, 11, 1.37, -33.7840423, 151.0681863, 0.90, 96.06, 0.47, 171.33
ATT, 0.00, 0.36, -2.65, -0.96, 0.00, 45.47, 55.25
CTUN, 602, 0.00, 0.84, 0.000000, 0.00, 0, 7, 601, 0
ATT, 0.00, 0.78, -5.54, -1.88, 0.00, 45.49, 55.25
CTUN, 601, 0.00, 0.81, 0.000000, 0.00, 0, 11, 601, 0
GPS, 3, 111079800, 11, 1.37, -33.7840430, 151.0681860, 0.91, 96.04, 0.49, 186.76
ATT, 0.00, 0.89, -7.72, -3.56, 0.00, 45.76, 55.25
CTUN, 600, 0.00, 0.86, 0.000000, 0.00, 0, 15, 601, 0
ATT, 0.00, 0.83, -8.20, -5.72, 0.00, 46.23, 55.25
CTUN, 601, 0.00, 0.75, 0.000000, 0.00, 2, 20, 603, 0
GPS, 3, 111080000, 11, 1.37, -33.7840438, 151.0681859, 0.94, 96.01, 0.47, 187.46
CTUN, 599, 0.00, 0.84, 0.000000, 0.00, 3, 25, 603, 0
ATT, 0.00, 0.77, -8.08, -7.20, 0.00, 46.87, 55.25
CTUN, 587, 0.00, 0.81, 0.000000, 0.00, 3, 30, 590, 0
ATT, 0.00, 0.77, -5.91, -7.39, 0.00, 47.32, 55.25
GPS, 3, 111080200, 11, 1.37, -33.7840445, 151.0681856, 0.98, 96.01, 0.50, 192.58
CTUN, 587, 0.00, 0.85, 0.000000, 0.00, 3, 33, 590, 0
ATT, 0.00, 0.50, -2.05, -6.16, 0.00, 47.83, 55.25
CTUN, 586, 0.00, 0.82, 0.000000, 0.00, 2, 35, 588, 0
ATT, 0.00, 0.04, 0.00, -3.74, 0.00, 48.32, 55.25
GPS, 3, 111080400, 11, 1.37, -33.7840449, 151.0681860, 1.03, 96.04, 0.35, 180.25
CTUN, 589, 0.00, 0.87, 0.000000, 0.00, 0, 39, 586, 0
DU32, 7, 82041
CURR, 588, 93707, 1102, 0, 4523, 0.000000
ATT, 0.00, -0.28, 0.00, -1.33, 0.00, 48.73, 55.25
CTUN, 588, 0.00, 0.88, 0.000000, 0.00, 0, 40, 588, 0
GPS, 3, 111080600, 11, 1.37, -33.7840455, 151.0681864, 1.09, 96.09, 0.44, 163.92
ATT, 0.00, -0.64, 0.00, -0.22, 0.00, 49.01, 55.25
CTUN, 588, 0.00, 1.05, 0.000000, 0.00, 0, 43, 587, 0
ATT, -2.79, -0.95, -3.13, 0.10, 0.00, 49.13, 55.25
CTUN, 587, 0.00, 0.89, 0.000000, 0.00, 0, 44, 588, 0
GPS, 3, 111080800, 11, 1.37, -33.7840461, 151.0681870, 1.16, 96.20, 0.50, 155.38
ATT, -3.73, -2.01, -4.10, -1.01, 0.00, 49.11, 55.25
CTUN, 586, 0.00, 1.02, 0.000000, 0.00, 0, 48, 586, 0
ATT, -3.49, -3.68, -4.10, -2.64, 0.00, 49.10, 55.25
CTUN, 589, 0.00, 0.98, 0.000000, 0.00, 1, 50, 590, 0
GPS, 3, 111081000, 12, 1.25, -33.7840467, 151.0681870, 1.23, 96.28, 0.30, 158.92
CTUN, 589, 0.00, 1.12, 0.000000, 0.00, 1, 53, 590, 0
ATT, -3.84, -3.57, -4.46, -3.01, 0.00, 48.86, 55.25
CTUN, 574, 0.00, 1.04, 0.000000, 0.00, 1, 54, 577, 0
ATT, -3.84, -3.17, -4.58, -3.10, 0.00, 48.68, 55.25
GPS, 3, 111081200, 11, 1.37, -33.7840473, 151.0681874, 1.32, 96.36, 0.42, 158.26
CTUN, 480, 0.00, 1.23, 0.000000, 0.00, 1, 55, 529, 0
ATT, -3.84, -3.40, -4.46, -3.64, 0.00, 48.64, 55.25
CTUN, 476, 0.00, 1.25, 0.000000, 0.00, 1, 49, 477, 0
ATT, -3.49, -3.23, -4.58, -3.99, 0.00, 48.61, 55.25
GPS, 3, 111081400, 11, 1.37, -33.7840476, 151.0681875, 1.40, 96.49, 0.24, 158.26
CTUN, 478, 0.00, 1.41, 0.000000, 0.00, 1, 33, 479, 0
DU32, 7, 82041
CURR, 475, 98752, 1102, 0, 4487, 0.000000
ATT, -4.77, -2.80, -5.67, -4.07, 0.00, 49.03, 55.25
CTUN, 475, 0.00, 1.23, 0.000000, 0.00, 1, 14, 476, 0
GPS, 3, 111081600, 12, 1.29, -33.7840476, 151.0681874, 1.43, 96.56, 0.08, 158.26
ATT, -4.08, -3.18, -6.03, -4.41, 0.00, 49.81, 55.25
CTUN, 479, 0.00, 1.39, 0.000000, 0.00, 1, -1, 476, 0
ATT, -3.96, -3.71, -5.30, -5.34, 0.00, 50.59, 55.25
CTUN, 533, 0.00, 1.41, 0.000000, 0.00, 2, -19, 529, 0
GPS, 3, 111081800, 13, 1.22, -33.7840475, 151.0681875, 1.40, 96.49, 0.04, 158.26
ATT, -4.31, -3.93, -4.94, -5.45, 0.00, 51.54, 55.25
CTUN, 537, 0.00, 1.35, 0.000000, 0.00, 2, -28, 539, 0
ATT, -4.31, -3.65, -4.46, -4.90, 0.00, 52.06, 55.25
CTUN, 539, 0.00, 1.31, 0.000000, 0.00, 2, -35, 541, 0
GPS, 3, 111082000, 13, 1.22, -33.7840473, 151.0681874, 1.33, 96.45, 0.12, 158.26
CTUN, 539, 0.00, 1.21, 0.000000, 0.00, 2, -39, 540, 0
ATT, -4.19, -3.79, -4.46, -4.39, 0.00, 52.55, 55.25
CTUN, 540, 0.00, 1.19, 0.000000, 0.00, 2, -45, 541, 0
ATT, -3.73, -3.61, -4.58, -4.16, 0.00, 52.92, 55.25
GPS, 3, 111082200, 13, 1.22, -33.7840468, 151.0681873, 1.23, 96.36, 0.25, 158.26
CTUN, 557, 0.00, 1.07, 0.000000, 0.00, 1, -49, 558, 0
ATT, -1.28, -3.08, -3.73, -3.85, 0.00, 53.28, 55.25
CTUN, 574, 0.00, 1.10, 0.000000, 0.00, 1, -53, 570, 0
ATT, 0.00, -1.91, -2.89, -3.19, 0.00, 53.42, 55.25
GPS, 3, 111082400, 12, 1.29, -33.7840461, 151.0681872, 1.12, 96.30, 0.35, 97.77
CTUN, 586, 0.00, 1.00, 0.000000, 0.00, 0, -53, 586, 0
DU32, 7, 82041
CURR, 591, 103568, 1102, 0, 4469, 0.000000
ATT, 0.00, -0.34, 0.00, -1.99, 0.00, 53.30, 55.25
CTUN, 604, 0.00, 0.97, 0.000000, 0.00, 0, -49, 604, 0
GPS, 3, 111082600, 12, 1.29, -33.7840453, 151.0681873, 1.01, 96.16, 0.40, 48.11
ATT, 0.00, 0.32, 0.00, -0.21, 0.00, 52.95, 55.25
CTUN, 619, 0.00, 0.82, 0.000000, 0.00, 0, -45, 614, 0
ATT, 0.00, 0.49, 0.00, 0.45, 0.00, 52.42, 55.25
CTUN, 617, 0.00, 0.82, 0.000000, 0.00, 0, -35, 618, 0
GPS, 3, 111082800, 12, 1.29, -33.7840444, 151.0681871, 0.92, 96.09, 0.44, 19.50
ATT, 0.00, 0.36, -1.08, 0.51, 0.00, 51.67, 55.25
CTUN, 618, 0.00, 0.82, 0.000000, 0.00, 0, -26, 618, 0
ATT, 0.00, 0.26, -2.65, 0.12, 0.00, 51.08, 55.25
CTUN, 619, 0.00, 0.82, 0.000000, 0.00, 0, -15, 618, 0
GPS, 3, 111083000, 12, 1.29, -33.7840440, 151.0681868, 0.87, 95.95, 0.27, 19.50
CTUN, 617, 0.00, 0.73, 0.000000, 0.00, 0, -5, 617, 0
ATT, 0.00, 0.06, -3.61, -1.46, 0.00, 50.49, 55.25
CTUN, 618, 0.00, 0.74, 0.000000, 0.00, 0, 3, 618, 0
ATT, 0.00, -0.03, -4.22, -2.96, 0.00, 50.15, 55.25
GPS, 3, 111083200, 12, 1.29, -33.7840435, 151.0681865, 0.86, 95.87, 0.27, 19.50
CTUN, 618, 0.00, 0.70, 0.000000, 0.00, 0, 14, 618, 0
ATT, 0.00, 0.32, -7.35, -4.31, 0.00, 49.83, 55.25
CTUN, 617, 0.00, 0.67, 0.000000, 0.00, 1, 23, 619, 0
ATT, 0.00, 0.12, -6.39, -6.07, 0.00, 49.69, 55.25
GPS, 3, 111083400, 12, 1.29, -33.7840431, 151.0681862, 0.88, 95.89, 0.16, 19.50
CTUN, 617, 0.00, 0.79, 0.000000, 0.00, 3, 31, 620, 0
DU32, 7, 82041
CURR, 617, 109116, 1102, 0, 4469, 0.000000
ATT, 0.00, 0.15, -5.42, -6.84, 0.00, 49.71, 55.25
CTUN, 606, 0.00, 0.78, 0.000000, 0.00, 3, 39, 609, 0
GPS, 3, 111083600, 12, 1.29, -33.7840427, 151.0681859, 0.94, 96.00, 0.15, 19.50
ATT, 0.00, 0.54, -5.42, -6.37, 0.00, 49.77, 55.25
CTUN, 606, 0.00, 0.80, 0.000000, 0.00, 2, 47, 608, 0
ATT, 0.00, 0.68, -5.18, -5.97, 0.00, 49.80, 55.25
CTUN, 606, 0.00, 0.83, 0.000000, 0.00, 2, 52, 608, 0
GPS, 3, 111083800, 12, 1.29, -33.7840418, 151.0681862, 1.02, 96.17, 0.29, 19.50
ATT, 0.00, 0.35, -4.94, -5.61, 0.00, 49.90, 55.25
CTUN, 606, 0.00, 0.82, 0.000000, 0.00, 2, 57, 608, 0
ATT, 0.00, 0.08, -4.46, -5.19, 0.00, 50.03, 55.25
CTUN, 563, 0.00, 0.88, 0.000000, 0.00, 1, 62, 585, 0
GPS, 3, 111084000, 12, 1.29, -33.7840414, 151.0681861, 1.12, 96.34, 0.23, 19.50
PM, 0, 0, 50, 0, 1002, 10428, 0, 4
CTUN, 549, 0.00, 0.98, 0.000000, 0.00, 1, 64, 548, 0
ATT, 0.00, -0.04, -4.34, -4.65, 0.00, 50.20, 55.25
CTUN, 549, 0.00, 1.03, 0.000000, 0.00, 1, 58, 550, 0
ATT, 0.00, 0.17, -3.73, -4.04, 0.00, 50.48, 55.25
GPS, 3, 111084200, 12, 1.29, -33.7840409, 151.0681868, 1.22, 96.45, 0.39, 19.50
CTUN, 548, 0.00, 1.18, 0.000000, 0.00, 0, 52, 548, 0
ATT, 0.00, 0.28, -2.05, -3.38, 0.00, 50.97, 55.25
CTUN, 547, 0.00, 1.23, 0.000000, 0.00, 0, 44, 548, 0
ATT, 0.00, 0.25, -0.84, -2.56, 0.00, 51.46, 55.25
GPS, 3, 111084400, 12, 1.29, -33.7840402, 151.0681874, 1.30, 96.58, 0.43, 29.51
CTUN, 548, 0.00, 1.32, 0.000000, 0.00, 0, 37, 548, 0
DU32, 7, 82041
CURR, 549, 114298, 1102, 0, 4487, 0.000000
ATT, 0.00, 0.23, 0.00, -1.36, 0.00, 51.85, 55.25
CTUN, 548, 0.00, 1.26, 0.000000, 0.00, 0, 32, 548, 0
GPS, 3, 111084600, 12, 1.29, -33.7840397, 151.0681878, 1.37, 96.68, 0.31, 29.31
ATT, 0.00, 0.03, 0.00, -0.39, 0.00, 52.18, 55.25
CTUN, 559, 0.00, 1.14, 0.000000, 0.00, 0, 25, 559, 0
ATT, 0.00, 0.04, 0.00, -0.21, 0.00, 52.29, 55.25
CTUN, 559, 0.00, 1.39, 0.000000, 0.00, 0, 18, 559, 0
GPS, 3, 111084800, 11, 1.37, -33.7840393, 151.0681888, 1.39, 96.70, 0.50, 52.20
ATT, 0.00, 0.09, 0.00, -0.28, 0.00, 52.39, 55.25
CTUN, 560, 0.00, 1.28, 0.000000, 0.00, 0, 15, 560, 0
ATT, 0.00, 0.16, -0.48, -0.47, 0.00, 52.41, 55.25
CTUN, 563, 0.00, 1.28, 0.000000, 0.00, 0, 14, 563, 0
GPS, 3, 111085000, 12, 1.29, -33.7840389, 151.0681890, 1.41, 96.77, 0.19, 52.20
CTUN, 568, 0.00, 1.21, 0.000000, 0.00, 0, 12, 568, 0
ATT, 0.00, 0.21, -1.44, -0.93, 0.00, 52.33, 55.25
CTUN, 568, 0.00, 1.30, 0.000000, 0.00, 0, 12, 568, 0
ATT, 0.00, 0.10, -1.44, -1.35, 0.00, 52.13, 55.25
GPS, 3, 111085200, 12, 1.29, -33.7840387, 151.0681893, 1.41, 96.77, 0.16, 52.20
CTUN, 570, 0.00, 1.38, 0.000000, 0.00, 0, 10, 568, 0
ATT, 0.00, 0.19, -1.80, -1.66, 0.00, 51.89, 55.25
CTUN, 568, 0.00, 1.29, 0.000000, 0.00, 0, 8, 569, 0
ATT, 0.00, 0.29, -1.80, -2.10, 0.00, 51.72, 55.25
GPS, 3, 111085400, 12, 1.29, -33.7840385, 151.0681896, 1.42, 96.78, 0.16, 52.20
CTUN, 569, 0.00, 1.32, 0.000000, 0.00, 0, 8, 569, 0
ATT, 0.00, 0.26, -0.96, -2.14, 0.00, 51.67, 55.25
DU32, 7, 82041
CURR, 569, 119361, 1102, 0, 4505, 0.000000
CTUN, 569, 0.00, 1.32, 0.000000, 0.00, 0, 5, 569, 0
ATT, 0.00, 0.14, -0.24, -1.96, 0.00, 51.71, 55.25
GPS, 3, 111085600, 12, 1.29, -33.7840384, 151.0681898, 1.42, 96.78, 0.12, 52.20
CTUN, 569, 0.00, 1.37, 0.000000, 0.00, 0, 3, 569, 0
ATT, 0.00, 0.12, 0.00, -1.51, 0.00, 51.76, 55.25
CTUN, 569, 0.00, 1.40, 0.000000, 0.00, 0, 3, 569, 0
GPS, 3, 111085800, 12, 1.29, -33.7840383, 151.0681901, 1.42, 96.77, 0.11, 52.20
ATT, 0.00, 0.00, 0.00, -1.14, 0.00, 51.83, 55.25
CTUN, 569, 0.00, 1.49, 0.000000, 0.00, 0, 1, 569, 0
ATT, 0.00, -0.36, 0.00, -1.18, 0.00, 51.90, 55.25
CTUN, 568, 0.00, 1.37, 0.000000, 0.00, 0, -1, 569, 0
GPS, 3, 111086000, 12, 1.29, -33.7840383, 151.0681902, 1.42, 96.75, 0.05, 52.20
ATT, 0.00, -0.55, 0.00, -1.01, 0.00, 51.91, 55.25
CTUN, 570, 0.00, 1.33, 0.000000, 0.00, 0, -2, 571, 0
ATT, 0.00, -0.46, 0.00, -0.77, 0.00, 51.86, 55.25
CTUN, 573, 0.00, 1.32, 0.000000, 0.00, 0, -2, 574, 0
GPS, 3, 111086200, 12, 1.29, -33.7840382, 151.0681903, 1.41, 96.70, 0.04, 52.20
ATT, 0.00, -0.42, 0.00, -0.66, 0.00, 51.75, 55.25
CTUN, 576, 0.00, 1.44, 0.000000, 0.00, 0, -4, 577, 0
ATT, 0.00, -0.28, 0.00, -0.64, 0.00, 51.64, 55.25
CTUN, 586, 0.00, 1.35, 0.000000, 0.00, 0, -6, 584, 0
GPS, 3, 111086400, 12, 1.29, -33.7840383, 151.0681903, 1.40, 96.67, 0.00, 52.20
CTUN, 592, 0.00, 1.27, 0.000000, 0.00, 0, -4, 589, 0
ATT, 0.00, -0.08, 0.00, -0.66, 0.00, 51.45, 55.25
DU32, 7, 82041
CURR, 592, 124522, 1102, 0, 4469, 0.000000
CTUN, 592, 0.00, 1.36, 0.000000, 0.00, 0, -2, 592, 0
ATT, 0.00, 0.14, 0.00, -1.02, 0.00, 51.36, 55.25
GPS, 3, 111086600, 12, 1.29, -33.7840383, 151.0681901, 1.38, 96.68, 0.06, 52.20
CTUN, 592, 0.00, 1.39, 0.000000, 0.00, 0, 0, 592, 0
ATT, 0.00, 0.08, 0.00, -1.48, 0.00, 51.39, 55.25
CTUN, 595, 0.00, 1.34, 0.000000, 0.00, 0, 4, 592, 0
ATT, 0.00, -0.08, 0.00, -1.64, 0.00, 51.44, 55.25
GPS, 3, 111086800, 12, 1.29, -33.7840384, 151.0681899, 1.39, 96.66, 0.09, 52.20
CTUN, 592, 0.00, 1.22, 0.000000, 0.00, 0, 8, 591, 0
ATT, 0.00, -0.29, 0.00, -1.44, 0.00, 51.40, 55.25
CTUN, 592, 0.00, 1.37, 0.000000, 0.00, 0, 11, 594, 0
GPS, 3, 111087000, 12, 1.29, -33.7840387, 151.0681897, 1.39, 96.65, 0.15, 52.20
ATT, 0.00, -0.15, 0.00, -1.19, 0.00, 51.25, 55.25
CTUN, 594, 0.00, 1.37, 0.000000, 0.00, 0, 14, 594, 0
ATT, 0.00, -0.27, 0.00, -0.90, 0.00, 51.18, 55.25
CTUN, 594, 0.00, 1.44, 0.000000, 0.00, 0, 18, 592, 0
GPS, 3, 111087200, 12, 1.29, -33.7840388, 151.0681896, 1.43, 96.67, 0.11, 52.20
ATT, 0.00, -0.07, 0.00, -0.61, 0.00, 51.05, 55.25
CTUN, 594, 0.00, 1.34, 0.000000, 0.00, 0, 20, 594, 0
ATT, 0.00, 0.13, 0.00, -0.49, 0.00, 51.03, 55.25
CTUN, 594, 0.00, 1.42, 0.000000, 0.00, 0, 23, 594, 0
GPS, 3, 111087400, 12, 1.29, -33.7840388, 151.0681896, 1.47, 96.75, 0.10, 52.20
CTUN, 594, 0.00, 1.42, 0.000000, 0.00, 0, 25, 594, 0
ATT, 0.00, 0.18, 0.00, -0.70, 0.00, 51.08, 55.25
DU32, 7, 82041
CURR, 581, 129855, 1102, 0, 4487, 0.000000
CTUN, 578, 0.00, 1.44, 0.000000, 0.00, 0, 28, 578, 0
ATT, 0.00, 0.20, -0.60, -0.84, 0.00, 51.11, 55.25
GPS, 3, 111087600, 12, 1.29, -33.7840390, 151.0681893, 1.52, 96.81, 0.20, 52.20
CTUN, 578, 0.00, 1.45, 0.000000, 0.00, 0, 29, 578, 0
ATT, 0.00, 0.70, -2.65, -0.99, 0.00, 51.01, 55.25
CTUN, 574, 0.00, 1.49, 0.000000, 0.00, 0, 29, 574, 0
ATT, 0.00, 0.65, -2.53, -1.72, 0.00, 50.78, 55.25
GPS, 3, 111087800, 12, 1.29, -33.7840392, 151.0681891, 1.57, 96.92, 0.20, 52.20
CTUN, 574, 0.00, 1.55, 0.000000, 0.00, 0, 29, 574, 0
ATT, 0.00, 0.38, -2.65, -2.61, 0.00, 50.42, 55.25
CTUN, 574, 0.00, 1.53, 0.000000, 0.00, 0, 28, 574, 0
GPS, 3, 111088000, 12, 1.29, -33.7840397, 151.0681888, 1.62, 96.98, 0.26, 96.46
ATT, 0.00, 0.64, -2.53, -2.96, 0.00, 49.99, 55.25
CTUN, 573, 0.00, 1.51, 0.000000, 0.00, 0, 29, 573, 0
ATT, 0.00, 0.78, -2.53, -2.67, 0.00, 49.62, 55.25
CTUN, 574, 0.00, 1.55, 0.000000, 0.00, 0, 30, 575, 0
GPS, 3, 111088200, 12, 1.29, -33.7840401, 151.0681885, 1.67, 97.07, 0.28, 158.13
ATT, 0.00, 1.07, -2.17, -2.10, 0.00, 49.32, 55.25
CTUN, 574, 0.00, 1.65, 0.000000, 0.00, 0, 32, 574, 0
ATT, 0.00, 0.98, -2.05, -1.82, 0.00, 49.21, 55.25
CTUN, 573, 0.00, 1.71, 0.000000, 0.00, 0, 33, 573, 0
GPS, 3, 111088400, 11, 1.37, -33.7840406, 151.0681884, 1.73, 97.11, 0.27, 177.10
CTUN, 563, 0.00, 1.72, 0.000000, 0.00, 0, 33, 563, 0
ATT, 0.00, 0.65, -2.77, -1.85, 0.00, 49.19, 55.25
DU32, 7, 82041
CURR, 563, 135035, 1102, 0, 4487, 0.000000
CTUN, 539, 0.00, 1.68, 0.000000, 0.00, 0, 31, 542, 0
ATT, 0.00, 0.21, -3.61, -2.08, 0.00, 49.21, 55.25
GPS, 3, 111088600, 11, 1.37, -33.7840411, 151.0681883, 1.79, 97.21, 0.28, 183.39
CTUN, 533, 0.00, 1.69, 0.000000, 0.00, 0, 29, 533, 0
ATT, 0.00, 0.25, -3.49, -2.76, 0.00, 49.27, 55.25
CTUN, 532, 0.00, 1.91, 0.000000, 0.00, 0, 21, 533, 0
ATT, -0.81, 0.16, -3.61, -2.99, 0.00, 49.46, 55.25
GPS, 3, 111088800, 12, 1.29, -33.7840418, 151.0681882, 1.83, 97.26, 0.39, 188.28
CTUN, 533, 0.00, 1.92, 0.000000, 0.00, 0, 12, 534, 0
ATT, -0.23, -0.13, -3.98, -3.11, 0.00, 49.84, 55.25
CTUN, 533, 0.00, 1.81, 0.000000, 0.00, 0, 4, 533, 0
GPS, 3, 111089000, 12, 1.29, -33.7840425, 151.0681882, 1.85, 97.32, 0.33, 184.46
ATT, -0.23, -0.19, -3.98, -3.64, 0.00, 50.26, 55.25
CTUN, 533, 0.00, 1.87, 0.000000, 0.00, 0, -3, 534, 0
ATT, -0.23, -0.39, -3.73, -3.60, 0.00, 50.64, 55.25
CTUN, 553, 0.00, 1.85, 0.000000, 0.00, 0, -12, 551, 0
GPS, 3, 111089200, 12, 1.29, -33.7840431, 151.0681886, 1.83, 97.33, 0.37, 172.53
ATT, 0.00, -0.41, -3.61, -3.46, 0.00, 51.11, 55.25
CTUN, 556, 0.00, 1.94, 0.000000, 0.00, 0, -20, 556, 0
ATT, 0.00, -0.50, -3.49, -3.43, 0.00, 51.39, 55.25
CTUN, 558, 0.00, 1.83, 0.000000, 0.00, 0, -25, 556, 0
GPS, 3, 111089400, 12, 1.29, -33.7840437, 151.0681887, 1.79, 97.31, 0.35, 175.55
CTUN, 573, 0.00, 1.78, 0.000000, 0.00, 0, -29, 573, 0
ATT, -0.69, -0.54, -3.25, -3.16, 0.00, 51.56, 55.25
DU32, 7, 82041
CURR, 573, 139931, 1102, 0, 4452, 0.000000
CTUN, 573, 0.00, 1.86, 0.000000, 0.00, 0, -31, 573, 0
ATT, -0.93, -0.87, -2.65, -3.03, 0.00, 51.61, 55.25
GPS, 3, 111089600, 12, 1.29, -33.7840442, 151.0681892, 1.73, 97.28, 0.36, 160.13
CTUN, 573, 0.00, 1.77, 0.000000, 0.00, 0, -31, 573, 0
ATT, -1.39, -1.03, -2.65, -2.77, 0.00, 51.45, 55.25
CTUN, 573, 0.00, 1.70, 0.000000, 0.00, 0, -28, 574, 0
ATT, -1.39, -1.11, -2.65, -2.58, 0.00, 51.20, 55.25
GPS, 3, 111089800, 12, 1.29, -33.7840447, 151.0681896, 1.68, 97.29, 0.24, 160.13
CTUN, 575, 0.00, 1.71, 0.000000, 0.00, 0, -28, 575, 0
ATT, -1.39, -1.39, -2.05, -2.49, 0.00, 50.96, 55.25
CTUN, 573, 0.00, 1.61, 0.000000, 0.00, 0, -26, 573, 0
ATT, -1.74, -1.45, -2.53, -2.04, 0.00, 50.75, 55.25
GPS, 3, 111090000, 12, 1.29, -33.7840449, 151.0681899, 1.62, 97.41, 0.32, 156.65
CTUN, 573, 0.00, 1.67, 0.000000, 0.00, 0, -25, 573, 0
ATT, -1.74, -1.38, -2.53, -2.00, 0.00, 50.58, 55.25
CTUN, 573, 0.00, 1.58, 0.000000, 0.00, 0, -22, 573, 0
GPS, 3, 111090200, 12, 1.29, -33.7840451, 151.0681906, 1.59, 97.44, 0.34, 139.48
ATT, -1.86, -1.77, -2.41, -2.28, 0.00, 50.50, 55.25
CTUN, 573, 0.00, 1.65, 0.000000, 0.00, 0, -22, 573, 0
ATT, -2.56, -1.99, -2.41, -2.28, 0.00, 50.49, 55.25
CTUN, 573, 0.00, 1.54, 0.000000, 0.00, 0, -20, 573, 0
GPS, 3, 111090400, 12, 1.29, -33.7840452, 151.0681909, 1.54, 97.46, 0.19, 139.48
CTUN, 573, 0.00, 1.62, 0.000000, 0.00, 0, -21, 573, 0
ATT, -2.91, -2.36, -2.17, -2.20, 0.00, 50.54, 55.25
DU32, 7, 82041
CURR, 573, 145090, 1102, 0, 4505, 0.000000
CTUN, 573, 0.00, 1.39, 0.000000, 0.00, 0, -19, 573, 0
ATT, -3.26, -2.63, -1.80, -2.10, 0.00, 50.64, 55.25
GPS, 3, 111090600, 12, 1.29, -33.7840454, 151.0681914, 1.50, 97.44, 0.29, 136.74
CTUN, 573, 0.00, 1.52, 0.000000, 0.00, 0, -21, 573, 0
ATT, -3.61, -2.85, -2.05, -2.03, 0.00, 50.77, 55.25
CTUN, 573, 0.00, 1.48, 0.000000, 0.00, 0, -21, 573, 0
ATT, -3.38, -2.97, -1.80, -2.21, 0.00, 50.89, 55.25
GPS, 3, 111090800, 12, 1.29, -33.7840454, 151.0681918, 1.46, 97.44, 0.23, 136.74
CTUN, 573, 0.00, 1.51, 0.000000, 0.00, 0, -21, 573, 0
ATT, -3.61, -2.80, -1.80, -2.12, 0.00, 50.92, 55.25
CTUN, 573, 0.00, 1.43, 0.000000, 0.00, 0, -19, 573, 0
GPS, 3, 111091000, 12, 1.29, -33.7840452, 151.0681921, 1.42, 97.44, 0.15, 136.74
ATT, -3.38, -2.66, -1.32, -1.98, 0.00, 50.89, 55.25
CTUN, 573, 0.00, 1.51, 0.000000, 0.00, 0, -20, 573, 0
ATT, -3.38, -2.64, -1.20, -1.87, 0.00, 50.88, 55.25
CTUN, 573, 0.00, 1.46, 0.000000, 0.00, 0, -18, 573, 0
GPS, 3, 111091200, 12, 1.29, -33.7840449, 151.0681923, 1.39, 97.40, 0.12, 136.74
ATT, -3.38, -2.53, -0.96, -1.64, 0.00, 50.77, 55.25
CTUN, 573, 0.00, 1.48, 0.000000, 0.00, 0, -17, 573, 0
ATT, -3.38, -2.40, -0.48, -1.36, 0.00, 50.64, 55.25
CTUN, 573, 0.00, 1.48, 0.000000, 0.00, 0, -17, 573, 0
GPS, 3, 111091400, 12, 1.29, -33.7840448, 151.0681925, 1.37, 97.28, 0.15, 136.74
CTUN, 573, 0.00, 1.47, 0.000000, 0.00, 0, -17, 573, 0
ATT, -3.49, -2.41, -0.96, -1.16, 0.00, 50.44, 55.25
DU32, 7, 82041
CURR, 573, 150820, 1102, 0, 4487, 0.000000
CTUN, 573, 0.00, 1.40, 0.000000, 0.00, 0, -16, 573, 0
ATT, -3.14, -2.23, -0.84, -1.19, 0.00, 50.23, 55.25
GPS, 3, 111091600, 12, 1.29, -33.7840444, 151.0681926, 1.34, 97.24, 0.13, 136.74
CTUN, 573, 0.00, 1.34, 0.000000, 0.00, 0, -16, 573, 0
ATT, -2.56, -1.85, -0.96, -1.21, 0.00, 49.95, 55.25
CTUN, 574, 0.00, 1.38, 0.000000, 0.00, 0, -16, 573, 0
ATT, -2.44, -1.41, -1.08, -1.17, 0.00, 49.70, 55.25
GPS, 3, 111091800, 12, 1.29, -33.7840440, 151.0681926, 1.31, 97.19, 0.17, 136.74
CTUN, 575, 0.00, 1.35, 0.000000, 0.00, 0, -16, 573, 0
ATT, -1.98, -0.83, -1.32, -1.26, 0.00, 49.45, 55.25
CTUN, 575, 0.00, 1.35, 0.000000, 0.00, 0, -15, 575, 0
GPS, 3, 111092000, 12, 1.29, -33.7840436, 151.0681926, 1.29, 97.15, 0.21, 136.74
ATT, -1.28, -0.34, -1.20, -1.50, 0.00, 49.30, 55.25
CTUN, 575, 0.00, 1.30, 0.000000, 0.00, 0, -15, 575, 0
ATT, -0.81, 0.01, -1.44, -1.48, 0.00, 49.29, 55.25
CTUN, 575, 0.00, 1.29, 0.000000, 0.00, 0, -15, 575, 0
GPS, 3, 111092200, 12, 1.29, -33.7840432, 151.0681925, 1.26, 97.12, 0.17, 136.74
ATT, -0.46, 0.39, -1.68, -1.46, 0.00, 49.38, 55.25
CTUN, 575, 0.00, 1.30, 0.000000, 0.00, 0, -14, 575, 0
ATT, -0.34, 0.42, -1.56, -1.61, 0.00, 49.60, 55.25
CTUN, 577, 0.00, 1.22, 0.000000, 0.00, 0, -13, 575, 0
GPS, 3, 111092400, 12, 1.28, -33.7840430, 151.0681925, 1.24, 97.01, 0.13, 136.74
CTUN, 578, 0.00, 1.26, 0.000000, 0.00, 0, -12, 578, 0
ATT, -0.46, 0.28, -1.68, -1.79, 0.00, 50.04, 55.25
DU32, 7, 82041
CURR, 578, 155994, 1102, 0, 4452, 0.000000
CTUN, 578, 0.00, 1.32, 0.000000, 0.00, 0, -13, 578, 0
ATT, -0.34, 0.01, -1.32, -1.84, 0.00, 50.44, 55.25
GPS, 3, 111092600, 11, 1.35, -33.7840428, 151.0681924, 1.21, 96.97, 0.11, 136.74
CTUN, 578, 0.00, 1.26, 0.000000, 0.00, 0, -13, 578, 0
ATT, -0.58, -0.52, -1.32, -1.86, 0.00, 50.93, 55.25
CTUN, 580, 0.00, 1.33, 0.000000, 0.00, 0, -14, 577, 0
ATT, -0.46, -0.79, -1.32, -1.89, 0.00, 51.26, 55.25
GPS, 3, 111092800, 11, 1.35, -33.7840425, 151.0681922, 1.19, 96.96, 0.11, 136.74
CTUN, 577, 0.00, 1.25, 0.000000, 0.00, 0, -15, 578, 0
ATT, -0.46, -0.96, -1.44, -2.00, 0.00, 51.54, 55.25
CTUN, 578, 0.00, 1.24, 0.000000, 0.00, 0, -15, 578, 0
GPS, 3, 111093000, 11, 1.35, -33.7840421, 151.0681921, 1.17, 97.03, 0.12, 136.74
ATT, -0.93, -0.93, -1.56, -1.95, 0.00, 51.68, 55.25
CTUN, 577, 0.00, 1.12, 0.000000, 0.00, 0, -15, 577, 0
ATT, -0.93, -0.98, -1.32, -1.94, 0.00, 51.62, 55.25
CTUN, 578, 0.00, 1.12, 0.000000, 0.00, 0, -15, 578, 0
GPS, 3, 111093200, 11, 1.35, -33.7840418, 151.0681920, 1.14, 97.12, 0.09, 136.74
ATT, -1.28, -1.11, -1.08, -1.83, 0.00, 51.29, 55.25
CTUN, 578, 0.00, 1.27, 0.000000, 0.00, 0, -14, 578, 0
ATT, -1.39, -1.09, -0.72, -1.48, 0.00, 50.91, 55.25
CTUN, 585, 0.00, 1.12, 0.000000, 0.00, 0, -13, 584, 0
GPS, 3, 111093400, 12, 1.29, -33.7840416, 151.0681917, 1.12, 97.15, 0.10, 136.74
CTUN, 584, 0.00, 1.13, 0.000000, 0.00, 0, -12, 585, 0
ATT, -1.63, -1.00, -0.60, -1.17, 0.00, 50.39, 55.25
DU32, 7, 82041
CURR, 581, 161207, 1102, 0, 4452, 0.000000
CTUN, 585, 0.00, 1.14, 0.000000, 0.00, 0, -9, 581, 0
ATT, -1.86, -1.16, -0.36, -0.87, 0.00, 49.99, 55.25
GPS, 3, 111093600, 12, 1.29, -33.7840413, 151.0681914, 1.10, 97.20, 0.14, 136.74
CTUN, 581, 0.00, 1.15, 0.000000, 0.00, 0, -7, 581, 0
ATT, -1.86, -1.06, -0.60, -0.46, 0.00, 49.61, 55.25
CTUN, 583, 0.00, 1.15, 0.000000, 0.00, 0, -5, 581, 0
ATT, -1.39, -1.27, -0.84, -0.62, 0.00, 49.33, 55.25
GPS, 3, 111093800, 12, 1.29, -33.7840410, 151.0681911, 1.10, 97.22, 0.19, 136.74
CTUN, 581, 0.00, 1.26, 0.000000, 0.00, 0, -3, 581, 0
ATT, -1.28, -1.16, -1.44, -1.06, 0.00, 49.02, 55.25
CTUN, 581, 0.00, 1.12, 0.000000, 0.00, 0, -1, 581, 0
GPS, 3, 111094000, 12, 1.29, -33.7840407, 151.0681909, 1.10, 97.23, 0.14, 136.74
ATT, -0.69, -0.50, -1.80, -1.18, 0.00, 48.74, 55.25
CTUN, 585, 0.00, 1.11, 0.000000, 0.00, 0, 0, 585, 0
PM, 0, 0, 50, 0, 1002, 10428, 0, 4
ATT, -0.46, 0.04, -1.80, -1.46, 0.00, 48.62, 55.25
CTUN, 581, 0.00, 1.15, 0.000000, 0.00, 0, 1, 581, 0
GPS, 3, 111094200, 12, 1.29, -33.7840405, 151.0681905, 1.11, 97.22, 0.17, 136.74
ATT, -0.34, 0.29, -1.80, -1.73, 0.00, 48.62, 55.25
CTUN, 581, 0.00, 1.15, 0.000000, 0.00, 0, 2, 584, 0
ATT, -0.46, 0.26, -1.80, -1.86, 0.00, 48.78, 55.25
CTUN, 582, 0.00, 1.07, 0.000000, 0.00, 0, 3, 585, 0
GPS, 3, 111094400, 11, 1.35, -33.7840404, 151.0681902, 1.12, 97.22, 0.18, 136.74
CTUN, 585, 0.00, 1.18, 0.000000, 0.00, 0, 3, 581, 0
ATT, -0.69, -0.04, -1.80, -1.80, 0.00, 49.12, 55.25
CTUN, 581, 0.00, 1.17, 0.000000, 0.00, 0, 4, 581, 0
ATT, -0.69, -0.41, -1.80, -1.78, 0.00, 49.52, 55.25
DU32, 7, 82041
CURR, 581, 166444, 1102, 0, 4452, 0.000000
GPS, 3, 111094600, 11, 1.35, -33.7840403, 151.0681899, 1.13, 97.23, 0.15, 136.74
CTUN, 581, 0.00, 1.12, 0.000000, 0.00, 0, 5, 585, 0
ATT, -1.16, -0.72, -2.05, -2.13, 0.00, 49.96, 55.25
CTUN, 585, 0.00, 1.17, 0.000000, 0.00, 0, 5, 581, 0
ATT, -1.74, -0.91, -2.41, -2.31, 0.00, 50.24, 55.25
GPS, 3, 111094800, 11, 1.35, -33.7840403, 151.0681898, 1.14, 97.19, 0.12, 136.74
CTUN, 581, 0.00, 1.19, 0.000000, 0.00, 0, 6, 585, 0
ATT, -1.74, -1.07, -2.53, -2.56, 0.00, 50.43, 55.25
CTUN, 585, 0.00, 1.20, 0.000000, 0.00, 0, 7, 585, 0
GPS, 3, 111095000, 11, 1.35, -33.7840402, 151.0681897, 1.16, 97.20, 0.09, 136.74
ATT, -1.16, -1.15, -3.25, -2.86, 0.00, 50.46, 55.25
CTUN, 581, 0.00, 1.08, 0.000000, 0.00, 0, 9, 581, 0
ATT, -1.28, -0.91, -3.01, -3.05, 0.00, 50.40, 55.25
CTUN, 583, 0.00, 1.25, 0.000000, 0.00, 0, 10, 581, 0
GPS, 3, 111095200, 10, 1.51, -33.7840401, 151.0681895, 1.18, 97.19, 0.13, 136.74
ATT, -1.39, -1.00, -3.13, -3.10, 0.00, 50.26, 55.25
CTUN, 581, 0.00, 1.13, 0.000000, 0.00, 0, 10, 581, 0
ATT, -1.28, -1.12, -3.01, -3.14, 0.00, 50.15, 55.25
CTUN, 581, 0.00, 1.13, 0.000000, 0.00, 0, 11, 581, 0
GPS, 3, 111095400, 10, 1.51, -33.7840401, 151.0681893, 1.20, 97.16, 0.14, 136.74
CTUN, 584, 0.00, 1.16, 0.000000, 0.00, 0, 11, 581, 0
ATT, -1.28, -0.93, -2.77, -2.87, 0.00, 50.11, 55.25
CTUN, 581, 0.00, 1.18, 0.000000, 0.00, 0, 12, 581, 0
ATT, -0.93, -0.85, -2.77, -2.62, 0.00, 50.15, 55.25
GPS, 3, 111095600, 10, 1.51, -33.7840399, 151.0681891, 1.22, 97.19, 0.15, 136.74
DU32, 7, 82041
CURR, 581, 172274, 1102, 0, 4487, 0.000000
CTUN, 581, 0.00, 1.21, 0.000000, 0.00, 0, 13, 581, 0
ATT, -0.58, -0.65, -2.65, -2.44, 0.00, 50.21, 55.25
CTUN, 581, 0.00, 1.14, 0.000000, 0.00, 0, 14, 585, 0
ATT, -0.58, -0.57, -2.53, -2.19, 0.00, 50.23, 55.25
GPS, 3, 111095800, 10, 1.51, -33.7840396, 151.0681890, 1.24, 97.21, 0.16, 136.74
CTUN, 581, 0.00, 1.28, 0.000000, 0.00, 0, 15, 581, 0
ATT, -0.23, -0.36, -2.65, -2.23, 0.00, 50.25, 55.25
CTUN, 581, 0.00, 1.30, 0.000000, 0.00, 0, 15, 581, 0
ATT, 0.00, -0.31, -2.89, -2.37, 0.00, 50.38, 55.25
GPS, 3, 111096000, 10, 1.51, -33.7840395, 151.0681890, 1.28, 97.24, 0.06, 136.74
CTUN, 585, 0.00, 1.17, 0.000000, 0.00, 0, 15, 585, 0
ATT, 0.00, -0.20, -2.89, -2.55, 0.00, 50.60, 55.25
CTUN, 582, 0.00, 1.23, 0.000000, 0.00, 0, 16, 582, 0
GPS, 3, 111096200, 11, 1.35, -33.7840393, 151.0681891, 1.30, 97.27, 0.06, 136.74
ATT, 0.00, -0.07, -2.89, -2.79, 0.00, 50.90, 55.25
CTUN, 582, 0.00, 1.29, 0.000000, 0.00, 0, 15, 582, 0
ATT, 0.00, -0.29, -3.13, -3.06, 0.00, 51.24, 55.25
CTUN, 581, 0.00, 1.35, 0.000000, 0.00, 0, 15, 585, 0
GPS, 3, 111096400, 11, 1.35, -33.7840391, 151.0681890, 1.33, 97.29, 0.07, 136.74
CTUN, 584, 0.00, 1.29, 0.000000, 0.00, 0, 14, 581, 0
ATT, 0.00, -0.44, -3.13, -3.32, 0.00, 51.56, 55.25
CTUN, 584, 0.00, 1.23, 0.000000, 0.00, 0, 14, 585, 0
ATT, 0.00, -0.56, -3.01, -3.29, 0.00, 51.77, 55.25
GPS, 3, 111096600, 11, 1.35, -33.7840389, 151.0681890, 1.35, 97.29, 0.09, 136.74
CTUN, 582, 0.00, 1.37, 0.000000, 0.00, 0, 14, 586, 0
DU32, 7, 82041
CURR, 585, 177518, 1102, 0, 4469, 0.000000
ATT, 0.00, -0.62, -2.65, -3.14, 0.00, 51.97, 55.25
CTUN, 585, 0.00, 1.29, 0.000000, 0.00, 0, 15, 581, 0
ATT, -0.11, -0.69, -2.65, -2.73, 0.00, 52.00, 55.25
GPS, 3, 111096800, 11, 1.35, -33.7840386, 151.0681889, 1.38, 97.34, 0.08, 136.74
CTUN, 581, 0.00, 1.42, 0.000000, 0.00, 0, 15, 581, 0
ATT, -0.11, -0.85, -2.65, -2.54, 0.00, 51.95, 55.25
CTUN, 581, 0.00, 1.25, 0.000000, 0.00, 0, 15, 583, 0
GPS, 3, 111097000, 11, 1.35, -33.7840384, 151.0681890, 1.40, 97.42, 0.06, 136.74
ATT, 0.00, -0.84, -2.53, -2.47, 0.00, 51.86, 55.25
CTUN, 580, 0.00, 1.48, 0.000000, 0.00, 0, 14, 580, 0
ATT, 0.00, -0.82, -2.53, -2.48, 0.00, 51.82, 55.25
CTUN, 584, 0.00, 1.36, 0.000000, 0.00, 0, 15, 581, 0
GPS, 3, 111097200, 11, 1.35, -33.7840382, 151.0681892, 1.43, 97.48, 0.09, 136.74
ATT, 0.00, -0.60, -2.53, -2.50, 0.00, 51.77, 55.25
CTUN, 581, 0.00, 1.39, 0.000000, 0.00, 0, 14, 581, 0
ATT, 0.00, -0.50, -2.65, -2.40, 0.00, 51.73, 55.25
CTUN, 581, 0.00, 1.26, 0.000000, 0.00, 0, 15, 585, 0
GPS, 3, 111097400, 11, 1.35, -33.7840380, 151.0681895, 1.45, 97.56, 0.12, 136.74
CTUN, 583, 0.00, 1.51, 0.000000, 0.00, 0, 15, 581, 0
ATT, 0.00, -0.22, -2.65, -2.15, 0.00, 51.63, 55.25
CTUN, 581, 0.00, 1.49, 0.000000, 0.00, 0, 16, 585, 0
ATT, 0.00, -0.10, -2.65, -2.04, 0.00, 51.46, 55.25
GPS, 3, 111097600, 11, 1.35, -33.7840378, 151.0681898, 1.48, 97.62, 0.08, 136.74
CTUN, 581, 0.00, 1.51, 0.000000, 0.00, 0, 15, 581, 0
DU32, 7, 82041
CURR, 581, 182751, 1102, 0, 4505, 0.000000
ATT, -0.11, 0.02, -2.53, -2.10, 0.00, 51.12, 55.25
CTUN, 581, 0.00, 1.54, 0.000000, 0.00, 0, 17, 581, 0
ATT, -0.11, -0.21, -2.53, -2.25, 0.00, 50.78, 55.25
GPS, 3, 111097800, 11, 1.35, -33.7840376, 151.0681899, 1.52, 97.69, 0.05, 136.74
CTUN, 585, 0.00, 1.45, 0.000000, 0.00, 0, 18, 585, 0
ATT, -0.34, -0.15, -2.41, -2.32, 0.00, 50.27, 55.25
CTUN, 584, 0.00, 1.45, 0.000000, 0.00, 0, 19, 584, 0
GPS, 3, 111098000, 11, 1.35, -33.7840373, 151.0681903, 1.55, 97.74, 0.10, 136.74
ATT, -0.34, -0.12, -2.05, -2.11, 0.00, 49.84, 55.25
CTUN, 581, 0.00, 1.48, 0.000000, 0.00, 0, 21, 581, 0
ATT, -0.34, 0.05, -2.05, -1.83, 0.00, 49.49, 55.25
CTUN, 581, 0.00, 1.49, 0.000000, 0.00, 0, 22, 581, 0
GPS, 3, 111098200, 12, 1.29, -33.7840372, 151.0681906, 1.58, 97.79, 0.15, 136.74
ATT, -0.34, 0.17, -2.05, -1.91, 0.00, 49.23, 55.25
CTUN, 585, 0.00, 1.53, 0.000000, 0.00, 0, 24, 583, 0
ATT, -0.69, 0.13, -1.93, -2.14, 0.00, 49.06, 55.25
CTUN, 581, 0.00, 1.50, 0.000000, 0.00, 0, 25, 581, 0
GPS, 3, 111098400, 12, 1.29, -33.7840371, 151.0681909, 1.62, 97.85, 0.08, 136.74
CTUN, 586, 0.00, 1.56, 0.000000, 0.00, 0, 25, 585, 0
ATT, -0.81, -0.18, -2.17, -2.30, 0.00, 48.92, 55.25
CTUN, 581, 0.00, 1.42, 0.000000, 0.00, 0, 26, 585, 0
ATT, -0.69, -0.26, -2.05, -2.39, 0.00, 48.88, 55.25
GPS, 3, 111098600, 12, 1.29, -33.7840370, 151.0681911, 1.66, 97.94, 0.09, 136.74
CTUN, 584, 0.00, 1.58, 0.000000, 0.00, 0, 27, 581, 0
ATT, -0.69, -0.43, -2.05, -2.24, 0.00, 48.88, 55.25
DU32, 7, 82041
CURR, 585, 187992, 1102, 0, 4469, 0.000000
CTUN, 581, 0.00, 1.53, 0.000000, 0.00, 0, 27, 581, 0
ATT, -0.81, -0.25, -2.17, -2.24, 0.00, 48.90, 55.25
GPS, 3, 111098800, 12, 1.29, -33.7840369, 151.0681918, 1.70, 97.99, 0.25, 120.00
CTUN, 581, 0.00, 1.62, 0.000000, 0.00, 0, 26, 585, 0
ATT, -2.44, -0.68, -1.08, -2.33, 0.00, 49.04, 55.25
CTUN, 581, 0.00, 1.66, 0.000000, 0.00, 0, 26, 585, 0
GPS, 3, 111099000, 12, 1.29, -33.7840370, 151.0681920, 1.74, 98.06, 0.14, 120.00
ATT, -2.33, -1.84, -0.96, -1.80, 0.00, 49.19, 55.25
CTUN, 581, 0.00, 1.60, 0.000000, 0.00, 0, 26, 581, 0
ATT, -2.09, -2.10, -0.96, -1.62, 0.00, 49.27, 55.25
CTUN, 584, 0.00, 1.75, 0.000000, 0.00, 0, 26, 581, 0
GPS, 3, 111099200, 12, 1.29, -33.7840371, 151.0681924, 1.78, 98.13, 0.19, 120.00
ATT, -1.98, -2.02, -0.84, -1.34, 0.00, 49.25, 55.25
CTUN, 581, 0.00, 1.61, 0.000000, 0.00, 0, 26, 583, 0
ATT, -1.86, -1.61, -0.96, -1.18, 0.00, 49.15, 55.25
CTUN, 585, 0.00, 1.74, 0.000000, 0.00, 0, 26, 585, 0
GPS, 3, 111099400, 12, 1.29, -33.7840372, 151.0681928, 1.82, 98.15, 0.15, 120.00
CTUN, 581, 0.00, 1.74, 0.000000, 0.00, 0, 27, 581, 0
ATT, -1.98, -1.45, -0.84, -1.21, 0.00, 48.98, 55.25
CTUN, 581, 0.00, 1.88, 0.000000, 0.00, 0, 27, 581, 0
ATT, -1.98, -1.37, -0.96, -1.12, 0.00, 48.79, 55.25
GPS, 3, 111099600, 12, 1.29, -33.7840371, 151.0681929, 1.87, 98.20, 0.09, 120.00
CTUN, 583, 0.00, 1.85, 0.000000, 0.00, 0, 27, 581, 0
ATT, -1.74, -1.20, -1.32, -1.17, 0.00, 48.54, 55.25
DU32, 7, 82041
CURR, 581, 193240, 1102, 0, 4487, 0.000000
CTUN, 585, 0.00, 1.80, 0.000000, 0.00, 0, 28, 581, 0
ATT, -1.74, -1.03, -1.32, -1.58, 0.00, 48.35, 55.25
GPS, 3, 111099800, 12, 1.29, -33.7840371, 151.0681929, 1.93, 98.27, 0.03, 120.00
CTUN, 581, 0.00, 1.81, 0.000000, 0.00, 0, 28, 585, 0
ATT, -1.63, -0.89, -1.80, -1.94, 0.00, 48.23, 55.25
CTUN, 585, 0.00, 1.96, 0.000000, 0.00, 0, 29, 585, 0
GPS, 3, 111100000, 12, 1.29, -33.7840371, 151.0681930, 1.97, 98.32, 0.04, 120.00
ATT, -1.86, -0.74, -1.68, -1.92, 0.00, 48.17, 55.25
