dump 37

ArduCopter V3.1-rc5.1
Free RAM: 873
APM 2
FMT, 128, 89, FMT, BBnNZ, Type,Length,Name,Format
FMT, 129, 23, PARM, Nf, Name,Value
FMT, 130, 35, GPS, BIBcLLeeEe, Status,Time,NSats,HDop,Lat,Lng,RelAlt,Alt,Spd,GCrs
FMT, 131, 27, IMU, ffffff, GyrX,GyrY,GyrZ,AccX,AccY,AccZ
FMT, 132, 67, MSG, Z, Message
FMT, 25, 25, ATUN, BBfffff, Axis,TuneStep,RateMin,RateMax,RPGain,RDGain,SPGain
FMT, 26, 9, ATDE, cf, Angle,Rate
FMT, 9, 19, CURR, hIhhhf, Thr,ThrInt,Volt,Curr,Vcc,CurrTot
FMT, 11, 11, MOT, hhhh, Mot1,Mot2,Mot3,Mot4
FMT, 12, 28, OF, hhBccffee, Dx,Dy,SQual,X,Y,Lat,Lng,Roll,Pitch
FMT, 5, 49, NTUN, Ecffffffffee, WPDst,WPBrg,PErX,PErY,DVelX,DVelY,VelX,VelY,DAcX,DAcY,DRol,DPit
FMT, 4, 25, CTUN, hcefchhhh, ThrIn,SonAlt,BarAlt,WPAlt,DesSonAlt,AngBst,CRate,ThrOut,DCRate
FMT, 15, 21, MAG, hhhhhhhhh, MagX,MagY,MagZ,OfsX,OfsY,OfsZ,MOfsX,MOfsY,MOfsZ
FMT, 6, 17, PM, BBBHHIhB, RenCnt,RenBlw,FixCnt,NLon,NLoop,MaxT,PMT,I2CErr
FMT, 8, 20, CMD, BBBBBeLL, CTot,CNum,CId,COpt,Prm1,Alt,Lat,Lng
FMT, 1, 17, ATT, cccccCC, RollIn,Roll,PitchIn,Pitch,YawIn,Yaw,NavYaw
FMT, 17, 37, INAV, cccfffiiff, BAlt,IAlt,IClb,ACorrX,ACorrY,ACorrZ,GLat,GLng,ILat,ILng
FMT, 3, 6, MODE, Mh, Mode,ThrCrs
FMT, 10, 3, STRT, , 
FMT, 13, 4, EV, B, Id
FMT, 20, 6, D16, Bh, Id,Value
FMT, 21, 6, DU16, BH, Id,Value
FMT, 22, 8, D32, Bi, Id,Value
FMT, 23, 8, DU32, BI, Id,Value
FMT, 24, 8, DFLT, Bf, Id,Value
FMT, 14, 28, PID, Biiiiif, Id,Error,P,I,D,Out,Gain
FMT, 18, 25, CAM, ILLeccC, GPSTime,Lat,Lng,Alt,Roll,Pitch,Yaw
FMT, 19, 5, ERR, BB, Subsys,ECode
D32, 9, 13333
CMD, 1, 0, 16, 0, 0, 0.00, -33.7850935, 151.0661604
EV, 10
GPS, 3, 352956200, 12, 1.73, -33.7850933, 151.0661603, 1.80, 82.17, 0.00, 3.35
CTUN, 0, 0.00, -0.02, 0.000000, 0.00, 0, 8, 0, 0
ATT, 0.00, -3.29, 0.00, -2.97, 0.00, 133.33, 133.33
GPS, 3, 352963600, 13, 1.64, -33.7850934, 151.0661596, 1.79, 82.87, 0.00, 3.35
CTUN, 0, 0.00, 0.07, 0.000000, 0.00, 0, 8, 0, 0
ATT, 0.00, -3.29, 0.00, -3.04, 0.00, 133.35, 133.35
CTUN, 0, 0.00, 0.04, 0.000000, 0.00, 0, 6, 0, 0
ATT, 0.00, -3.30, 0.00, -3.04, 0.00, 133.34, 133.34
GPS, 3, 352963800, 13, 1.64, -33.7850934, 151.0661596, 1.62, 82.88, 0.01, 3.35
CTUN, 0, 0.00, -0.20, 0.000000, 0.00, 0, 4, 0, 0
ATT, 0.00, -3.29, 0.00, -3.05, 0.00, 133.33, 133.33
CTUN, 0, 0.00, -0.08, 0.000000, 0.00, 0, 2, 0, 0
ATT, 0.00, -3.29, 0.00, -3.05, 0.00, 133.33, 133.33
GPS, 3, 352964000, 13, 1.64, -33.7850934, 151.0661596, 1.42, 82.88, 0.00, 3.35
CTUN, 0, 0.00, -0.04, 0.000000, 0.00, 0, 0, 0, 0
ATT, 0.00, -3.28, 0.00, -3.04, 0.00, 133.33, 133.33
DU32, 7, 8793
CURR, 0, 0, 1218, 78, 4732, 0.766088
CTUN, 0, 0.00, -0.12, 0.000000, 0.00, 0, -1, 0, 0
ATT, 0.00, -3.29, 0.00, -3.03, 0.00, 133.33, 133.33
GPS, 3, 352964200, 13, 1.64, -33.7850934, 151.0661596, 1.25, 82.90, 0.02, 3.35
CTUN, 0, 0.00, -0.20, 0.000000, 0.00, 0, -3, 0, 0
ATT, 0.00, -3.31, 0.00, -3.05, 0.00, 133.34, 133.34
CTUN, 0, 0.00, -0.04, 0.000000, 0.00, 0, -4, 0, 0
ATT, 0.00, -3.30, 0.00, -3.03, 0.00, 133.35, 133.35
GPS, 3, 352964400, 13, 1.64, -33.7850935, 151.0661596, 1.08, 82.91, 0.04, 3.35
CTUN, 0, 0.00, -0.18, 0.000000, 0.00, 0, -6, 0, 0
ATT, 0.00, -3.30, 0.00, -3.06, 0.00, 133.35, 133.35
CTUN, 0, 0.00, -0.15, 0.000000, 0.00, 0, -8, 0, 0
ATT, 0.00, -3.30, 0.00, -3.06, 0.00, 133.37, 133.37
GPS, 3, 352964600, 13, 1.64, -33.7850935, 151.0661596, 0.92, 82.92, 0.03, 3.35
CTUN, 0, 0.00, -0.27, 0.000000, 0.00, 0, -9, 0, 0
ATT, 0.00, -3.30, 0.00, -3.09, 0.00, 133.38, 133.38
CTUN, 0, 0.00, -0.32, 0.000000, 0.00, 0, -11, 0, 0
ATT, 0.00, -3.30, 0.00, -3.05, 0.00, 133.39, 133.39
GPS, 3, 352964800, 13, 1.64, -33.7850935, 151.0661595, 0.76, 82.93, 0.03, 3.35
CTUN, 0, 0.00, -0.29, 0.000000, 0.00, 0, -12, 0, 0
ATT, 0.00, -3.31, 0.00, -3.06, 0.00, 133.39, 133.39
CTUN, 0, 0.00, -0.18, 0.000000, 0.00, 0, -14, 0, 0
ATT, 0.00, -3.31, 0.00, -3.06, 0.00, 133.40, 133.40
GPS, 3, 352965000, 13, 1.64, -33.7850934, 151.0661595, 0.61, 82.94, 0.02, 3.35
CTUN, 0, 0.00, -0.19, 0.000000, 0.00, 0, -15, 0, 0
ATT, 0.00, -3.32, 0.00, -3.03, 0.00, 133.41, 133.41
DU32, 7, 8793
CURR, 0, 0, 1217, 91, 4752, 1.009793
CTUN, 0, 0.00, -0.10, 0.000000, 0.00, 0, -16, 0, 0
ATT, 0.00, -3.33, 0.00, -3.04, 0.00, 133.41, 133.41
GPS, 3, 352965200, 13, 1.64, -33.7850933, 151.0661595, 0.49, 82.95, 0.04, 3.35
CTUN, 0, 0.00, -0.01, 0.000000, 0.00, 0, -17, 0, 0
ATT, 0.00, -3.32, 0.00, -3.04, 0.00, 133.42, 133.42
CTUN, 0, 0.00, -0.10, 0.000000, 0.00, 0, -17, 0, 0
ATT, 0.00, -3.33, 0.00, -3.03, 0.00, 133.44, 133.44
GPS, 3, 352965400, 13, 1.64, -33.7850934, 151.0661595, 0.39, 82.96, 0.08, 3.35
CTUN, 0, 0.00, -0.06, 0.000000, 0.00, 0, -18, 0, 0
ATT, 0.00, -3.34, 0.00, -3.05, 0.00, 133.44, 133.44
CTUN, 0, 0.00, -0.11, 0.000000, 0.00, 0, -19, 0, 0
ATT, 0.00, -3.32, 0.00, -3.06, 0.00, 133.44, 133.44
EV, 28
GPS, 3, 352965600, 13, 1.64, -33.7850934, 151.0661595, 0.30, 82.97, 0.03, 3.35
CTUN, 0, 0.00, -0.28, 0.000000, 0.00, 0, -19, 0, 0
ATT, 0.00, -3.32, 0.00, -3.08, 0.00, 133.45, 133.45
CTUN, 0, 0.00, -0.07, 0.000000, 0.00, 0, -21, 0, 0
ATT, 0.00, -3.32, 0.00, -3.08, 0.00, 133.47, 133.47
GPS, 3, 352965800, 13, 1.64, -33.7850933, 151.0661594, 0.20, 82.98, 0.02, 3.35
CTUN, 0, 0.00, -0.21, 0.000000, 0.00, 0, -21, 0, 0
ATT, 0.00, -3.33, 0.00, -3.06, 0.00, 133.47, 133.47
CTUN, 0, 0.00, -0.07, 0.000000, 0.00, 0, -22, 0, 0
ATT, 0.00, -3.34, 0.00, -3.07, 0.00, 133.46, 133.46
GPS, 3, 352966000, 13, 1.64, -33.7850932, 151.0661594, 0.12, 82.99, 0.00, 3.35
CTUN, 0, 0.00, -0.10, 0.000000, 0.00, 0, -22, 0, 0
ATT, 0.00, -3.34, 0.00, -3.05, 0.00, 133.48, 133.48
DU32, 7, 8281
CURR, 0, 0, 1214, 68, 4732, 1.248254
CTUN, 0, 0.00, -0.06, 0.000000, 0.00, 0, -22, 0, 0
ATT, 0.00, -3.35, 0.00, -3.05, 0.00, 133.49, 133.49
GPS, 3, 352966200, 13, 1.64, -33.7850932, 151.0661594, 0.05, 83.00, 0.03, 3.35
CTUN, 0, 0.00, -0.19, 0.000000, 0.00, 0, -23, 0, 0
ATT, 0.00, -3.36, 0.00, -3.06, 0.00, 133.49, 133.49
CTUN, 0, 0.00, -0.16, 0.000000, 0.00, 0, -23, 0, 0
ATT, 0.00, -3.36, 0.00, -3.05, 0.00, 133.50, 133.50
GPS, 3, 352966400, 13, 1.64, -33.7850931, 151.0661593, -0.02, 83.00, 0.01, 3.35
CTUN, 0, 0.00, -0.07, 0.000000, 0.00, 0, -24, 0, 0
ATT, 0.00, -3.36, 0.00, -3.07, 0.00, 133.49, 133.49
CTUN, 0, 0.00, -0.15, 0.000000, 0.00, 0, -24, 0, 0
ATT, 0.00, -3.36, 0.00, -3.04, 0.00, 133.50, 133.50
EV, 15
GPS, 3, 352966600, 13, 1.64, -33.7850930, 151.0661592, -0.08, 83.01, 0.04, 3.35
CTUN, 147, 0.00, -0.09, 0.000000, 0.00, 0, -24, 150, 0
ATT, 0.00, -3.35, 0.00, -3.05, 0.00, 133.49, 133.50
CTUN, 177, 0.00, -0.23, 0.000000, 0.00, 0, -24, 187, 0
ATT, 0.00, -3.35, 0.00, -3.03, 0.00, 133.50, 133.50
GPS, 3, 352966800, 12, 1.68, -33.7850929, 151.0661592, -0.14, 83.01, 0.01, 3.35
CTUN, 189, 0.00, -0.35, 0.000000, 0.00, 0, -26, 201, 0
ATT, 0.00, -3.35, 0.00, -2.99, 0.00, 133.50, 133.50
CTUN, 189, 0.00, -0.41, 0.000000, 0.00, 0, -26, 201, 0
ATT, 0.00, -3.32, 0.00, -3.03, 0.00, 133.52, 133.50
GPS, 3, 352967000, 12, 1.68, -33.7850928, 151.0661592, -0.22, 83.02, 0.01, 3.35
CTUN, 189, 0.00, -0.28, 0.000000, 0.00, 0, -26, 201, 0
ATT, 0.00, -3.32, 0.00, -3.04, 0.00, 133.50, 133.50
DU32, 7, 8313
CURR, 233, 921, 1196, 347, 4752, 1.801315
CTUN, 253, 0.00, -0.43, 0.000000, 0.00, 0, -27, 279, 0
ATT, 0.00, -3.34, 0.00, -2.96, 0.00, 133.50, 133.50
GPS, 3, 352967200, 12, 1.68, -33.7850928, 151.0661592, -0.28, 83.02, 0.01, 3.35
CTUN, 295, 0.00, -0.54, 0.000000, 0.00, 0, -27, 330, 0
ATT, 0.00, -3.30, 0.00, -2.97, 0.00, 133.43, 133.50
CTUN, 336, 0.00, -0.77, 0.000000, 0.00, 0, -28, 380, 0
ATT, 0.00, -3.31, 0.00, -2.87, 0.00, 133.28, 133.50
GPS, 3, 352967400, 12, 1.68, -33.7850928, 151.0661592, -0.38, 83.02, 0.03, 3.35
CTUN, 382, 0.00, -0.51, 0.000000, 0.00, 0, -29, 436, 0
ATT, 0.00, -3.19, 0.00, -2.74, 0.00, 133.16, 133.50
CTUN, 406, 0.00, -0.25, 0.000000, 0.00, 0, -29, 465, 0
ATT, 0.00, -3.08, 0.00, -2.50, 0.00, 132.90, 133.50
EV, 16
GPS, 3, 352967600, 12, 1.68, -33.7850928, 151.0661592, -0.44, 83.03, 0.06, 3.35
CTUN, 436, 0.00, -0.53, 0.000000, 0.00, 0, -28, 502, 0
ATT, 0.00, -2.97, 0.00, -1.80, 0.00, 132.45, 133.50
CTUN, 455, 0.00, -2.07, 0.000000, 0.00, 0, -24, 525, 0
ATT, 0.00, -2.93, 0.00, -0.21, 0.00, 131.58, 133.50
GPS, 3, 352967800, 12, 1.68, -33.7850927, 151.0661592, -0.59, 83.05, 0.01, 3.35
CTUN, 484, 0.00, -0.72, 0.000000, 0.00, 0, -22, 560, 0
ATT, 0.00, -2.31, 0.00, 3.09, 0.00, 130.21, 133.50
CTUN, 502, 0.00, -0.64, 0.000000, 0.00, 0, -14, 581, 0
ATT, 0.00, -1.13, 0.00, 6.04, 0.00, 128.84, 133.50
CTUN, 499, 0.00, -0.97, 0.000000, 0.00, 0, -6, 578, 0
ATT, 0.00, -0.81, -2.32, 7.64, 0.00, 127.71, 133.50
DU32, 7, 8569
CURR, 499, 5434, 1119, 1315, 4673, 4.271845
PM, 0, 0, 50, 2, 1000, 7348730, 18, 0
CTUN, 499, 0.00, -0.61, 0.000000, 0.00, 0, 3, 578, 0
ATT, 0.00, -0.71, -6.62, 6.22, 0.00, 127.00, 133.50
CTUN, 502, 0.00, 0.00, 0.000000, 0.00, 0, 8, 581, 0
ATT, 0.00, 0.12, -8.33, 2.82, 0.00, 126.43, 133.50
GPS, 3, 352968000, 12, 1.68, -33.7850924, 151.0661591, -0.62, 83.06, 0.13, 3.35
GPS, 3, 352968200, 12, 1.68, -33.7850922, 151.0661589, -0.59, 83.09, 0.12, 3.35
CTUN, 500, 0.00, 0.01, 0.000000, 0.00, 0, 13, 580, 0
ATT, 0.00, 0.78, -9.31, -0.61, 0.00, 126.16, 133.50
GPS, 3, 352968400, 12, 1.68, -33.7850914, 151.0661585, -0.54, 83.18, 0.41, 339.47
CTUN, 500, 0.00, 0.00, 0.000000, 0.00, 0, 18, 580, 0
ATT, 0.00, 0.91, -9.19, -2.62, 0.00, 125.88, 133.50
CTUN, 500, 0.00, 0.31, 0.000000, 0.00, 0, 22, 580, 0
ATT, 0.00, 0.91, -8.82, -3.12, 0.00, 125.83, 133.50
GPS, 3, 352968600, 12, 1.68, -33.7850902, 151.0661579, -0.42, 83.30, 0.63, 334.31
CTUN, 493, 0.00, 0.27, 0.000000, 0.00, 0, 24, 571, 0
ATT, 0.00, 0.27, -8.46, -3.51, 0.00, 125.98, 133.50
CTUN, 489, 0.00, 0.39, 0.000000, 0.00, 0, 22, 566, 0
ATT, 0.00, -1.40, -8.46, -3.81, 0.00, 126.41, 133.50
GPS, 3, 352968800, 12, 1.68, -33.7850893, 151.0661571, -0.29, 83.40, 0.60, 330.54
CTUN, 489, 0.00, 0.43, 0.000000, 0.00, 0, 20, 566, 0
ATT, 0.00, -1.40, -8.46, -3.21, 0.00, 126.94, 133.50
CTUN, 490, 0.00, 0.41, 0.000000, 0.00, 0, 20, 567, 0
ATT, 0.00, -0.36, -8.33, -2.18, 0.00, 127.40, 133.50
GPS, 3, 352969000, 12, 1.68, -33.7850878, 151.0661564, -0.16, 83.49, 0.85, 334.80
CTUN, 489, 0.00, 0.50, 0.000000, 0.00, 0, 18, 566, 0
ATT, 0.00, 0.18, -8.46, -2.76, 0.00, 127.89, 133.50
DU32, 7, 8569
CURR, 489, 11168, 1113, 1228, 4732, 7.857925
CTUN, 489, 0.00, 0.56, 0.000000, 0.00, 0, 18, 566, 0
ATT, 0.00, 0.01, -12.26, -3.80, 0.00, 128.34, 133.50
GPS, 3, 352969200, 12, 1.68, -33.7850869, 151.0661559, -0.05, 83.58, 0.63, 334.21
CTUN, 489, 0.00, 0.66, 0.000000, 0.00, 0, 15, 566, 0
ATT, 0.00, -0.24, -13.11, -6.60, 0.00, 128.81, 133.50
CTUN, 489, 0.00, 0.82, 0.000000, 0.00, 0, 12, 566, 0
ATT, 0.00, -0.12, -12.50, -8.89, 0.00, 129.19, 133.50
GPS, 3, 352969400, 12, 1.68, -33.7850860, 151.0661553, 0.06, 83.66, 0.56, 334.60
CTUN, 489, 0.00, 0.75, 0.000000, 0.00, 0, 11, 566, 0
ATT, 0.00, 0.34, -11.64, -9.68, 0.00, 129.45, 133.50
CTUN, 490, 0.00, 0.79, 0.000000, 0.00, 0, 11, 567, 0
ATT, 0.00, 0.93, -9.07, -8.79, 0.00, 129.60, 133.50
GPS, 3, 352969600, 12, 1.68, -33.7850855, 151.0661550, 0.17, 83.74, 0.36, 335.01
CTUN, 491, 0.00, 0.90, 0.000000, 0.00, 0, 11, 569, 0
ATT, -1.40, 0.94, -7.35, -6.72, 0.00, 129.74, 133.50
CTUN, 489, 0.00, 0.91, 0.000000, 0.00, 0, 13, 566, 0
ATT, 0.00, 0.11, -11.52, -4.28, 0.00, 129.84, 133.50
GPS, 3, 352969800, 12, 1.68, -33.7850852, 151.0661549, 0.28, 83.81, 0.24, 335.72
CTUN, 489, 0.00, 1.46, 0.000000, 0.00, 0, 13, 566, 0
ATT, 0.00, 0.04, -12.50, -5.45, 0.00, 129.95, 133.50
CTUN, 489, 0.00, 1.03, 0.000000, 0.00, 0, 14, 566, 0
ATT, -0.82, -0.14, -11.77, -7.01, 0.00, 130.01, 133.50
GPS, 3, 352970000, 12, 1.68, -33.7850850, 151.0661547, 0.42, 83.87, 0.21, 333.78
CTUN, 490, 0.00, 0.80, 0.000000, 0.00, 0, 14, 567, 0
ATT, -1.28, 0.46, -11.64, -6.80, 0.00, 130.06, 133.50
DU32, 7, 8569
CURR, 490, 16831, 1114, 1243, 4712, 11.36190
CTUN, 490, 0.00, 0.88, 0.000000, 0.00, 0, 15, 567, 0
ATT, -1.28, 0.09, -11.64, -6.20, 0.00, 130.17, 133.50
GPS, 3, 352970200, 12, 1.68, -33.7850850, 151.0661547, 0.50, 83.94, 0.04, 333.78
CTUN, 489, 0.00, 1.21, 0.000000, 0.00, 0, 18, 566, 0
ATT, -1.75, 0.10, -12.62, -5.94, 0.00, 130.33, 133.50
CTUN, 483, 0.00, 1.61, 0.000000, 0.00, 0, 19, 559, 0
ATT, -1.64, 0.15, -13.36, -6.62, 0.00, 130.28, 133.50
GPS, 3, 352970400, 12, 1.68, -33.7850852, 151.0661548, 0.64, 84.01, 0.08, 333.78
CTUN, 483, 0.00, 1.58, 0.000000, 0.00, 0, 18, 559, 0
ATT, -1.75, -0.69, -13.36, -7.33, 0.00, 130.35, 133.50
CTUN, 485, 0.00, 1.45, 0.000000, 0.00, 0, 14, 561, 0
ATT, -2.10, -0.22, -12.62, -7.75, 0.00, 130.47, 133.50
GPS, 3, 352970600, 12, 1.68, -33.7850856, 151.0661550, 0.77, 84.08, 0.21, 333.78
CTUN, 482, 0.00, 1.56, 0.000000, 0.00, 0, 15, 558, 0
ATT, -2.69, 0.10, -12.87, -7.57, 0.00, 130.65, 133.50
CTUN, 483, 0.00, 1.50, 0.000000, 0.00, 0, 15, 559, 0
ATT, -3.04, -0.13, -12.26, -7.35, 0.00, 130.75, 133.50
GPS, 3, 352970800, 12, 1.68, -33.7850863, 151.0661554, 0.89, 84.15, 0.36, 117.86
CTUN, 483, 0.00, 1.63, 0.000000, 0.00, 0, 14, 559, 0
ATT, -3.04, -0.11, -11.52, -6.43, 0.00, 130.64, 133.50
CTUN, 483, 0.00, 1.44, 0.000000, 0.00, 0, 13, 559, 0
ATT, -7.38, -0.37, -11.15, -5.33, 0.00, 130.34, 133.50
GPS, 3, 352971000, 12, 1.68, -33.7850871, 151.0661557, 0.99, 84.20, 0.48, 149.15
CTUN, 483, 0.00, 1.70, 0.000000, 0.00, 0, 12, 559, 0
ATT, -7.03, -2.95, -11.52, -4.46, 0.00, 130.06, 133.50
DU32, 7, 8569
CURR, 483, 22437, 1107, 1245, 4673, 14.81515
CTUN, 483, 0.00, 1.35, 0.000000, 0.00, 0, 12, 559, 0
ATT, -7.03, -5.73, -12.75, -4.47, 0.00, 129.74, 133.50
GPS, 3, 352971200, 12, 1.68, -33.7850882, 151.0661562, 1.07, 84.25, 0.62, 152.91
CTUN, 485, 0.00, 1.32, 0.000000, 0.00, 0, 10, 561, 0
ATT, -4.92, -7.07, -15.81, -5.53, 0.00, 129.44, 133.50
CTUN, 483, 0.00, 1.32, 0.000000, 0.00, 0, 10, 559, 0
ATT, -2.81, -6.36, -17.28, -7.77, 0.00, 129.20, 133.50
GPS, 3, 352971400, 12, 1.68, -33.7850891, 151.0661571, 1.12, 84.30, 0.60, 147.74
CTUN, 485, 0.00, 1.45, 0.000000, 0.00, 0, 7, 561, 0
ATT, -2.10, -4.24, -17.28, -9.39, 0.00, 128.83, 133.50
CTUN, 482, 0.00, 1.65, 0.000000, 0.00, 0, 4, 558, 0
ATT, -0.46, -1.89, -17.77, -9.93, 0.00, 128.62, 133.50
GPS, 3, 352971600, 12, 1.68, -33.7850900, 151.0661583, 1.18, 84.36, 0.73, 139.74
CTUN, 482, 0.00, 1.27, 0.000000, 0.00, 0, 5, 558, 0
ATT, -0.35, 0.72, -18.02, -10.12, 0.00, 128.62, 133.50
CTUN, 461, 0.00, 1.10, 0.000000, 0.00, 0, 2, 532, 0
ATT, -0.93, 2.53, -17.65, -10.56, 0.00, 128.81, 133.50
GPS, 3, 352971800, 12, 1.68, -33.7850910, 151.0661598, 1.19, 84.38, 0.90, 133.68
CTUN, 461, 0.00, 1.86, 0.000000, 0.00, 0, -5, 532, 0
ATT, -2.69, 1.83, -16.06, -11.77, 0.00, 129.26, 133.50
CTUN, 462, 0.00, 1.98, 0.000000, 0.00, 0, -14, 533, 0
ATT, -4.80, -0.66, -13.48, -11.15, 0.00, 129.78, 133.50
GPS, 3, 352972000, 12, 1.68, -33.7850922, 151.0661614, 1.24, 84.41, 0.98, 132.96
CTUN, 461, 0.00, 1.84, 0.000000, 0.00, 0, -21, 532, 0
ATT, -6.21, -3.09, -12.87, -9.36, 0.00, 130.08, 133.50
DU32, 7, 8569
CURR, 461, 27922, 1116, 1121, 4712, 18.15166
CTUN, 461, 0.00, 1.74, 0.000000, 0.00, 0, -28, 532, 0
ATT, -6.09, -4.64, -11.64, -7.49, 0.00, 130.19, 133.50
GPS, 3, 352972200, 12, 1.68, -33.7850938, 151.0661632, 1.25, 84.38, 1.19, 135.24
CTUN, 462, 0.00, 1.48, 0.000000, 0.00, 0, -34, 533, 0
ATT, -5.15, -4.89, -12.38, -5.78, 0.00, 129.98, 133.50
CTUN, 464, 0.00, 1.26, 0.000000, 0.00, 0, -37, 536, 0
ATT, -3.16, -3.69, -9.80, -5.31, 0.00, 129.75, 133.50
GPS, 3, 352972400, 12, 1.68, -33.7850956, 151.0661652, 1.19, 84.35, 1.40, 136.58
CTUN, 464, 0.00, 1.01, 0.000000, 0.00, 0, -40, 536, 0
ATT, -2.10, -2.44, -7.72, -3.75, 0.00, 129.53, 133.50
CTUN, 464, 0.00, 0.86, 0.000000, 0.00, 0, -44, 536, 0
ATT, -2.69, -0.62, -4.16, -1.52, 0.00, 129.32, 133.50
GPS, 3, 352972600, 12, 1.68, -33.7850974, 151.0661674, 1.08, 84.27, 1.39, 134.82
CTUN, 464, 0.00, 1.36, 0.000000, 0.00, 0, -47, 536, 0
ATT, -3.16, 0.46, -2.94, 1.85, 0.00, 129.24, 133.50
CTUN, 474, 0.00, 1.01, 0.000000, 0.00, 0, -50, 548, 0
ATT, -3.75, 0.33, -2.32, 4.57, 0.00, 129.29, 133.50
GPS, 3, 352972800, 12, 1.68, -33.7850991, 151.0661695, 0.99, 84.19, 1.31, 133.72
CTUN, 473, 0.00, 1.35, 0.000000, 0.00, 0, -53, 547, 0
ATT, -2.10, -0.76, -2.32, 5.91, 0.00, 129.37, 133.50
CTUN, 491, 0.00, 1.46, 0.000000, 0.00, 0, -55, 569, 0
ATT, -2.92, -1.70, -1.59, 5.75, 0.00, 129.55, 133.50
GPS, 3, 352973000, 12, 1.68, -33.7851004, 151.0661714, 0.93, 84.09, 1.09, 132.50
CTUN, 499, 0.00, 1.25, 0.000000, 0.00, 0, -54, 578, 0
ATT, -3.04, -2.81, -4.04, 5.76, 0.00, 129.66, 133.50
DU32, 7, 8569
CURR, 517, 33359, 1099, 1302, 4732, 21.45063
CTUN, 520, 0.00, 0.93, 0.000000, 0.00, 0, -52, 596, 0
ATT, -2.46, -3.79, -6.13, 3.97, 0.00, 129.80, 133.50
GPS, 3, 352973200, 12, 1.68, -33.7851011, 151.0661727, 0.85, 83.99, 0.76, 130.18
CTUN, 520, 0.00, 1.12, 0.000000, 0.00, 0, -48, 596, 0
ATT, -0.46, -3.74, -5.64, 2.03, 0.00, 129.85, 133.50
CTUN, 525, 0.00, 0.93, 0.000000, 0.00, 0, -43, 601, 0
ATT, 0.00, -1.93, -4.16, 1.45, 0.00, 129.67, 133.50
GPS, 3, 352973400, 12, 1.68, -33.7851014, 151.0661739, 0.79, 83.92, 0.58, 124.66
CTUN, 547, 0.00, 0.91, 0.000000, 0.00, 0, -38, 619, 0
ATT, 0.00, -0.36, -2.82, 1.62, 0.00, 129.60, 133.50
CTUN, 549, 0.00, 0.77, 0.000000, 0.00, 0, -28, 621, 0
ATT, 0.00, 0.03, 0.00, 2.93, 0.00, 129.68, 133.50
GPS, 3, 352973600, 12, 1.68, -33.7851013, 151.0661750, 0.74, 83.86, 0.48, 110.15
CTUN, 557, 0.00, 0.72, 0.000000, 0.00, 0, -18, 627, 0
ATT, 0.00, -0.39, 0.00, 4.87, 0.00, 129.79, 133.50
CTUN, 559, 0.00, 0.78, 0.000000, 0.00, 0, -10, 629, 0
ATT, 0.00, -0.39, 0.00, 5.24, 0.00, 130.11, 133.50
GPS, 3, 352973800, 12, 1.68, -33.7851009, 151.0661758, 0.72, 83.84, 0.38, 91.96
CTUN, 557, 0.00, 0.84, 0.000000, 0.00, 0, -1, 627, 0
ATT, 0.00, -0.86, 0.00, 4.97, 0.00, 130.38, 133.50
CTUN, 558, 0.00, 0.94, 0.000000, 0.00, 0, 8, 628, 0
ATT, 0.00, -0.96, 0.00, 4.41, 0.00, 130.69, 133.50
GPS, 3, 352974000, 13, 1.64, -33.7851002, 151.0661762, 0.76, 83.86, 0.39, 47.65
CTUN, 556, 0.00, 0.86, 0.000000, 0.00, 0, 17, 627, 0
ATT, 0.00, -1.18, 0.00, 3.88, 0.00, 130.88, 133.50
DU32, 7, 8569
CURR, 557, 39518, 1087, 1449, 4732, 25.40002
CTUN, 558, 0.00, 0.93, 0.000000, 0.00, 0, 26, 628, 0
ATT, 0.00, -1.24, -1.47, 3.59, 0.00, 131.06, 133.50
GPS, 3, 352974200, 13, 1.64, -33.7850991, 151.0661764, 0.82, 83.94, 0.60, 15.74
CTUN, 558, 0.00, 0.86, 0.000000, 0.00, 0, 31, 628, 0
ATT, 0.00, -0.40, -5.02, 2.10, 0.00, 131.01, 133.50
CTUN, 557, 0.00, 0.92, 0.000000, 0.00, 0, 38, 627, 0
ATT, 0.00, 0.53, -7.11, -1.47, 0.00, 130.82, 133.50
GPS, 3, 352974400, 12, 1.68, -33.7850977, 151.0661763, 0.91, 84.01, 0.74, 3.72
CTUN, 557, 0.00, 1.00, 0.000000, 0.00, 0, 45, 627, 0
ATT, 0.00, 0.67, -6.62, -3.97, 0.00, 130.32, 133.50
CTUN, 557, 0.00, 0.88, 0.000000, 0.00, 0, 52, 627, 0
ATT, 0.00, 0.50, -6.13, -4.88, 0.00, 129.91, 133.50
GPS, 3, 352974600, 12, 1.68, -33.7850962, 151.0661762, 1.01, 84.10, 0.77, 358.17
CTUN, 557, 0.00, 1.04, 0.000000, 0.00, 0, 59, 627, 0
ATT, 0.00, 0.55, -5.02, -5.06, 0.00, 129.57, 133.50
CTUN, 558, 0.00, 1.10, 0.000000, 0.00, 0, 66, 628, 0
ATT, 0.00, 1.54, -4.04, -4.49, 0.00, 129.45, 133.50
GPS, 3, 352974800, 12, 1.68, -33.7850951, 151.0661761, 1.15, 84.26, 0.65, 356.18
CTUN, 557, 0.00, 1.22, 0.000000, 0.00, 0, 71, 627, 0
ATT, 0.00, 2.29, -5.02, -3.90, 0.00, 129.48, 133.50
CTUN, 557, 0.00, 1.29, 0.000000, 0.00, 0, 73, 627, 0
ATT, 0.00, 3.08, -6.37, -4.02, 0.00, 129.63, 133.50
GPS, 3, 352975000, 12, 1.68, -33.7850943, 151.0661760, 1.30, 84.41, 0.45, 353.62
CTUN, 501, 0.00, 1.33, 0.000000, 0.00, 0, 77, 580, 0
ATT, 0.00, 3.47, -10.79, -5.17, 0.00, 129.72, 133.50
DU32, 7, 8569
CURR, 498, 45760, 1087, 1431, 4752, 29.42915
CTUN, 494, 0.00, 1.45, 0.000000, 0.00, 0, 77, 572, 0
ATT, 0.00, 3.50, -10.66, -8.22, 0.00, 129.89, 133.50
GPS, 3, 352975200, 12, 1.68, -33.7850938, 151.0661757, 1.46, 84.58, 0.38, 346.92
CTUN, 414, 0.00, 1.49, 0.000000, 0.00, 0, 69, 475, 0
ATT, 0.00, 2.71, -10.29, -9.62, 0.00, 130.09, 133.50
CTUN, 412, 0.00, 1.58, 0.000000, 0.00, 0, 52, 472, 0
ATT, 0.00, 1.98, -10.17, -9.18, 0.00, 130.35, 133.50
GPS, 3, 352975400, 12, 1.68, -33.7850936, 151.0661754, 1.57, 84.74, 0.22, 340.36
CTUN, 413, 0.00, 1.66, 0.000000, 0.00, 0, 30, 474, 0
ATT, 0.00, 1.73, -9.44, -8.54, 0.00, 130.79, 133.50
CTUN, 461, 0.00, 1.66, 0.000000, 0.00, 0, 9, 532, 0
ATT, -2.10, 1.06, -10.66, -8.60, 0.00, 131.17, 133.50
GPS, 3, 352975600, 12, 1.68, -33.7850940, 151.0661752, 1.60, 84.81, 0.19, 340.36
CTUN, 472, 0.00, 1.75, 0.000000, 0.00, 0, -3, 545, 0
ATT, -2.10, -1.58, -10.54, -9.07, 0.00, 131.49, 133.50
CTUN, 487, 0.00, 1.51, 0.000000, 0.00, 0, -11, 564, 0
ATT, -2.57, -3.83, -10.29, -8.58, 0.00, 131.61, 133.50
GPS, 3, 352975800, 12, 1.68, -33.7850946, 151.0661750, 1.58, 84.81, 0.21, 270.05
CTUN, 501, 0.00, 1.69, 0.000000, 0.00, 0, -14, 580, 0
ATT, -3.16, -4.62, -10.05, -8.32, 0.00, 131.72, 133.50
CTUN, 504, 0.00, 1.46, 0.000000, 0.00, 0, -15, 583, 0
ATT, -2.10, -4.74, -9.93, -7.51, 0.00, 131.78, 133.50
GPS, 3, 352976000, 13, 1.64, -33.7850954, 151.0661753, 1.55, 84.80, 0.45, 180.01
CTUN, 512, 0.00, 1.43, 0.000000, 0.00, 0, -13, 590, 0
ATT, -2.92, -3.77, -8.33, -6.68, 0.00, 131.71, 133.50
DU32, 7, 8569
CURR, 512, 51143, 1098, 1303, 4712, 32.60526
CTUN, 512, 0.00, 1.52, 0.000000, 0.00, 0, -11, 590, 0
ATT, -1.99, -2.82, -7.72, -5.68, 0.00, 131.63, 133.50
GPS, 3, 352976200, 12, 1.68, -33.7850965, 151.0661758, 1.52, 84.78, 0.59, 166.31
CTUN, 512, 0.00, 1.61, 0.000000, 0.00, 0, -8, 590, 0
ATT, -1.99, -1.60, -7.84, -4.09, 0.00, 131.33, 133.50
CTUN, 512, 0.00, 1.45, 0.000000, 0.00, 0, -2, 590, 0
ATT, -1.40, -1.64, -7.84, -2.84, 0.00, 130.77, 133.50
GPS, 3, 352976400, 12, 1.68, -33.7850976, 151.0661767, 1.52, 84.77, 0.73, 155.20
CTUN, 512, 0.00, 1.06, 0.000000, 0.00, 0, 3, 590, 0
ATT, -1.52, -3.33, -8.33, -2.47, 0.00, 130.23, 133.50
CTUN, 512, 0.00, 1.32, 0.000000, 0.00, 0, 7, 590, 0
ATT, -1.28, -5.30, -8.82, -2.99, 0.00, 129.83, 133.50
GPS, 3, 352976600, 12, 1.68, -33.7850987, 151.0661777, 1.49, 84.77, 0.78, 149.14
CTUN, 513, 0.00, 1.35, 0.000000, 0.00, 0, 11, 590, 0
ATT, -0.35, -6.08, -8.70, -3.60, 0.00, 129.59, 133.50
CTUN, 512, 0.00, 1.34, 0.000000, 0.00, 0, 14, 590, 0
ATT, 0.00, -4.81, -9.80, -3.57, 0.00, 129.51, 133.50
GPS, 3, 352976800, 12, 1.68, -33.7850996, 151.0661789, 1.50, 84.78, 0.77, 142.77
CTUN, 511, 0.00, 1.52, 0.000000, 0.00, 0, 16, 589, 0
ATT, -1.52, -2.66, -7.84, -4.24, 0.00, 129.75, 133.50
MODE, ALT_HOLD, 578
CTUN, 513, 0.00, 1.48, 1.700000, 0.00, 0, 20, 590, 0
ATT, -0.82, -1.25, -6.98, -3.79, 0.00, 130.15, 133.50
GPS, 3, 352977000, 12, 1.68, -33.7851003, 151.0661804, 1.54, 84.82, 0.83, 132.62
CTUN, 514, 0.00, 1.57, 1.700000, 0.00, 0, 22, 552, 0
ATT, -0.23, 0.32, -5.39, -3.16, 0.00, 130.70, 133.50
DU32, 7, 8569
CURR, 513, 57012, 1096, 1289, 4732, 36.26656
CTUN, 511, 0.00, 1.55, 1.700000, 0.00, 0, 21, 558, 0
ATT, 0.00, 1.41, 0.00, -1.43, 0.00, 131.23, 133.50
GPS, 3, 352977200, 12, 1.68, -33.7851012, 151.0661821, 1.58, 84.87, 0.96, 129.23
CTUN, 511, 0.00, 1.57, 1.700000, 0.00, 0, 18, 551, 0
ATT, 0.00, 1.74, 0.00, 1.88, 0.00, 131.82, 133.50
CTUN, 511, 0.00, 1.57, 1.700000, 0.00, 1, 12, 571, 0
ATT, 0.00, 2.19, 0.00, 3.84, 0.00, 132.34, 133.50
GPS, 3, 352977400, 12, 1.68, -33.7851020, 151.0661835, 1.61, 84.92, 0.82, 128.98
CTUN, 511, 0.00, 1.69, 1.700000, 0.00, 1, 10, 562, 0
ATT, 0.00, 1.89, 0.00, 4.00, 0.00, 132.80, 133.50
CTUN, 511, 0.00, 1.82, 1.700000, 0.00, 1, 6, 579, 0
ATT, 0.00, 1.52, 0.00, 3.79, 0.00, 133.16, 133.50
GPS, 3, 352977600, 12, 1.68, -33.7851026, 151.0661846, 1.64, 84.94, 0.64, 128.33
CTUN, 511, 0.00, 1.72, 1.700000, 0.00, 0, 5, 576, 0
ATT, 0.00, 0.94, 0.00, 3.61, 0.00, 133.40, 133.50
CTUN, 511, 0.00, 1.69, 1.700000, 0.00, 0, 2, 580, 0
ATT, 0.00, 0.05, 0.00, 3.32, 0.00, 133.63, 133.50
GPS, 3, 352977800, 13, 1.64, -33.7851030, 151.0661853, 1.65, 84.97, 0.45, 127.90
CTUN, 513, 0.00, 1.62, 1.700000, 0.00, 0, 2, 581, 0
ATT, 0.00, -0.52, 0.00, 3.10, 0.00, 133.76, 133.50
CTUN, 513, 0.00, 1.57, 1.700000, 0.00, 0, 1, 582, 0
ATT, 0.00, -0.89, 0.00, 2.73, 0.00, 133.76, 133.50
GPS, 3, 352978000, 13, 1.64, -33.7851032, 151.0661858, 1.65, 84.99, 0.27, 126.58
CTUN, 512, 0.00, 1.56, 1.700000, 0.00, 0, 2, 590, 0
ATT, 0.00, -1.00, 0.00, 2.33, 0.00, 133.79, 133.50
DU32, 7, 8569
CURR, 511, 62721, 1096, 1296, 4732, 39.70647
PM, 0, 0, 51, 0, 1000, 10303, 10, 0
CTUN, 511, 0.00, 1.60, 1.700000, 0.00, 0, 1, 588, 0
ATT, 0.00, -0.95, 0.00, 2.03, 0.00, 133.71, 133.50
GPS, 3, 352978200, 13, 1.64, -33.7851032, 151.0661861, 1.64, 85.00, 0.14, 126.58
CTUN, 511, 0.00, 1.60, 1.700000, 0.00, 0, 1, 592, 0
ATT, 0.00, -1.03, 0.00, 1.78, 0.00, 133.72, 133.50
CTUN, 511, 0.00, 1.55, 1.700000, 0.00, 0, 2, 594, 0
ATT, 0.00, -0.87, 0.00, 1.45, 0.00, 133.77, 133.50
GPS, 3, 352978400, 13, 1.64, -33.7851030, 151.0661863, 1.64, 85.01, 0.11, 126.58
CTUN, 511, 0.00, 1.60, 1.700000, 0.00, 0, 3, 585, 0
ATT, 0.00, -0.50, 0.00, 1.26, 0.00, 133.88, 133.50
CTUN, 511, 0.00, 1.64, 1.700000, 0.00, 0, 4, 584, 0
ATT, 0.00, 0.03, 0.00, 1.15, 0.00, 134.00, 133.50
GPS, 3, 352978600, 12, 1.68, -33.7851027, 151.0661864, 1.65, 85.02, 0.16, 126.58
CTUN, 512, 0.00, 1.46, 1.700000, 0.00, 0, 4, 590, 0
ATT, 0.00, 0.48, 0.00, 1.03, 0.00, 133.99, 133.50
CTUN, 511, 0.00, 1.57, 1.700000, 0.00, 0, 4, 586, 0
ATT, 0.00, 0.69, 0.00, 0.81, 0.00, 133.93, 133.50
GPS, 3, 352978800, 12, 1.68, -33.7851023, 151.0661864, 1.64, 85.04, 0.19, 64.73
CTUN, 511, 0.00, 1.43, 1.700000, 0.00, 0, 4, 589, 0
ATT, 0.00, 0.92, 0.00, 0.64, 0.00, 133.68, 133.50
CTUN, 511, 0.00, 1.48, 1.700000, 0.00, 0, 4, 592, 0
ATT, 0.00, 0.77, 0.00, 0.49, 0.00, 133.28, 133.50
GPS, 3, 352979000, 12, 1.68, -33.7851018, 151.0661863, 1.63, 85.05, 0.22, 14.33
CTUN, 511, 0.00, 1.42, 1.700000, 0.00, 0, 3, 600, 0
ATT, 0.00, 0.32, 0.00, 0.59, 0.00, 132.94, 133.50
DU32, 7, 8569
CURR, 511, 68641, 1089, 1324, 4752, 43.29710
CTUN, 511, 0.00, 1.57, 1.700000, 0.00, 0, 3, 607, 0
ATT, 0.00, -0.14, 0.00, 0.63, 0.00, 132.63, 133.50
GPS, 3, 352979200, 12, 1.68, -33.7851013, 151.0661860, 1.62, 85.06, 0.26, 350.03
CTUN, 511, 0.00, 1.47, 1.700000, 0.00, 0, 5, 596, 0
ATT, 0.00, -0.56, 0.00, 0.71, 0.00, 132.38, 133.50
CTUN, 511, 0.00, 1.53, 1.700000, 0.00, 0, 6, 597, 0
ATT, 0.00, -0.49, 0.00, 0.74, 0.00, 132.20, 133.50
GPS, 3, 352979400, 12, 1.68, -33.7851008, 151.0661856, 1.62, 85.09, 0.31, 335.61
CTUN, 511, 0.00, 1.48, 1.700000, 0.00, 0, 8, 585, 0
ATT, 0.00, -0.35, 0.00, 0.69, 0.00, 132.05, 133.50
CTUN, 512, 0.00, 1.40, 1.700000, 0.00, 0, 8, 588, 0
ATT, 0.00, -0.04, 0.00, 0.41, 0.00, 131.92, 133.50
GPS, 3, 352979600, 12, 1.68, -33.7851002, 151.0661852, 1.62, 85.12, 0.36, 328.27
CTUN, 511, 0.00, 1.55, 1.700000, 0.00, 0, 7, 594, 0
ATT, 0.00, 0.32, 0.00, 0.23, 0.00, 131.92, 133.50
CTUN, 511, 0.00, 1.53, 1.700000, 0.00, 0, 7, 592, 0
ATT, 0.00, 0.60, 0.00, 0.13, 0.00, 132.02, 133.50
GPS, 3, 352979800, 12, 1.68, -33.7850997, 151.0661847, 1.62, 85.14, 0.36, 321.98
CTUN, 511, 0.00, 1.34, 1.700000, 0.00, 0, 7, 591, 0
ATT, 0.00, 0.68, 0.00, 0.21, 0.00, 132.16, 133.50
CTUN, 511, 0.00, 1.52, 1.700000, 0.00, 0, 6, 593, 0
ATT, 0.00, 0.70, 0.00, 0.26, 0.00, 132.33, 133.50
GPS, 3, 352980000, 12, 1.68, -33.7850991, 151.0661840, 1.61, 85.18, 0.44, 317.23
CTUN, 511, 0.00, 1.47, 1.700000, 0.00, 0, 7, 595, 0
ATT, 0.00, 0.49, 0.00, 0.41, 0.00, 132.40, 133.50
DU32, 7, 8569
CURR, 511, 74575, 1085, 1298, 4732, 46.93000
CTUN, 512, 0.00, 1.55, 1.700000, 0.00, 0, 6, 599, 0
ATT, 0.00, -0.15, 0.00, 0.41, 0.00, 132.47, 133.50
GPS, 3, 352980200, 12, 1.68, -33.7850985, 151.0661833, 1.61, 85.21, 0.49, 313.28
CTUN, 511, 0.00, 1.55, 1.700000, 0.00, 0, 7, 593, 0
ATT, 0.00, -0.78, 0.00, 0.42, 0.00, 132.50, 133.50
CTUN, 514, 0.00, 1.64, 1.700000, 0.00, 0, 6, 596, 0
ATT, 0.00, -0.35, 0.00, 0.58, 0.00, 132.34, 133.50
GPS, 3, 352980400, 12, 1.68, -33.7850978, 151.0661823, 1.62, 85.24, 0.55, 309.18
CTUN, 511, 0.00, 1.46, 1.700000, 0.00, 0, 6, 595, 0
ATT, 0.00, 0.38, 0.00, 0.54, 0.00, 132.22, 133.50
CTUN, 511, 0.00, 1.51, 1.700000, 0.00, 0, 5, 605, 0
ATT, 0.00, 0.67, 0.00, 0.20, 0.00, 132.02, 133.50
GPS, 3, 352980600, 13, 1.64, -33.7850972, 151.0661813, 1.62, 85.28, 0.58, 307.38
CTUN, 511, 0.00, 1.72, 1.700000, 0.00, 0, 6, 596, 0
ATT, 0.00, 0.83, 0.00, 0.12, 0.00, 131.86, 133.50
CTUN, 512, 0.00, 1.60, 1.700000, 0.00, 0, 6, 593, 0
ATT, 0.00, 0.93, 0.00, 0.04, 0.00, 131.73, 133.50
GPS, 3, 352980800, 13, 1.64, -33.7850966, 151.0661802, 1.64, 85.30, 0.63, 304.49
CTUN, 511, 0.00, 1.55, 1.700000, 0.00, 0, 5, 599, 0
ATT, 0.00, 0.82, 0.00, 0.15, 0.00, 131.61, 133.50
CTUN, 512, 0.00, 1.61, 1.700000, 0.00, 0, 4, 598, 0
ATT, 0.00, 1.18, 0.00, 0.23, 0.00, 131.43, 133.50
GPS, 3, 352981000, 13, 1.64, -33.7850960, 151.0661789, 1.64, 85.32, 0.68, 300.25
CTUN, 511, 0.00, 1.59, 1.700000, 0.00, 0, 3, 601, 0
ATT, 0.00, 1.20, 0.00, 0.36, 0.00, 131.18, 133.50
DU32, 7, 8569
CURR, 512, 80554, 1086, 1347, 4712, 50.61246
CTUN, 511, 0.00, 1.71, 1.700000, 0.00, 0, 4, 598, 0
ATT, 0.00, 0.68, 0.00, 0.44, 0.00, 130.95, 133.50
GPS, 3, 352981200, 13, 1.64, -33.7850953, 151.0661773, 1.65, 85.34, 0.79, 297.78
CTUN, 512, 0.00, 1.68, 1.700000, 0.00, 0, 4, 601, 0
ATT, 0.00, -0.03, 0.00, 0.53, 0.00, 130.60, 133.50
CTUN, 511, 0.00, 1.67, 1.700000, 0.00, 0, 4, 596, 0
ATT, 0.00, -0.52, 0.00, 0.38, 0.00, 130.32, 133.50
GPS, 3, 352981400, 13, 1.64, -33.7850948, 151.0661756, 1.66, 85.36, 0.85, 293.92
CTUN, 511, 0.00, 1.51, 1.700000, 0.00, 0, 2, 603, 0
ATT, 0.00, -0.73, 0.00, 0.29, 0.00, 129.92, 133.50
CTUN, 512, 0.00, 1.66, 1.700000, 0.00, 0, 3, 598, 0
ATT, 0.00, -0.91, 0.00, 0.43, 0.00, 129.49, 133.50
GPS, 3, 352981600, 13, 1.64, -33.7850941, 151.0661738, 1.66, 85.37, 0.87, 293.65
CTUN, 512, 0.00, 1.66, 1.700000, 0.00, 0, 3, 596, 0
ATT, -0.46, -1.38, -3.06, 0.63, 0.00, 129.08, 133.50
CTUN, 511, 0.00, 1.57, 1.700000, 0.00, 0, 4, 587, 0
ATT, -3.04, -2.13, -6.49, -0.39, 0.00, 128.76, 133.50
GPS, 3, 352981800, 12, 1.67, -33.7850935, 151.0661721, 1.66, 85.38, 0.89, 292.66
CTUN, 511, 0.00, 1.65, 1.700000, 0.00, 1, 4, 593, 0
ATT, -3.51, -4.34, -7.35, -3.86, 0.00, 128.74, 133.50
CTUN, 511, 0.00, 1.52, 1.700000, 0.00, 4, 4, 595, 0
ATT, -5.15, -5.62, -7.35, -5.58, 0.00, 128.90, 133.50
GPS, 3, 352982000, 12, 1.67, -33.7850929, 151.0661704, 1.66, 85.39, 0.84, 294.02
CTUN, 511, 0.00, 1.55, 1.700000, 0.00, 5, 3, 598, 0
ATT, -6.79, -5.91, -6.74, -6.21, 0.00, 129.30, 133.50
DU32, 7, 8569
CURR, 511, 86520, 1082, 1325, 4732, 54.29385
CTUN, 512, 0.00, 1.69, 1.700000, 0.00, 5, 2, 608, 0
ATT, -6.91, -6.10, -6.74, -6.16, 0.00, 130.02, 133.50
GPS, 3, 352982200, 12, 1.67, -33.7850922, 151.0661691, 1.66, 85.40, 0.71, 297.01
CTUN, 512, 0.00, 1.67, 1.700000, 0.00, 5, 1, 610, 0
ATT, -7.14, -5.74, -6.49, -5.95, 0.00, 130.85, 133.50
CTUN, 512, 0.00, 1.59, 1.700000, 0.00, 4, 2, 604, 0
ATT, -7.73, -5.07, -6.25, -5.61, 0.00, 131.74, 133.50
GPS, 3, 352982400, 12, 1.67, -33.7850916, 151.0661682, 1.66, 85.40, 0.52, 300.98
CTUN, 512, 0.00, 1.66, 1.700000, 0.00, 3, 1, 608, 0
ATT, -7.85, -4.73, -6.49, -5.38, 0.00, 132.42, 133.50
CTUN, 511, 0.00, 1.63, 1.700000, 0.00, 3, 2, 610, 0
ATT, -7.73, -4.38, -6.49, -5.37, 0.00, 132.81, 133.50
GPS, 3, 352982600, 12, 1.67, -33.7850911, 151.0661677, 1.66, 85.41, 0.31, 305.90
CTUN, 511, 0.00, 1.59, 1.700000, 0.00, 3, 2, 603, 0
ATT, -7.73, -4.62, -6.74, -5.31, 0.00, 132.71, 133.50
CTUN, 511, 0.00, 1.64, 1.700000, 0.00, 3, 1, 610, 0
ATT, -7.85, -5.42, -6.98, -5.25, 0.00, 132.20, 133.50
GPS, 3, 352982800, 12, 1.67, -33.7850908, 151.0661677, 1.66, 85.43, 0.17, 319.31
CTUN, 511, 0.00, 1.65, 1.700000, 0.00, 5, 1, 613, 0
ATT, -7.73, -6.64, -7.23, -5.22, 0.00, 131.58, 133.50
CTUN, 511, 0.00, 1.73, 1.700000, 0.00, 5, 5, 594, 0
ATT, -6.67, -7.39, -7.72, -5.31, 0.00, 131.23, 133.50
GPS, 3, 352983000, 12, 1.68, -33.7850906, 151.0661680, 1.67, 85.44, 0.19, 0.21
CTUN, 511, 0.00, 1.83, 1.700000, 0.00, 5, 5, 590, 0
ATT, -5.15, -6.79, -8.95, -5.70, 0.00, 131.17, 133.50
DU32, 7, 8569
CURR, 511, 92570, 1086, 1268, 4752, 58.01970
CTUN, 511, 0.00, 1.84, 1.700000, 0.00, 4, 3, 596, 0
ATT, -5.15, -4.71, -8.70, -6.19, 0.00, 131.33, 133.50
GPS, 3, 352983200, 12, 1.68, -33.7850905, 151.0661689, 1.70, 85.45, 0.40, 59.80
CTUN, 512, 0.00, 1.84, 1.700000, 0.00, 3, 3, 581, 0
ATT, -5.74, -3.82, -7.72, -6.04, 0.00, 131.69, 133.50
CTUN, 511, 0.00, 1.72, 1.700000, 0.00, 3, 2, 581, 0
ATT, -5.62, -3.98, -7.47, -5.63, 0.00, 132.09, 133.50
GPS, 3, 352983400, 12, 1.68, -33.7850903, 151.0661702, 1.71, 85.48, 0.57, 72.53
CTUN, 511, 0.00, 1.87, 1.700000, 0.00, 3, 0, 593, 0
ATT, -5.03, -4.40, -7.35, -4.99, 0.00, 132.56, 133.50
CTUN, 511, 0.00, 2.01, 1.700000, 0.00, 2, -2, 590, 0
ATT, -3.98, -4.44, -7.11, -4.09, 0.00, 132.97, 133.50
GPS, 3, 352983600, 12, 1.68, -33.7850904, 151.0661717, 1.73, 85.47, 0.69, 83.43
CTUN, 511, 0.00, 2.00, 1.700000, 0.00, 1, -3, 584, 0
ATT, -0.93, -3.64, -7.47, -3.50, 0.00, 133.27, 133.50
CTUN, 511, 0.00, 2.07, 1.700000, 0.00, 1, -3, 586, 0
ATT, -0.82, -1.51, -7.35, -3.40, 0.00, 133.48, 133.50
GPS, 3, 352983800, 12, 1.68, -33.7850904, 151.0661735, 1.76, 85.48, 0.80, 86.88
CTUN, 512, 0.00, 2.09, 1.700000, 0.00, 0, -6, 588, 0
ATT, -0.82, -0.43, -6.98, -3.07, 0.00, 133.69, 133.50
CTUN, 511, 0.00, 1.96, 1.700000, 0.00, 0, -8, 589, 0
ATT, -1.40, -0.11, -6.25, -2.74, 0.00, 133.84, 133.50
GPS, 3, 352984000, 12, 1.68, -33.7850903, 151.0661753, 1.78, 85.49, 0.83, 86.41
CTUN, 511, 0.00, 1.94, 1.700000, 0.00, 0, -8, 582, 0
ATT, -1.40, 0.34, -1.47, -2.10, 0.00, 133.86, 133.50
DU32, 7, 8569
CURR, 511, 98452, 1091, 1247, 4732, 61.56019
CTUN, 511, 0.00, 1.87, 1.700000, 0.00, 0, -10, 589, 0
ATT, 0.00, 0.16, 0.00, 0.72, 0.00, 133.74, 133.50
GPS, 3, 352984200, 12, 1.68, -33.7850905, 151.0661771, 1.77, 85.48, 0.83, 92.72
CTUN, 511, 0.00, 2.03, 1.700000, 0.00, 0, -11, 598, 0
ATT, 0.00, 0.86, 0.00, 3.22, 0.00, 133.48, 133.50
CTUN, 511, 0.00, 1.94, 1.700000, 0.00, 1, -12, 611, 0
ATT, 0.00, 1.19, 0.00, 3.79, 0.00, 133.28, 133.50
GPS, 3, 352984400, 12, 1.68, -33.7850906, 151.0661786, 1.77, 85.46, 0.69, 93.06
CTUN, 511, 0.00, 1.68, 1.700000, 0.00, 1, -12, 612, 0
ATT, 0.00, 0.92, 0.00, 3.86, 0.00, 133.08, 133.50
CTUN, 512, 0.00, 1.80, 1.700000, 0.00, 1, -10, 599, 0
ATT, 0.00, 0.30, -0.98, 3.64, 0.00, 132.95, 133.50
GPS, 3, 352984600, 12, 1.68, -33.7850906, 151.0661798, 1.75, 85.43, 0.54, 91.17
CTUN, 511, 0.00, 1.78, 1.700000, 0.00, 0, -10, 611, 0
ATT, 0.00, 0.33, -1.47, 2.83, 0.00, 132.95, 133.50
CTUN, 512, 0.00, 1.77, 1.700000, 0.00, 0, -8, 611, 0
ATT, -1.64, 0.99, -2.20, 1.65, 0.00, 133.10, 133.50
GPS, 3, 352984800, 12, 1.68, -33.7850904, 151.0661806, 1.74, 85.41, 0.36, 84.85
CTUN, 511, 0.00, 1.73, 1.700000, 0.00, 0, -6, 609, 0
ATT, -1.75, 0.91, -2.82, 0.56, 0.00, 133.45, 133.50
CTUN, 511, 0.00, 1.62, 1.700000, 0.00, 0, -7, 618, 0
ATT, -4.45, 0.24, -2.45, -0.60, 0.00, 133.81, 133.50
GPS, 3, 352985000, 12, 1.68, -33.7850900, 151.0661810, 1.72, 85.39, 0.29, 66.57
CTUN, 511, 0.00, 1.66, 1.700000, 0.00, 0, -5, 612, 0
ATT, -5.74, -0.67, -2.69, -0.70, 0.00, 134.26, 133.50
DU32, 7, 8569
CURR, 511, 104534, 1078, 1389, 4772, 65.26743
CTUN, 511, 0.00, 1.60, 1.700000, 0.00, 0, -5, 627, 0
ATT, -6.91, -2.29, -3.06, -0.73, 0.00, 134.59, 133.50
GPS, 3, 352985200, 12, 1.68, -33.7850897, 151.0661812, 1.70, 85.36, 0.18, 66.57
CTUN, 512, 0.00, 1.66, 1.700000, 0.00, 1, -3, 615, 0
ATT, -6.91, -4.13, -3.55, -1.31, 0.00, 134.87, 133.50
CTUN, 511, 0.00, 1.57, 1.700000, 0.00, 1, -2, 623, 0
ATT, -6.09, -4.94, -4.16, -1.72, 0.00, 134.98, 133.50
GPS, 3, 352985400, 13, 1.64, -33.7850893, 151.0661813, 1.68, 85.34, 0.17, 66.57
CTUN, 513, 0.00, 1.53, 1.700000, 0.00, 2, 0, 615, 0
ATT, -4.45, -5.55, -6.13, -2.42, 0.00, 134.99, 133.50
CTUN, 511, 0.00, 1.60, 1.700000, 0.00, 3, -2, 639, 0
ATT, -3.86, -5.31, -6.98, -3.92, 0.00, 134.63, 133.50
GPS, 3, 352985600, 13, 1.64, -33.7850890, 151.0661815, 1.67, 85.34, 0.21, 66.57
CTUN, 513, 0.00, 1.77, 1.700000, 0.00, 3, 0, 629, 0
ATT, -4.10, -4.84, -6.98, -4.36, 0.00, 134.26, 133.50
CTUN, 512, 0.00, 1.70, 1.700000, 0.00, 2, 2, 612, 0
ATT, -3.75, -3.97, -7.84, -3.92, 0.00, 133.99, 133.50
GPS, 3, 352985800, 13, 1.64, -33.7850886, 151.0661819, 1.68, 85.33, 0.29, 56.02
CTUN, 512, 0.00, 1.74, 1.700000, 0.00, 2, 3, 612, 0
ATT, -3.28, -3.71, -8.46, -3.69, 0.00, 133.91, 133.50
CTUN, 513, 0.00, 1.90, 1.700000, 0.00, 1, 3, 611, 0
ATT, -3.39, -3.24, -8.58, -3.87, 0.00, 133.82, 133.50
GPS, 3, 352986000, 13, 1.64, -33.7850882, 151.0661826, 1.70, 85.33, 0.34, 55.81
CTUN, 512, 0.00, 1.80, 1.700000, 0.00, 1, 3, 605, 0
ATT, -3.86, -2.80, -7.72, -3.37, 0.00, 133.62, 133.50
DU32, 7, 8569
CURR, 511, 110724, 1079, 1360, 4732, 69.08212
CTUN, 511, 0.00, 2.07, 1.700000, 0.00, 1, 3, 592, 0
ATT, -3.98, -2.17, -7.72, -3.66, 0.00, 133.63, 133.50
GPS, 3, 352986200, 13, 1.64, -33.7850880, 151.0661834, 1.74, 85.35, 0.39, 64.40
CTUN, 511, 0.00, 1.97, 1.700000, 0.00, 1, 2, 587, 0
ATT, -0.46, -2.10, -5.39, -3.92, 0.00, 133.59, 133.50
CTUN, 513, 0.00, 1.69, 1.700000, 0.00, 0, 0, 583, 0
ATT, 0.00, -1.29, -4.04, -3.10, 0.00, 133.52, 133.50
GPS, 3, 352986400, 13, 1.64, -33.7850877, 151.0661841, 1.75, 85.37, 0.36, 65.23
CTUN, 512, 0.00, 1.84, 1.700000, 0.00, 0, -4, 597, 0
ATT, 0.00, 0.51, -3.18, -1.82, 0.00, 133.57, 133.50
CTUN, 512, 0.00, 1.71, 1.700000, 0.00, 0, -8, 617, 0
ATT, 0.00, 1.67, -2.32, -1.34, 0.00, 133.81, 133.50
GPS, 3, 352986600, 13, 1.64, -33.7850876, 151.0661848, 1.73, 85.36, 0.31, 70.40
CTUN, 513, 0.00, 1.81, 1.700000, 0.00, 0, -9, 622, 0
ATT, 0.00, 1.82, 0.00, -1.10, 0.00, 134.19, 133.50
CTUN, 513, 0.00, 1.72, 1.700000, 0.00, 0, -8, 614, 0
ATT, 0.00, 1.18, 0.00, 0.63, 0.00, 134.75, 133.50
GPS, 3, 352986800, 12, 1.68, -33.7850875, 151.0661853, 1.72, 85.34, 0.24, 70.40
CTUN, 511, 0.00, 1.75, 1.700000, 0.00, 0, -7, 623, 0
ATT, 0.00, 0.93, 0.00, 1.08, 0.00, 135.26, 133.50
CTUN, 512, 0.00, 1.67, 1.700000, 0.00, 0, -3, 607, 0
ATT, 0.00, 0.82, 0.00, 0.98, 0.00, 135.62, 133.50
GPS, 3, 352987000, 12, 1.68, -33.7850875, 151.0661855, 1.71, 85.33, 0.09, 70.40
CTUN, 512, 0.00, 1.62, 1.700000, 0.00, 0, -3, 618, 0
ATT, 0.00, 0.37, 0.00, 0.61, 0.00, 135.79, 133.50
DU32, 7, 8569
CURR, 512, 116778, 1079, 1303, 4752, 72.74102
CTUN, 513, 0.00, 1.64, 1.700000, 0.00, 0, -1, 611, 0
ATT, 0.00, -0.14, 0.00, 0.57, 0.00, 135.75, 133.50
GPS, 3, 352987200, 12, 1.68, -33.7850874, 151.0661854, 1.70, 85.32, 0.03, 70.40
CTUN, 511, 0.00, 1.62, 1.700000, 0.00, 0, 0, 603, 0
ATT, 0.00, -1.21, 0.00, 0.34, 0.00, 135.82, 133.50
CTUN, 511, 0.00, 1.55, 1.700000, 0.00, 0, 0, 610, 0
ATT, 0.00, -1.45, 0.00, 0.10, 0.00, 136.06, 133.50
GPS, 3, 352987400, 12, 1.68, -33.7850874, 151.0661852, 1.69, 85.33, 0.09, 70.40
CTUN, 513, 0.00, 1.65, 1.700000, 0.00, 0, 0, 606, 0
ATT, 0.00, -0.81, 0.00, 0.02, 0.00, 136.22, 133.50
CTUN, 513, 0.00, 1.51, 1.700000, 0.00, 0, 1, 607, 0
ATT, 0.00, -0.56, 0.00, 0.05, 0.00, 136.36, 133.50
GPS, 3, 352987600, 12, 1.68, -33.7850874, 151.0661850, 1.68, 85.33, 0.11, 70.40
CTUN, 511, 0.00, 1.54, 1.700000, 0.00, 0, 1, 608, 0
ATT, 0.00, -0.59, 0.00, -0.30, 0.00, 136.33, 133.50
CTUN, 511, 0.00, 1.37, 1.700000, 0.00, 0, 0, 615, 0
ATT, 0.00, -0.49, 0.00, -0.52, 0.00, 136.16, 133.50
GPS, 3, 352987800, 12, 1.68, -33.7850875, 151.0661847, 1.65, 85.34, 0.13, 70.40
CTUN, 512, 0.00, 1.42, 1.700000, 0.00, 0, 2, 611, 0
ATT, 0.00, -0.32, 0.00, -0.74, 0.00, 135.81, 133.50
CTUN, 512, 0.00, 1.53, 1.700000, 0.00, 0, 4, 611, 0
ATT, 0.00, -0.70, 0.00, -0.98, 0.00, 135.37, 133.50
GPS, 3, 352988000, 12, 1.68, -33.7850876, 151.0661845, 1.64, 85.34, 0.15, 70.40
CTUN, 512, 0.00, 1.49, 1.700000, 0.00, 0, 7, 600, 0
ATT, 0.00, -0.85, 0.00, -0.70, 0.00, 134.76, 133.50
DU32, 7, 8569
CURR, 512, 122847, 1076, 1343, 4712, 76.42217
PM, 0, 0, 50, 0, 1000, 10232, 9, 0
CTUN, 511, 0.00, 1.50, 1.700000, 0.00, 0, 8, 595, 0
ATT, 0.00, -1.26, 0.00, -0.37, 0.00, 134.16, 133.50
GPS, 3, 352988200, 12, 1.68, -33.7850878, 151.0661842, 1.64, 85.36, 0.20, 70.40
CTUN, 511, 0.00, 1.55, 1.700000, 0.00, 0, 8, 597, 0
ATT, 0.00, -1.71, 0.00, -0.19, 0.00, 133.62, 133.50
CTUN, 512, 0.00, 1.59, 1.700000, 0.00, 0, 8, 594, 0
ATT, 0.00, -1.85, 0.00, -0.18, 0.00, 133.33, 133.50
GPS, 3, 352988400, 12, 1.68, -33.7850881, 151.0661839, 1.64, 85.39, 0.23, 132.65
CTUN, 512, 0.00, 1.54, 1.700000, 0.00, 0, 7, 595, 0
ATT, 0.00, -1.72, 0.00, 0.01, 0.00, 133.18, 133.50
CTUN, 513, 0.00, 1.49, 1.700000, 0.00, 0, 6, 589, 0
ATT, 0.00, -1.27, 0.00, 0.67, 0.00, 133.24, 133.50
EV, 30
GPS, 3, 352988600, 12, 1.68, -33.7850884, 151.0661836, 1.64, 85.40, 0.20, 132.65
CTUN, 512, 0.00, 1.57, 1.700000, 0.00, 0, 4, 602, 0
ATT, 0.00, -0.95, 0.00, 1.23, 0.00, 133.42, 133.50
CTUN, 511, 0.00, 1.58, 1.700000, 0.00, 0, 2, 609, 0
ATT, 0.00, -0.93, 0.00, 1.21, 0.00, 133.89, 133.50
GPS, 3, 352988800, 12, 1.68, -33.7850886, 151.0661834, 1.64, 85.42, 0.18, 132.65
CTUN, 511, 0.00, 1.68, 1.700000, 0.00, 0, 2, 614, 0
ATT, 0.00, -0.79, 0.00, 0.79, 0.00, 134.34, 133.50
ATDE, 0.63, 918.6897
ATDE, 0.54, 900.3971
ATDE, 0.45, 927.8361
ATDE, 0.39, 641.2522
ATDE, 0.36, 266.2542
ATDE, 0.40, 441.0592
ATDE, 0.57, 1684.955
CTUN, 512, 0.00, 1.68, 1.700000, 0.00, 0, 4, 599, 0
ATDE, 0.87, 2995.924
ATDE, 1.31, 4437.989
ATT, 0.00, -1.31, 0.00, 0.17, 0.00, 134.77, 133.50
ATDE, 1.85, 5346.521
ATDE, 2.45, 5983.713
ATDE, 3.06, 6090.420
ATDE, 3.67, 6181.883
ATDE, 4.30, 6294.688
ATDE, 4.96, 6523.345
GPS, 3, 352989000, 12, 1.68, -33.7850888, 151.0661831, 1.65, 85.43, 0.17, 132.65
ATDE, 5.61, 6545.083
ATDE, 6.27, 6523.742
CTUN, 512, 0.00, 1.52, 1.700000, 0.00, 2, 3, 605, 0
ATDE, 6.93, 6587.766
ATDE, 7.60, 6724.959
ATT, 0.00, -7.60, 0.00, -0.80, 0.00, 135.09, 133.50
ATDE, 8.29, 6898.740
ATDE, 9.01, 7188.373
ATDE, 9.76, 7529.834
ATDE, 10.53, 7673.126
DU32, 7, 143737
CURR, 512, 128855, 1082, 1248, 4732, 80.02552
ATDE, 11.30, 7764.588
ATDE, 12.07, 7663.980
ATDE, 12.83, 7578.614
ATDE, 13.56, 7295.079
CTUN, 511, 0.00, 1.51, 1.700000, 0.00, 14, 1, 633, 0
ATDE, 14.30, 7435.322
ATDE, 15.06, 7529.834
ATT, 0.00, -15.06, 0.00, -0.86, 0.00, 135.22, 133.50
ATDE, 15.82, 7697.516
ATDE, 16.60, 7776.784
ATDE, 17.38, 7785.930
ATDE, 18.17, 7856.052
ATDE, 18.96, 7898.735
ATDE, 19.76, 8048.124
GPS, 3, 352989200, 12, 1.68, -33.7850889, 151.0661828, 1.64, 85.43, 0.14, 132.65
ATDE, 20.58, 7965.476
ATUN, 0, 0, 7965.476, 8048.124, 0.060000, 0.004000, 6.750000
CTUN, 511, 0.00, 1.46, 1.700000, 0.00, 36, 0, 659, 0
ATT, 0.00, -22.99, 0.00, -1.10, 0.00, 135.34, 133.50
CTUN, 511, 0.00, 1.51, 1.700000, 0.00, 43, 4, 649, 0
ATT, 0.00, -21.59, 0.00, -0.90, 0.00, 134.80, 133.50
GPS, 3, 352989400, 12, 1.68, -33.7850888, 151.0661833, 1.63, 85.44, 0.22, 132.65
CTUN, 512, 0.00, 1.61, 1.700000, 0.00, 11, 8, 605, 0
ATT, 0.00, -10.37, 0.00, -0.17, 0.00, 134.03, 133.50
CTUN, 513, 0.00, 1.72, 1.700000, 0.00, 1, 8, 598, 0
ATT, 0.00, -2.77, 0.00, -0.35, 0.00, 133.91, 133.50
GPS, 3, 352989600, 12, 1.68, -33.7850883, 151.0661849, 1.65, 85.45, 0.78, 76.78
CTUN, 513, 0.00, 1.76, 1.700000, 0.00, 0, 6, 605, 0
ATT, 0.00, 0.71, 0.00, -0.84, 0.00, 133.83, 133.50
CTUN, 511, 0.00, 1.56, 1.700000, 0.00, 0, 4, 601, 0
ATT, 0.00, 2.44, 0.00, -1.04, 0.00, 133.79, 133.50
ATDE, 2.90, 743.5438
GPS, 3, 352989800, 12, 1.68, -33.7850878, 151.0661870, 1.66, 85.46, 1.03, 73.84
ATDE, 2.96, 547.3060
ATDE, 2.99, 361.3313
CTUN, 513, 0.00, 1.71, 1.700000, 0.00, 0, 2, 607, 0
ATDE, 3.01, 114.3814
ATDE, 3.06, 583.8912
ATT, 0.00, 3.06, 0.00, -1.33, 0.00, 133.87, 133.50
ATDE, 3.23, 1638.764
ATDE, 3.56, 3303.389
ATDE, 4.03, 4751.552
ATDE, 4.66, 6291.177
ATDE, 5.41, 7452.757
ATDE, 6.24, 8355.191
ATDE, 7.13, 8812.505
ATDE, 8.53, 9334.861
CTUN, 513, 0.00, 1.61, 1.700000, 0.00, 5, 1, 612, 0
ATDE, 9.43, 9050.310
ATDE, 10.31, 8842.993
ATT, 0.00, 10.31, 0.00, -1.33, 0.00, 133.83, 133.50
ATDE, 11.18, 8638.726
ATDE, 12.03, 8504.581
ATDE, 12.88, 8541.165
ATDE, 13.72, 8419.216
ATUN, 0, 0, 8419.216, 9334.861, 0.060000, 0.005000, 6.750000
GPS, 3, 352990000, 12, 1.68, -33.7850874, 151.0661890, 1.66, 85.46, 0.93, 75.35
CTUN, 511, 0.00, 1.65, 1.700000, 0.00, 23, -2, 661, 0
ATT, 0.00, 18.45, 0.00, -0.66, 0.00, 133.97, 133.50
DU32, 7, 12665
CURR, 514, 135083, 1076, 1356, 4712, 83.87325
CTUN, 514, 0.00, 1.77, 1.700000, 0.00, 19, 4, 615, 0
ATT, 0.00, 14.44, 0.00, -1.01, 0.00, 134.02, 133.50
GPS, 3, 352990200, 12, 1.68, -33.7850875, 151.0661902, 1.67, 85.43, 0.60, 80.11
CTUN, 513, 0.00, 1.50, 1.700000, 0.00, 5, 0, 630, 0
ATT, 0.00, 7.36, 0.00, -1.12, 0.00, 133.99, 133.50
CTUN, 512, 0.00, 1.39, 1.700000, 0.00, 1, 2, 606, 0
ATT, 0.00, 3.11, 0.00, -1.10, 0.00, 133.97, 133.50
GPS, 3, 352990400, 12, 1.68, -33.7850879, 151.0661906, 1.65, 85.46, 0.33, 105.20
CTUN, 513, 0.00, 1.49, 1.700000, 0.00, 0, 0, 630, 0
ATT, 0.00, 0.54, 0.00, -0.58, 0.00, 133.77, 133.50
CTUN, 512, 0.00, 1.50, 1.700000, 0.00, 0, 2, 626, 0
ATT, 0.00, -0.19, 0.00, 0.53, 0.00, 133.64, 133.50
ATDE, 0.17, 74.76676
GPS, 3, 352990600, 12, 1.68, -33.7850889, 151.0661905, 1.63, 85.46, 0.50, 165.22
ATDE, 0.15, 179.6954
ATDE, 0.14, 121.7689
CTUN, 511, 0.00, 1.48, 1.700000, 0.00, 0, 4, 619, 0
ATDE, 0.12, 249.8170
ATDE, 0.16, 405.6673
ATT, 0.00, -0.16, 0.00, 0.78, 0.00, 133.62, 133.50
ATDE, 0.30, 1396.516
ATDE, 0.54, 2475.778
ATDE, 0.89, 3503.212
ATDE, 1.36, 4710.523
ATDE, 1.94, 5771.494
ATDE, 2.59, 6536.733
ATDE, 3.30, 7018.438
ATDE, 3.98, 6878.194
CTUN, 512, 0.00, 1.44, 1.700000, 0.00, 1, 5, 623, 0
ATDE, 4.67, 6841.609
ATDE, 5.32, 6567.221
ATT, 0.00, -5.32, 0.00, 0.65, 0.00, 133.74, 133.50
ATDE, 5.99, 6646.489
ATDE, 6.63, 6408.686
ATDE, 7.30, 6680.025
ATDE, 7.92, 6198.320
ATDE, 8.54, 6204.417
ATDE, 9.14, 6055.028
GPS, 3, 352990800, 12, 1.68, -33.7850898, 151.0661902, 1.62, 85.48, 0.54, 181.15
ATDE, 9.77, 6331.262
ATDE, 10.41, 6392.237
CTUN, 512, 0.00, 1.42, 1.700000, 0.00, 8, 5, 626, 0
ATDE, 11.09, 6755.041
ATDE, 11.76, 6755.041
ATT, 0.00, -11.76, 0.00, 0.14, 0.00, 133.86, 133.50
ATDE, 12.45, 6840.406
ATDE, 13.10, 6556.871
ATDE, 13.76, 6541.627
ATDE, 14.77, 6766.219
ATDE, 15.43, 6611.749
ATDE, 16.11, 6736.749
ATDE, 16.76, 6535.529
ATDE, 17.39, 6236.750
CTUN, 512, 0.00, 1.61, 1.700000, 0.00, 24, 2, 665, 0
ATDE, 17.99, 6062.971
ATDE, 18.59, 5931.874
ATT, 0.00, -18.59, 0.00, -0.31, 0.00, 134.00, 133.50
ATDE, 19.16, 5788.582
ATDE, 19.74, 5782.485
ATDE, 20.34, 6023.337
ATUN, 0, 0, 7018.438, 7018.438, 0.055000, 0.005000, 6.750000
GPS, 3, 352991000, 12, 1.68, -33.7850906, 151.0661900, 1.62, 85.50, 0.47, 185.75
CTUN, 512, 0.00, 1.54, 1.700000, 0.00, 43, 6, 664, 0
ATT, 0.00, -23.56, 0.00, -0.08, 0.00, 133.94, 133.50
DU32, 7, 12665
CURR, 512, 141392, 1066, 1512, 4712, 87.79922
CTUN, 512, 0.00, 1.63, 1.700000, 0.00, 20, 7, 638, 0
ATT, 0.00, -13.66, 0.00, -0.08, 0.00, 133.64, 133.50
GPS, 3, 352991200, 12, 1.68, -33.7850911, 151.0661905, 1.63, 85.50, 0.36, 173.25
CTUN, 512, 0.00, 1.63, 1.700000, 0.00, 2, 7, 620, 0
ATT, 0.00, -3.85, 0.00, -0.27, 0.00, 133.66, 133.50
CTUN, 512, 0.00, 1.77, 1.700000, 0.00, 0, 6, 623, 0
ATT, 0.00, 2.57, 0.00, -0.43, 0.00, 133.76, 133.50
GPS, 3, 352991400, 11, 1.73, -33.7850912, 151.0661919, 1.65, 85.52, 0.61, 123.10
CTUN, 513, 0.00, 1.79, 1.700000, 0.00, 1, 5, 616, 0
ATT, 0.00, 5.31, 0.00, -0.57, 0.00, 134.08, 133.50
CTUN, 512, 0.00, 1.75, 1.700000, 0.00, 2, 2, 626, 0
ATT, 0.00, 5.78, 0.00, -0.64, 0.00, 134.56, 133.50
GPS, 3, 352991600, 11, 1.73, -33.7850913, 151.0661932, 1.67, 85.53, 0.61, 109.13
CTUN, 513, 0.00, 1.76, 1.700000, 0.00, 2, 1, 623, 0
ATT, 0.00, 5.24, 0.00, -0.78, 0.00, 134.99, 133.50
CTUN, 512, 0.00, 1.73, 1.700000, 0.00, 1, 0, 623, 0
ATT, 0.00, 4.44, 0.00, -0.96, 0.00, 135.18, 133.50
GPS, 3, 352991800, 11, 1.73, -33.7850917, 151.0661940, 1.68, 85.53, 0.42, 114.48
CTUN, 513, 0.00, 1.63, 1.700000, 0.00, 0, 0, 632, 0
ATT, 0.00, 3.25, 0.00, -1.25, 0.00, 135.14, 133.50
CTUN, 513, 0.00, 1.65, 1.700000, 0.00, 0, 0, 630, 0
ATT, 0.00, 2.90, 0.00, -1.01, 0.00, 134.97, 133.50
GPS, 3, 352992000, 11, 1.73, -33.7850924, 151.0661943, 1.67, 85.54, 0.44, 145.49
CTUN, 512, 0.00, 1.77, 1.700000, 0.00, 0, -1, 634, 0
ATT, 0.00, 2.66, 0.00, -0.77, 0.00, 134.82, 133.50
DU32, 7, 12665
CURR, 512, 147665, 1069, 1372, 4752, 91.69162
CTUN, 512, 0.00, 1.58, 1.700000, 0.00, 0, -1, 636, 0
ATT, 0.00, 1.90, 0.00, -0.85, 0.00, 134.69, 133.50
ATDE, 1.50, 682.1652
ATDE, 1.44, 584.6047
ATDE, 1.39, 514.4832
GPS, 3, 352992200, 11, 1.73, -33.7850933, 151.0661943, 1.67, 85.54, 0.50, 165.99
ATDE, 1.32, 731.9212
ATDE, 1.29, 317.2892
CTUN, 512, 0.00, 1.72, 1.700000, 0.00, 0, 0, 621, 0
ATDE, 1.39, 981.4843
ATDE, 1.64, 2527.208
ATT, 0.00, 1.64, 0.00, -1.14, 0.00, 134.41, 133.50
ATDE, 2.04, 3963.176
ATDE, 2.57, 5350.364
ATDE, 3.20, 6207.065
ATDE, 3.91, 7085.110
ATDE, 4.65, 7444.864
ATDE, 5.42, 7700.960
ATDE, 6.17, 7499.742
ATDE, 6.89, 7139.987
CTUN, 513, 0.00, 1.72, 1.700000, 0.00, 3, 2, 623, 0
ATDE, 7.55, 6606.455
ATUN, 0, 0, 6606.455, 7700.960, 0.065000, 0.005000, 6.750000
ATT, 0.00, 8.17, 0.00, -1.12, 0.00, 133.84, 133.50
GPS, 3, 352992400, 12, 1.68, -33.7850945, 151.0661940, 1.68, 85.55, 0.67, 181.41
CTUN, 512, 0.00, 1.58, 1.700000, 0.00, 8, 5, 602, 0
ATT, 0.00, 9.95, 0.00, -0.62, 0.00, 133.66, 133.50
CTUN, 513, 0.00, 1.44, 1.700000, 0.00, 1, 4, 614, 0
ATT, 0.00, 3.51, 0.00, -0.84, 0.00, 133.37, 133.50
GPS, 3, 352992600, 12, 1.68, -33.7850960, 151.0661933, 1.67, 85.57, 0.92, 193.01
CTUN, 512, 0.00, 1.59, 1.700000, 0.00, 0, 2, 617, 0
ATT, 0.00, -0.49, 0.00, -1.00, 0.00, 133.15, 133.50
CTUN, 513, 0.00, 1.46, 1.700000, 0.00, 0, 0, 626, 0
ATT, 0.00, -2.68, 0.00, -1.20, 0.00, 133.03, 133.50
GPS, 3, 352992800, 12, 1.68, -33.7850978, 151.0661923, 1.66, 85.59, 1.09, 199.31
CTUN, 512, 0.00, 1.49, 1.700000, 0.00, 0, 2, 618, 0
ATT, 0.00, -3.40, 0.00, -1.01, 0.00, 133.20, 133.50
CTUN, 512, 0.00, 1.59, 1.700000, 0.00, 0, 2, 627, 0
ATT, 0.00, -2.78, 0.00, -0.96, 0.00, 133.39, 133.50
GPS, 3, 352993000, 12, 1.68, -33.7850998, 151.0661913, 1.65, 85.60, 1.18, 201.43
CTUN, 511, 0.00, 1.37, 1.700000, 0.00, 0, 3, 623, 0
ATT, 0.00, -1.68, 0.00, -0.85, 0.00, 133.47, 133.50
DU32, 7, 12665
CURR, 513, 153894, 1071, 1368, 4693, 95.57592
CTUN, 513, 0.00, 1.51, 1.700000, 0.00, 0, 4, 621, 0
ATT, 0.00, -0.77, 0.00, -0.83, 0.00, 133.55, 133.50
ATDE, 0.77, 41.71050
ATDE, 0.77, 71.09374
ATDE, 0.81, 379.0190
ATDE, 0.87, 546.7010
GPS, 3, 352993200, 12, 1.68, -33.7851018, 151.0661905, 1.63, 85.60, 1.16, 200.27
ATDE, 0.97, 1071.817
ATDE, 1.21, 2468.151
CTUN, 512, 0.00, 1.54, 1.700000, 0.00, 0, 7, 611, 0
ATDE, 1.60, 3843.143
ATDE, 2.12, 5257.770
ATT, 0.00, -2.12, 0.00, -0.99, 0.00, 133.57, 133.50
ATDE, 2.85, 7285.199
ATDE, 3.70, 8431.534
ATDE, 4.64, 9410.188
ATDE, 5.62, 9849.210
ATDE, 6.61, 9876.648
ATDE, 7.59, 9782.138
ATDE, 8.56, 9687.625
ATDE, 9.50, 9468.114
CTUN, 512, 0.00, 1.53, 1.700000, 0.00, 6, 8, 615, 0
ATDE, 10.45, 9428.479
ATDE, 11.38, 9300.432
ATT, 0.00, -11.38, 0.00, -1.53, 0.00, 133.66, 133.50
ATDE, 12.31, 9288.237
ATDE, 13.23, 9251.651
ATDE, 14.17, 9431.529
ATDE, 15.15, 9715.063
ATDE, 16.14, 9937.624
ATDE, 17.15, 10068.72
GPS, 3, 352993400, 12, 1.68, -33.7851037, 151.0661897, 1.64, 85.62, 1.16, 199.76
ATDE, 18.16, 9908.882
ATDE, 19.14, 9823.516
CTUN, 512, 0.00, 1.37, 1.700000, 0.00, 29, 4, 659, 0
ATDE, 20.11, 9735.102
ATUN, 0, 0, 9735.102, 10068.72, 0.065000, 0.005000, 6.750000
ATT, 0.00, -21.07, 0.00, -1.89, 0.00, 133.73, 133.50
CTUN, 512, 0.00, 1.48, 1.700000, 0.00, 58, 4, 679, 0
ATT, 0.00, -25.73, 0.00, -1.32, 0.00, 133.31, 133.50
GPS, 3, 352993600, 13, 1.64, -33.7851056, 151.0661895, 1.62, 85.63, 1.04, 193.44
CTUN, 513, 0.00, 1.45, 1.700000, 0.00, 26, 5, 652, 0
ATT, 0.00, -16.27, 0.00, -0.83, 0.00, 132.50, 133.50
CTUN, 512, 0.00, 1.52, 1.700000, 0.00, 6, 6, 625, 0
ATT, 0.00, -7.66, 0.00, -0.75, 0.00, 131.89, 133.50
GPS, 3, 352993800, 13, 1.64, -33.7851070, 151.0661904, 1.62, 85.63, 0.88, 176.08
CTUN, 511, 0.00, 1.59, 1.700000, 0.00, 0, 6, 625, 0
ATT, 0.00, -1.27, 0.00, -0.83, 0.00, 131.40, 133.50
CTUN, 513, 0.00, 1.62, 1.700000, 0.00, 0, 4, 640, 0
ATT, 0.00, 2.05, 0.00, -0.77, 0.00, 131.21, 133.50
GPS, 3, 352994000, 12, 1.68, -33.7851082, 151.0661922, 1.62, 85.64, 1.05, 148.33
CTUN, 513, 0.00, 1.52, 1.700000, 0.00, 0, 3, 645, 0
ATT, 0.00, 3.16, 0.00, -0.48, 0.00, 131.28, 133.50
DU32, 7, 12665
CURR, 512, 160247, 1064, 1431, 4712, 99.60392
CTUN, 512, 0.00, 1.62, 1.700000, 0.00, 0, 5, 629, 0
ATT, 0.00, 2.69, 0.00, -0.35, 0.00, 131.58, 133.50
GPS, 3, 352994200, 12, 1.68, -33.7851093, 151.0661938, 1.63, 85.64, 0.98, 140.74
CTUN, 512, 0.00, 1.56, 1.700000, 0.00, 0, 6, 629, 0
ATT, 0.00, 1.82, 0.00, -0.75, 0.00, 131.79, 133.50
CTUN, 513, 0.00, 1.58, 1.700000, 0.00, 0, 7, 619, 0
ATT, 0.00, 0.69, 0.00, -0.58, 0.00, 131.88, 133.50
ATDE, 0.60, 838.6840
ATDE, 0.53, 704.5383
ATDE, 0.45, 850.8790
ATDE, 0.34, 1052.098
ATDE, 0.28, 677.0995
ATDE, 0.32, 463.1384
GPS, 3, 352994400, 12, 1.68, -33.7851106, 151.0661952, 1.63, 85.67, 0.97, 139.54
ATDE, 0.54, 2164.191
ATDE, 0.90, 3673.330
CTUN, 513, 0.00, 1.57, 1.700000, 0.00, 0, 7, 622, 0
ATDE, 1.45, 5417.223
ATDE, 2.10, 6523.923
ATT, 0.00, 2.10, 0.00, -0.62, 0.00, 131.79, 133.50
ATDE, 2.83, 7289.164
ATDE, 3.56, 7286.114
ATDE, 4.28, 7219.042
ATDE, 4.97, 6883.678
ATDE, 5.63, 6664.167
ATDE, 6.27, 6383.681
ATUN, 0, 0, 6383.681, 7289.164, 0.060000, 0.005000, 6.750000
CTUN, 511, 0.00, 1.45, 1.700000, 0.00, 4, 8, 617, 0
ATT, 0.00, 8.61, 0.00, -0.23, 0.00, 131.63, 133.50
GPS, 3, 352994600, 11, 1.73, -33.7851121, 151.0661964, 1.64, 85.67, 0.98, 143.74
CTUN, 512, 0.00, 1.59, 1.700000, 0.00, 5, 9, 603, 0
ATT, 0.00, 7.79, 0.00, 0.25, 0.00, 131.80, 133.50
CTUN, 512, 0.00, 1.66, 1.700000, 0.00, 1, 5, 624, 0
ATT, 0.00, 3.01, 0.00, 0.06, 0.00, 132.07, 133.50
GPS, 3, 352994800, 12, 1.68, -33.7851137, 151.0661972, 1.65, 85.69, 0.98, 152.24
CTUN, 513, 0.00, 1.55, 1.700000, 0.00, 0, 5, 616, 0
ATT, 0.00, 0.30, 0.00, 0.21, 0.00, 132.46, 133.50
CTUN, 512, 0.00, 1.50, 1.700000, 0.00, 0, 4, 618, 0
ATT, 0.00, -0.98, 0.00, 0.30, 0.00, 133.05, 133.50
ATDE, 1.31, 713.1244
GPS, 3, 352995000, 12, 1.68, -33.7851156, 151.0661976, 1.64, 85.73, 1.05, 161.18
ATDE, 1.36, 464.0340
ATDE, 1.38, 247.5717
CTUN, 512, 0.00, 1.55, 1.700000, 0.00, 0, 2, 628, 0
ATDE, 1.38, 39.01219
ATDE, 1.41, 268.9131
ATT, 0.00, -1.41, 0.00, 0.22, 0.00, 133.57, 133.50
ATDE, 1.53, 1247.566
ATDE, 1.84, 3067.679
ATDE, 2.28, 4396.940
ATDE, 2.86, 5790.226
DU32, 7, 143737
CURR, 512, 166449, 1068, 1356, 4732, 103.4763
ATDE, 3.55, 6906.073
ATDE, 4.30, 7546.314
ATDE, 5.12, 8159.116
ATDE, 5.96, 8451.797
CTUN, 512, 0.00, 1.60, 1.700000, 0.00, 2, 6, 606, 0
ATDE, 6.80, 8403.017
ATDE, 7.61, 8113.384
ATT, 0.00, -7.61, 0.00, -0.10, 0.00, 134.30, 133.50
ATDE, 8.40, 7884.727
ATDE, 9.17, 7631.680
ATDE, 9.91, 7479.241
ATUN, 0, 0, 7479.241, 8451.797, 0.060000, 0.005000, 6.750000
GPS, 3, 352995200, 13, 1.64, -33.7851174, 151.0661979, 1.64, 85.73, 0.98, 166.09
CTUN, 512, 0.00, 1.59, 1.700000, 0.00, 14, 3, 643, 0
ATT, 0.00, -14.57, 0.00, -0.19, 0.00, 134.85, 133.50
CTUN, 512, 0.00, 1.56, 1.700000, 0.00, 9, 5, 622, 0
ATT, 0.00, -9.97, 0.00, -0.05, 0.00, 134.76, 133.50
GPS, 3, 352995400, 13, 1.64, -33.7851190, 151.0661986, 1.65, 85.75, 0.95, 164.30
CTUN, 512, 0.00, 1.73, 1.700000, 0.00, 2, 4, 621, 0
ATT, 0.00, -4.30, 0.00, -0.48, 0.00, 134.51, 133.50
CTUN, 512, 0.00, 1.63, 1.700000, 0.00, 0, 4, 617, 0
ATT, 0.00, 0.72, 0.00, -0.78, 0.00, 134.29, 133.50
GPS, 3, 352995600, 13, 1.64, -33.7851205, 151.0661998, 1.66, 85.76, 0.98, 155.54
CTUN, 512, 0.00, 1.77, 1.700000, 0.00, 0, 4, 613, 0
ATT, 0.00, 3.15, 0.00, -1.26, 0.00, 134.13, 133.50
CTUN, 512, 0.00, 1.71, 1.700000, 0.00, 0, 3, 615, 0
ATT, 0.00, 3.40, 0.00, -0.76, 0.00, 134.08, 133.50
GPS, 3, 352995800, 13, 1.64, -33.7851220, 151.0662010, 1.67, 85.75, 0.98, 151.49
CTUN, 513, 0.00, 1.61, 1.700000, 0.00, 0, 3, 611, 0
ATT, 0.00, 2.58, 0.00, -0.43, 0.00, 134.06, 133.50
CTUN, 513, 0.00, 1.62, 1.700000, 0.00, 0, 2, 614, 0
ATT, 0.00, 1.83, 0.00, -0.17, 0.00, 134.06, 133.50
GPS, 3, 352996000, 13, 1.64, -33.7851238, 151.0662019, 1.67, 85.76, 1.05, 153.77
CTUN, 513, 0.00, 1.71, 1.700000, 0.00, 0, 0, 632, 0
ATT, 0.00, 1.30, 0.00, 0.16, 0.00, 134.08, 133.50
ATDE, 1.25, 421.3401
ATDE, 1.23, 274.9993
ATDE, 1.21, 165.2438
ATDE, 1.18, 247.5605
DU32, 7, 143737
CURR, 513, 172661, 1074, 1315, 4712, 107.3262
ATDE, 1.20, 154.8764
ATDE, 1.30, 1048.164
ATDE, 1.55, 2490.230
ATDE, 1.93, 3749.369
CTUN, 513, 0.00, 1.59, 1.700000, 0.00, 0, 3, 605, 0
ATDE, 2.45, 5261.557
ATDE, 3.12, 6627.402
ATT, 0.00, 3.12, 0.00, 0.29, 0.00, 133.86, 133.50
ATDE, 3.88, 7593.861
ATDE, 4.70, 8221.906
ATDE, 5.55, 8572.515
ATDE, 6.40, 8438.369
ATDE, 7.22, 8224.955
ATDE, 7.99, 7746.299
ATDE, 8.71, 7194.473
ATUN, 0, 0, 7194.473, 8572.515, 0.060000, 0.005000, 6.750000
GPS, 3, 352996200, 13, 1.64, -33.7851257, 151.0662025, 1.67, 85.75, 1.08, 160.67
CTUN, 513, 0.00, 1.54, 1.700000, 0.00, 6, 4, 607, 0
ATT, 0.00, 10.78, 0.00, 1.02, 0.00, 133.58, 133.50
CTUN, 513, 0.00, 1.76, 1.700000, 0.00, 11, 7, 586, 0
ATT, 0.00, 11.54, 0.00, 1.27, 0.00, 133.37, 133.50
GPS, 3, 352996400, 13, 1.64, -33.7851278, 151.0662027, 1.68, 85.75, 1.16, 169.80
CTUN, 513, 0.00, 1.49, 1.700000, 0.00, 2, 4, 602, 0
ATT, 0.00, 5.13, 0.00, 1.12, 0.00, 133.30, 133.50
CTUN, 513, 0.00, 1.64, 1.700000, 0.00, 0, 3, 598, 0
ATT, 0.00, 1.03, 0.00, 0.79, 0.00, 133.14, 133.50
GPS, 3, 352996600, 13, 1.64, -33.7851300, 151.0662022, 1.68, 85.77, 1.27, 180.37
CTUN, 513, 0.00, 1.63, 1.700000, 0.00, 0, 1, 604, 0
ATT, 0.00, -1.46, 0.00, 0.78, 0.00, 132.96, 133.50
CTUN, 512, 0.00, 1.58, 1.700000, 0.00, 0, 0, 608, 0
ATDE, 2.48, 192.4077
ATT, 0.00, -2.48, 0.00, 0.54, 0.00, 132.83, 133.50
ATDE, 2.47, 103.3224
ATDE, 2.47, 51.49347
ATDE, 2.47, 30.82321
ATDE, 2.53, 613.1371
ATDE, 2.70, 1744.229
ATDE, 3.04, 3344.830
GPS, 3, 352996800, 13, 1.64, -33.7851324, 151.0662013, 1.67, 85.78, 1.39, 188.22
ATDE, 3.53, 4838.065
ATDE, 4.20, 6761.835
CTUN, 512, 0.00, 1.69, 1.700000, 0.00, 1, 4, 583, 0
ATDE, 4.97, 7661.221
ATDE, 5.80, 8316.704
ATT, 0.00, -5.80, 0.00, 0.60, 0.00, 132.70, 133.50
ATDE, 6.68, 8770.971
ATDE, 7.57, 8883.775
ATDE, 8.48, 9194.749
ATDE, 9.37, 8895.970
ATDE, 10.21, 8350.241
ATDE, 11.02, 8106.341
ATUN, 0, 1, 8106.341, 9194.749, 0.060000, 0.005000, 6.750000
CTUN, 512, 0.00, 1.56, 1.700000, 0.00, 11, 1, 620, 0
ATT, 0.00, -14.09, 0.00, 0.42, 0.00, 132.90, 133.50
GPS, 3, 352997000, 13, 1.64, -33.7851348, 151.0662004, 1.67, 85.78, 1.36, 193.20
CTUN, 512, 0.00, 1.50, 1.700000, 0.00, 15, 1, 618, 0
ATT, 0.00, -12.97, 0.00, 0.27, 0.00, 132.67, 133.50
DU32, 7, 12665
CURR, 512, 178709, 1063, 1557, 4752, 111.1166
CTUN, 512, 0.00, 1.52, 1.700000, 0.00, 4, 1, 614, 0
ATT, 0.00, -6.31, 0.00, 0.57, 0.00, 132.27, 133.50
GPS, 3, 352997200, 13, 1.64, -33.7851369, 151.0662000, 1.65, 85.76, 1.18, 191.99
CTUN, 512, 0.00, 1.53, 1.700000, 0.00, 0, 0, 626, 0
ATT, 0.00, -2.06, 0.00, 0.05, 0.00, 132.17, 133.50
CTUN, 513, 0.00, 1.57, 1.700000, 0.00, 0, 0, 617, 0
ATT, 0.00, 0.02, 0.00, 0.11, 0.00, 131.94, 133.50
GPS, 3, 352997400, 13, 1.64, -33.7851387, 151.0661999, 1.64, 85.75, 0.99, 187.16
CTUN, 511, 0.00, 1.58, 1.700000, 0.00, 0, 2, 615, 0
ATT, 0.00, 0.66, 0.00, 0.33, 0.00, 131.79, 133.50
ATDE, 0.85, 255.5257
ATDE, 0.88, 292.1108
ATDE, 0.92, 386.6226
ATDE, 0.95, 322.5985
ATDE, 0.99, 475.0367
CTUN, 512, 0.00, 1.65, 1.700000, 0.00, 0, 3, 617, 0
ATDE, 1.12, 1295.154
ATDE, 1.41, 2819.536
ATT, 0.00, 1.41, 0.00, 0.26, 0.00, 131.69, 133.50
ATDE, 1.79, 3874.409
ATDE, 2.34, 5426.230
ATDE, 2.98, 6398.786
ATDE, 3.70, 7255.489
ATDE, 4.47, 7712.804
ATDE, 5.25, 7734.145
ATDE, 5.99, 7410.976
ATDE, 6.69, 7051.221
GPS, 3, 352997600, 13, 1.64, -33.7851404, 151.0661999, 1.65, 85.75, 0.98, 184.14
CTUN, 512, 0.00, 1.52, 1.700000, 0.00, 3, 7, 603, 0
ATDE, 7.38, 6884.392
ATDE, 8.07, 6863.050
ATT, 0.00, 8.07, 0.00, 0.54, 0.00, 131.56, 133.50
ATDE, 8.73, 6667.929
ATUN, 0, 1, 6667.929, 7734.145, 0.055000, 0.005000, 6.750000
CTUN, 512, 0.00, 1.62, 1.700000, 0.00, 11, 7, 601, 0
ATT, 0.00, 12.44, 0.00, 0.62, 0.00, 131.77, 133.50
