dump 35

ArduCopter V3.1-rc5.1
Free RAM: 877
APM 2
FMT, 128, 89, FMT, BBnNZ, Type,Length,Name,Format
FMT, 129, 23, PARM, Nf, Name,Value
FMT, 130, 35, GPS, BIBcLLeeEe, Status,Time,NSats,HDop,Lat,Lng,RelAlt,Alt,Spd,GCrs
FMT, 131, 27, IMU, ffffff, GyrX,GyrY,GyrZ,AccX,AccY,AccZ
FMT, 132, 67, MSG, Z, Message
FMT, 25, 25, ATUN, BBfffff, Axis,TuneStep,RateMin,RateMax,RPGain,RDGain,SPGain
FMT, 26, 9, ATDE, cf, Angle,Rate
FMT, 9, 19, CURR, hIhhhf, Thr,ThrInt,Volt,Curr,Vcc,CurrTot
FMT, 11, 11, MOT, hhhh, Mot1,Mot2,Mot3,Mot4
FMT, 12, 28, OF, hhBccffee, Dx,Dy,SQual,X,Y,Lat,Lng,Roll,Pitch
FMT, 5, 49, NTUN, Ecffffffffee, WPDst,WPBrg,PErX,PErY,DVelX,DVelY,VelX,VelY,DAcX,DAcY,DRol,DPit
FMT, 4, 25, CTUN, hcefchhhh, ThrIn,SonAlt,BarAlt,WPAlt,DesSonAlt,AngBst,CRate,ThrOut,DCRate
FMT, 15, 21, MAG, hhhhhhhhh, MagX,MagY,MagZ,OfsX,OfsY,OfsZ,MOfsX,MOfsY,MOfsZ
FMT, 6, 17, PM, BBBHHIhB, RenCnt,RenBlw,FixCnt,NLon,NLoop,MaxT,PMT,I2CErr
FMT, 8, 20, CMD, BBBBBeLL, CTot,CNum,CId,COpt,Prm1,Alt,Lat,Lng
FMT, 1, 17, ATT, cccccCC, RollIn,Roll,PitchIn,Pitch,YawIn,Yaw,NavYaw
FMT, 17, 37, INAV, cccfffiiff, BAlt,IAlt,IClb,ACorrX,ACorrY,ACorrZ,GLat,GLng,ILat,ILng
FMT, 3, 6, MODE, Mh, Mode,ThrCrs
FMT, 10, 3, STRT, , 
FMT, 13, 4, EV, B, Id
FMT, 20, 6, D16, Bh, Id,Value
FMT, 21, 6, DU16, BH, Id,Value
FMT, 22, 8, D32, Bi, Id,Value
FMT, 23, 8, DU32, BI, Id,Value
FMT, 24, 8, DFLT, Bf, Id,Value
FMT, 14, 28, PID, Biiiiif, Id,Error,P,I,D,Out,Gain
FMT, 18, 25, CAM, ILLeccC, GPSTime,Lat,Lng,Alt,Roll,Pitch,Yaw
FMT, 19, 5, ERR, BB, Subsys,ECode
D32, 9, 12791
CMD, 1, 0, 16, 0, 0, 0.00, -33.7850701, 151.0662296
EV, 10
GPS, 3, 270141600, 15, 1.38, -33.7850700, 151.0662296, 1.33, 86.29, 0.02, 142.24
CTUN, 0, 0.00, 0.05, 0.000000, 0.00, 0, 1, 0, 0
ATT, 0.00, -3.29, 0.00, -3.59, 0.00, 127.92, 127.92
CTUN, 0, 0.00, -0.02, 0.000000, 0.00, 0, 1, 0, 0
ATT, 0.00, -3.29, 0.00, -3.58, 0.00, 127.89, 127.89
GPS, 3, 270149000, 15, 1.38, -33.7850704, 151.0662298, 1.29, 85.97, 0.04, 142.24
DU32, 7, 8793
CURR, 0, 0, 1204, 5, 4752, 0.001611
CTUN, 0, 0.00, 0.15, 0.000000, 0.00, 0, 0, 0, 0
ATT, 0.00, -3.28, 0.00, -3.57, 0.00, 127.89, 127.89
CTUN, 0, 0.00, 0.01, 0.000000, 0.00, 0, -1, 0, 0
ATT, 0.00, -3.26, 0.00, -3.57, 0.00, 127.90, 127.90
GPS, 3, 270149200, 15, 1.38, -33.7850705, 151.0662298, 1.14, 85.96, 0.04, 142.24
CTUN, 0, 0.00, -0.06, 0.000000, 0.00, 0, -2, 0, 0
ATT, 0.00, -3.26, 0.00, -3.56, 0.00, 127.89, 127.89
CTUN, 0, 0.00, 0.02, 0.000000, 0.00, 0, -4, 0, 0
ATT, 0.00, -3.26, 0.00, -3.52, 0.00, 127.88, 127.88
GPS, 3, 270149400, 15, 1.38, -33.7850705, 151.0662298, 1.00, 85.95, 0.01, 142.24
CTUN, 0, 0.00, -0.17, 0.000000, 0.00, 0, -5, 0, 0
ATT, 0.00, -3.27, 0.00, -3.50, 0.00, 127.88, 127.88
CTUN, 0, 0.00, -0.19, 0.000000, 0.00, 0, -6, 0, 0
ATT, 0.00, -3.27, 0.00, -3.50, 0.00, 127.87, 127.87
GPS, 3, 270149600, 15, 1.38, -33.7850705, 151.0662298, 0.85, 85.93, 0.02, 142.24
CTUN, 0, 0.00, -0.14, 0.000000, 0.00, 0, -8, 0, 0
ATT, 0.00, -3.28, 0.00, -3.47, 0.00, 127.87, 127.87
CTUN, 0, 0.00, -0.25, 0.000000, 0.00, 0, -9, 0, 0
GPS, 3, 270149800, 15, 1.38, -33.7850705, 151.0662298, 0.73, 85.93, 0.03, 142.24
ATT, 0.00, -3.27, 0.00, -3.47, 0.00, 127.86, 127.86
CTUN, 0, 0.00, -0.18, 0.000000, 0.00, 0, -11, 0, 0
ATT, 0.00, -3.27, 0.00, -3.45, 0.00, 127.86, 127.86
CTUN, 0, 0.00, -0.22, 0.000000, 0.00, 0, -11, 0, 0
ATT, 0.00, -3.26, 0.00, -3.45, 0.00, 127.85, 127.85
GPS, 3, 270150000, 15, 1.38, -33.7850705, 151.0662299, 0.58, 85.92, 0.01, 142.24
DU32, 7, 8793
CURR, 0, 0, 1207, 51, 4752, 0.173723
CTUN, 0, 0.00, -0.07, 0.000000, 0.00, 0, -13, 0, 0
ATT, 0.00, -3.27, 0.00, -3.43, 0.00, 127.85, 127.85
CTUN, 0, 0.00, -0.18, 0.000000, 0.00, 0, -13, 0, 0
ATT, 0.00, -3.28, 0.00, -3.41, 0.00, 127.84, 127.84
GPS, 3, 270150200, 15, 1.38, -33.7850705, 151.0662298, 0.47, 85.91, 0.02, 142.24
CTUN, 0, 0.00, -0.29, 0.000000, 0.00, 0, -14, 0, 0
ATT, 0.00, -3.28, 0.00, -3.39, 0.00, 127.85, 127.85
CTUN, 0, 0.00, -0.17, 0.000000, 0.00, 0, -16, 0, 0
ATT, 0.00, -3.29, 0.00, -3.37, 0.00, 127.85, 127.85
GPS, 3, 270150400, 15, 1.38, -33.7850704, 151.0662299, 0.36, 85.91, 0.00, 142.24
CTUN, 0, 0.00, -0.22, 0.000000, 0.00, 0, -16, 0, 0
ATT, 0.00, -3.28, 0.00, -3.38, 0.00, 127.85, 127.85
CTUN, 0, 0.00, -0.14, 0.000000, 0.00, 0, -17, 0, 0
ATT, 0.00, -3.29, 0.00, -3.35, 0.00, 127.85, 127.85
GPS, 3, 270150600, 15, 1.38, -33.7850704, 151.0662299, 0.26, 85.91, 0.01, 142.24
CTUN, 0, 0.00, -0.20, 0.000000, 0.00, 0, -18, 0, 0
ATT, 0.00, -3.29, 0.00, -3.35, 0.00, 127.84, 127.84
CTUN, 0, 0.00, -0.15, 0.000000, 0.00, 0, -19, 0, 0
ATT, 0.00, -3.29, 0.00, -3.33, 0.00, 127.85, 127.85
GPS, 3, 270150800, 15, 1.38, -33.7850704, 151.0662299, 0.17, 85.90, 0.01, 142.24
CTUN, 0, 0.00, -0.27, 0.000000, 0.00, 0, -19, 0, 0
ATT, 0.00, -3.29, 0.00, -3.31, 0.00, 127.84, 127.84
EV, 28
CTUN, 0, 0.00, -0.17, 0.000000, 0.00, 0, -20, 0, 0
ATT, 0.00, -3.28, 0.00, -3.30, 0.00, 127.85, 127.85
GPS, 3, 270151000, 15, 1.38, -33.7850703, 151.0662299, 0.09, 85.90, 0.01, 142.24
DU32, 7, 8281
CURR, 0, 0, 1205, 58, 4732, 0.333519
CTUN, 0, 0.00, -0.16, 0.000000, 0.00, 0, -20, 0, 0
ATT, 0.00, -3.29, 0.00, -3.28, 0.00, 127.83, 127.83
CTUN, 0, 0.00, -0.22, 0.000000, 0.00, 0, -20, 0, 0
ATT, 0.00, -3.28, 0.00, -3.27, 0.00, 127.84, 127.84
GPS, 3, 270151200, 15, 1.38, -33.7850702, 151.0662299, 0.02, 85.90, 0.02, 142.24
CTUN, 0, 0.00, -0.24, 0.000000, 0.00, 0, -21, 0, 0
ATT, 0.00, -3.29, 0.00, -3.26, 0.00, 127.85, 127.85
CTUN, 0, 0.00, -0.31, 0.000000, 0.00, 0, -21, 0, 0
ATT, 0.00, -3.29, 0.00, -3.25, 0.00, 127.84, 127.84
GPS, 3, 270151400, 15, 1.38, -33.7850701, 151.0662299, -0.05, 85.90, 0.04, 142.24
CTUN, 0, 0.00, -0.22, 0.000000, 0.00, 0, -22, 0, 0
ATT, 0.00, -3.29, 0.00, -3.23, 0.00, 127.85, 127.85
CTUN, 0, 0.00, -0.15, 0.000000, 0.00, 0, -22, 0, 0
ATT, 0.00, -3.31, 0.00, -3.21, 0.00, 127.85, 127.85
GPS, 3, 270151600, 15, 1.38, -33.7850700, 151.0662299, -0.11, 85.91, 0.05, 142.24
CTUN, 0, 0.00, -0.16, 0.000000, 0.00, 0, -22, 0, 0
ATT, 0.00, -3.30, 0.00, -3.20, 0.00, 127.85, 127.85
CTUN, 0, 0.00, -0.25, 0.000000, 0.00, 0, -23, 0, 0
ATT, 0.00, -3.30, 0.00, -3.18, 0.00, 127.86, 127.86
GPS, 3, 270151800, 15, 1.38, -33.7850699, 151.0662299, -0.16, 85.91, 0.03, 142.24
CTUN, 0, 0.00, -0.18, 0.000000, 0.00, 0, -23, 0, 0
ATT, 0.00, -3.31, 0.00, -3.17, 0.00, 127.85, 127.85
CTUN, 0, 0.00, -0.23, 0.000000, 0.00, 0, -23, 0, 0
ATT, 0.00, -3.30, 0.00, -3.18, 0.00, 127.86, 127.86
GPS, 3, 270152000, 15, 1.38, -33.7850697, 151.0662299, -0.21, 85.92, 0.05, 142.24
DU32, 7, 8281
CURR, 0, 0, 1200, 55, 4793, 0.488391
CTUN, 0, 0.00, -0.22, 0.000000, 0.00, 0, -23, 0, 0
ATT, 0.00, -3.31, 0.00, -3.15, 0.00, 127.86, 127.86
CTUN, 0, 0.00, -0.17, 0.000000, 0.00, 0, -23, 0, 0
ATT, 0.00, -3.31, 0.00, -3.14, 0.00, 127.87, 127.87
GPS, 3, 270152200, 15, 1.38, -33.7850696, 151.0662299, -0.26, 85.93, 0.05, 142.24
CTUN, 0, 0.00, -0.32, 0.000000, 0.00, 0, -23, 0, 0
ATT, 0.00, -3.31, 0.00, -3.13, 0.00, 127.86, 127.86
CTUN, 0, 0.00, -0.24, 0.000000, 0.00, 0, -24, 0, 0
ATT, 0.00, -3.31, 0.00, -3.10, 0.00, 127.87, 127.87
GPS, 3, 270152400, 15, 1.38, -33.7850695, 151.0662299, -0.31, 85.93, 0.04, 142.24
CTUN, 0, 0.00, -0.18, 0.000000, 0.00, 0, -23, 0, 0
ATT, 0.00, -3.31, 0.00, -3.11, 0.00, 127.87, 127.87
CTUN, 0, 0.00, -0.19, 0.000000, 0.00, 0, -24, 0, 0
ATT, 0.00, -3.32, 0.00, -3.09, 0.00, 127.88, 127.88
GPS, 3, 270152600, 15, 1.38, -33.7850693, 151.0662299, -0.34, 85.94, 0.05, 142.24
CTUN, 0, 0.00, -0.14, 0.000000, 0.00, 0, -23, 0, 0
ATT, 0.00, -3.31, 0.00, -3.09, 0.00, 127.88, 127.88
CTUN, 0, 0.00, -0.02, 0.000000, 0.00, 0, -23, 0, 0
ATT, 0.00, -3.32, 0.00, -3.09, 0.00, 127.89, 127.89
GPS, 3, 270152800, 15, 1.38, -33.7850692, 151.0662299, -0.36, 85.94, 0.03, 142.24
CTUN, 0, 0.00, -0.25, 0.000000, 0.00, 0, -23, 0, 0
ATT, 0.00, -3.31, 0.00, -3.08, 0.00, 127.89, 127.89
CTUN, 0, 0.00, -0.34, 0.000000, 0.00, 0, -23, 0, 0
ATT, 0.00, -3.32, 0.00, -3.07, 0.00, 127.89, 127.89
GPS, 3, 270153000, 15, 1.38, -33.7850691, 151.0662299, -0.39, 85.95, 0.02, 142.24
DU32, 7, 8281
CURR, 0, 0, 1204, 53, 4793, 0.642960
CTUN, 0, 0.00, -0.23, 0.000000, 0.00, 0, -23, 0, 0
ATT, 0.00, -3.31, 0.00, -3.07, 0.00, 127.89, 127.89
CTUN, 0, 0.00, -0.21, 0.000000, 0.00, 0, -23, 0, 0
ATT, 0.00, -3.31, 0.00, -3.06, 0.00, 127.89, 127.89
GPS, 3, 270153200, 15, 1.38, -33.7850691, 151.0662299, -0.42, 85.95, 0.01, 142.24
CTUN, 0, 0.00, -0.14, 0.000000, 0.00, 0, -23, 0, 0
ATT, 0.00, -3.32, 0.00, -3.04, 0.00, 127.90, 127.90
CTUN, 0, 0.00, -0.11, 0.000000, 0.00, 0, -22, 0, 0
ATT, 0.00, -3.30, 0.00, -3.05, 0.00, 127.90, 127.90
GPS, 3, 270153400, 15, 1.38, -33.7850690, 151.0662299, -0.43, 85.95, 0.02, 142.24
CTUN, 0, 0.00, -0.23, 0.000000, 0.00, 0, -22, 0, 0
ATT, 0.00, -3.32, 0.00, -3.02, 0.00, 127.92, 127.92
CTUN, 0, 0.00, -0.26, 0.000000, 0.00, 0, -22, 0, 0
ATT, 0.00, -3.31, 0.00, -3.02, 0.00, 127.92, 127.92
GPS, 3, 270153600, 15, 1.38, -33.7850690, 151.0662299, -0.45, 85.95, 0.02, 142.24
CTUN, 0, 0.00, -0.20, 0.000000, 0.00, 0, -22, 0, 0
ATT, 0.00, -3.31, 0.00, -3.01, 0.00, 127.92, 127.92
CTUN, 0, 0.00, -0.21, 0.000000, 0.00, 0, -22, 0, 0
ATT, 0.00, -3.30, 0.00, -3.00, 0.00, 127.93, 127.93
GPS, 3, 270153800, 15, 1.38, -33.7850689, 151.0662299, -0.46, 85.95, 0.01, 142.24
CTUN, 0, 0.00, -0.20, 0.000000, 0.00, 0, -21, 0, 0
ATT, 0.00, -3.31, 0.00, -3.00, 0.00, 127.93, 127.93
CTUN, 0, 0.00, -0.12, 0.000000, 0.00, 0, -21, 0, 0
ATT, 0.00, -3.30, 0.00, -2.97, 0.00, 127.93, 127.93
GPS, 3, 270154000, 15, 1.38, -33.7850689, 151.0662299, -0.47, 85.95, 0.02, 142.24
DU32, 7, 8281
CURR, 0, 0, 1202, 58, 4732, 0.803951
CTUN, 0, 0.00, -0.23, 0.000000, 0.00, 0, -21, 0, 0
ATT, 0.00, -3.30, 0.00, -2.98, 0.00, 127.94, 127.94
CTUN, 0, 0.00, -0.20, 0.000000, 0.00, 0, -21, 0, 0
ATT, 0.00, -3.29, 0.00, -2.95, 0.00, 127.95, 127.95
GPS, 3, 270154200, 15, 1.38, -33.7850689, 151.0662299, -0.48, 85.95, 0.03, 142.24
CTUN, 0, 0.00, -0.06, 0.000000, 0.00, 0, -21, 0, 0
ATT, 0.00, -3.30, 0.00, -2.95, 0.00, 127.95, 127.95
CTUN, 0, 0.00, -0.44, 0.000000, 0.00, 0, -20, 0, 0
ATT, 0.00, -3.30, 0.00, -2.94, 0.00, 127.96, 127.96
GPS, 3, 270154400, 15, 1.38, -33.7850689, 151.0662299, -0.49, 85.95, 0.03, 142.24
CTUN, 0, 0.00, -0.23, 0.000000, 0.00, 0, -20, 0, 0
ATT, 0.00, -3.29, 0.00, -2.93, 0.00, 127.96, 127.96
CTUN, 0, 0.00, -0.09, 0.000000, 0.00, 0, -20, 0, 0
ATT, 0.00, -3.30, 0.00, -2.92, 0.00, 127.97, 127.97
GPS, 3, 270154600, 15, 1.38, -33.7850689, 151.0662299, -0.50, 85.95, 0.04, 142.24
CTUN, 0, 0.00, -0.22, 0.000000, 0.00, 0, -19, 0, 0
ATT, 0.00, -3.29, 0.00, -2.93, 0.00, 127.97, 127.97
CTUN, 0, 0.00, -0.12, 0.000000, 0.00, 0, -20, 0, 0
ATT, 0.00, -3.31, 0.00, -2.90, 0.00, 127.98, 127.98
GPS, 3, 270154800, 15, 1.38, -33.7850689, 151.0662299, -0.50, 85.95, 0.02, 142.24
CTUN, 0, 0.00, -0.16, 0.000000, 0.00, 0, -19, 0, 0
ATT, 0.00, -3.29, 0.00, -2.90, 0.00, 127.99, 127.99
CTUN, 0, 0.00, -0.22, 0.000000, 0.00, 0, -19, 0, 0
ATT, 0.00, -3.31, 0.00, -2.89, 0.00, 127.99, 127.99
GPS, 3, 270155000, 15, 1.38, -33.7850689, 151.0662299, -0.50, 85.95, 0.03, 142.24
DU32, 7, 8281
CURR, 0, 0, 1201, 56, 4752, 0.957711
PM, 0, 0, 51, 1, 1000, 7353490, 17, 0
CTUN, 0, 0.00, -0.13, 0.000000, 0.00, 0, -18, 0, 0
ATT, 0.00, -3.30, 0.00, -2.88, 0.00, 128.00, 128.00
CTUN, 0, 0.00, -0.02, 0.000000, 0.00, 0, -18, 0, 0
ATT, 0.00, -3.30, 0.00, -2.87, 0.00, 128.00, 128.00
GPS, 3, 270155200, 15, 1.38, -33.7850689, 151.0662299, -0.49, 85.95, 0.03, 142.24
CTUN, 0, 0.00, -0.17, 0.000000, 0.00, 0, -17, 0, 0
ATT, 0.00, -3.30, 0.00, -2.87, 0.00, 128.00, 128.00
CTUN, 0, 0.00, -0.14, 0.000000, 0.00, 0, -18, 0, 0
ATT, 0.00, -3.30, 0.00, -2.85, 0.00, 128.01, 128.01
GPS, 3, 270155400, 15, 1.38, -33.7850688, 151.0662299, -0.48, 85.96, 0.02, 142.24
CTUN, 0, 0.00, -0.14, 0.000000, 0.00, 0, -17, 0, 0
ATT, 0.00, -3.30, 0.00, -2.84, 0.00, 128.00, 128.00
CTUN, 0, 0.00, -0.15, 0.000000, 0.00, 0, -17, 0, 0
ATT, 0.00, -3.31, 0.00, -2.84, 0.00, 128.01, 128.01
GPS, 3, 270155600, 15, 1.38, -33.7850689, 151.0662299, -0.48, 85.95, 0.04, 142.24
CTUN, 0, 0.00, -0.13, 0.000000, 0.00, 0, -17, 0, 0
ATT, 0.00, -3.30, 0.00, -2.81, 0.00, 128.01, 128.01
CTUN, 0, 0.00, -0.21, 0.000000, 0.00, 0, -16, 0, 0
EV, 18
ATT, 0.00, -3.29, 0.00, -2.83, 0.00, 128.02, 128.02
GPS, 3, 270155800, 15, 1.38, -33.7850689, 151.0662299, -0.47, 85.95, 0.04, 142.24
CTUN, 0, 0.00, -0.21, 0.000000, 0.00, 0, -16, 0, 0
ATT, 0.00, -3.30, 0.00, -2.81, 0.00, 128.03, 128.03
CTUN, 0, 0.00, -0.32, 0.000000, 0.00, 0, -15, 0, 0
ATT, 0.00, -3.29, 0.00, -2.81, 0.00, 128.03, 128.03
GPS, 3, 270156000, 15, 1.38, -33.7850689, 151.0662299, -0.48, 85.95, 0.03, 142.24
DU32, 7, 8793
CURR, 0, 0, 1202, 53, 4772, 1.109478
CTUN, 0, 0.00, -0.13, 0.000000, 0.00, 0, -16, 0, 0
ATT, 0.00, -3.30, 0.00, -2.79, 0.00, 128.04, 128.04
CTUN, 0, 0.00, -0.22, 0.000000, 0.00, 0, -15, 0, 0
ATT, 0.00, -3.30, 0.00, -2.80, 0.00, 128.04, 128.04
GPS, 3, 270156200, 15, 1.38, -33.7850689, 151.0662299, -0.48, 85.96, 0.04, 142.24
CTUN, 0, 0.00, -0.12, 0.000000, 0.00, 0, -15, 0, 0
ATT, 0.00, -3.30, 0.00, -2.79, 0.00, 128.05, 128.05
CTUN, 0, 0.00, -0.17, 0.000000, 0.00, 0, -15, 0, 0
ATT, 0.00, -3.29, 0.00, -2.77, 0.00, 128.06, 128.06
GPS, 3, 270156400, 15, 1.38, -33.7850689, 151.0662299, -0.47, 85.95, 0.04, 142.24
CTUN, 0, 0.00, -0.13, 0.000000, 0.00, 0, -14, 0, 0
ATT, 0.00, -3.29, 0.00, -2.78, 0.00, 128.07, 128.07
CTUN, 0, 0.00, -0.20, 0.000000, 0.00, 0, -14, 0, 0
ATT, 0.00, -3.29, 0.00, -2.77, 0.00, 128.07, 128.07
GPS, 3, 270156600, 15, 1.38, -33.7850688, 151.0662299, -0.46, 85.95, 0.02, 142.24
CTUN, 0, 0.00, -0.06, 0.000000, 0.00, 0, -14, 0, 0
ATT, 0.00, -3.30, 0.00, -2.76, 0.00, 128.09, 128.09
CTUN, 0, 0.00, -0.21, 0.000000, 0.00, 0, -13, 0, 0
ATT, 0.00, -3.31, 0.00, -2.75, 0.00, 128.09, 128.09
GPS, 3, 270156800, 15, 1.38, -33.7850688, 151.0662299, -0.45, 85.95, 0.02, 142.24
CTUN, 0, 0.00, -0.15, 0.000000, 0.00, 0, -13, 0, 0
ATT, 0.00, -3.30, 0.00, -2.75, 0.00, 128.10, 128.10
CTUN, 0, 0.00, -0.14, 0.000000, 0.00, 0, -13, 0, 0
ATT, 0.00, -3.31, 0.00, -2.74, 0.00, 128.10, 128.10
GPS, 3, 270157000, 15, 1.38, -33.7850688, 151.0662299, -0.44, 85.95, 0.02, 142.24
DU32, 7, 8793
CURR, 0, 0, 1198, 57, 4772, 1.265280
CTUN, 0, 0.00, -0.28, 0.000000, 0.00, 0, -12, 0, 0
ATT, 0.00, -3.31, 0.00, -2.74, 0.00, 128.11, 128.11
CTUN, 0, 0.00, -0.14, 0.000000, 0.00, 0, -13, 0, 0
ATT, 0.00, -3.31, 0.00, -2.73, 0.00, 128.12, 128.12
GPS, 3, 270157200, 15, 1.38, -33.7850687, 151.0662299, -0.44, 85.96, 0.02, 142.24
CTUN, 0, 0.00, -0.16, 0.000000, 0.00, 0, -12, 0, 0
ATT, 0.00, -3.30, 0.00, -2.72, 0.00, 128.13, 128.13
CTUN, 0, 0.00, -0.22, 0.000000, 0.00, 0, -12, 0, 0
ATT, 0.00, -3.30, 0.00, -2.72, 0.00, 128.14, 128.14
GPS, 3, 270157400, 15, 1.38, -33.7850687, 151.0662298, -0.43, 85.96, 0.02, 142.24
CTUN, 0, 0.00, -0.18, 0.000000, 0.00, 0, -12, 0, 0
ATT, 0.00, -3.30, 0.00, -2.71, 0.00, 128.14, 128.14
CTUN, 0, 0.00, -0.14, 0.000000, 0.00, 0, -11, 0, 0
ATT, 0.00, -3.29, 0.00, -2.71, 0.00, 128.15, 128.15
GPS, 3, 270157600, 15, 1.38, -33.7850686, 151.0662298, -0.43, 85.97, 0.01, 142.24
CTUN, 0, 0.00, -0.25, 0.000000, 0.00, 0, -11, 0, 0
ATT, 0.00, -3.31, 0.00, -2.70, 0.00, 128.15, 128.15
CTUN, 0, 0.00, -0.19, 0.000000, 0.00, 0, -11, 0, 0
ATT, 0.00, -3.31, 0.00, -2.71, 0.00, 128.15, 128.15
GPS, 3, 270157800, 15, 1.38, -33.7850685, 151.0662298, -0.42, 85.98, 0.00, 142.24
CTUN, 0, 0.00, -0.11, 0.000000, 0.00, 0, -11, 0, 0
ATT, 0.00, -3.32, 0.00, -2.69, 0.00, 128.16, 128.16
CTUN, 0, 0.00, -0.21, 0.000000, 0.00, 0, -10, 0, 0
ATT, 0.00, -3.32, 0.00, -2.70, 0.00, 128.17, 128.17
GPS, 3, 270158000, 15, 1.38, -33.7850685, 151.0662298, -0.41, 85.98, 0.01, 142.24
DU32, 7, 8793
CURR, 0, 0, 1196, 60, 4752, 1.421227
CTUN, 0, 0.00, -0.15, 0.000000, 0.00, 0, -10, 0, 0
ATT, 0.00, -3.32, 0.00, -2.69, 0.00, 128.18, 128.18
CTUN, 0, 0.00, -0.16, 0.000000, 0.00, 0, -10, 0, 0
ATT, 0.00, -3.31, 0.00, -2.68, 0.00, 128.18, 128.18
GPS, 3, 270158200, 15, 1.38, -33.7850684, 151.0662298, -0.40, 85.99, 0.02, 142.24
CTUN, 0, 0.00, -0.17, 0.000000, 0.00, 0, -9, 0, 0
ATT, 0.00, -3.31, 0.00, -2.69, 0.00, 128.20, 128.20
CTUN, 0, 0.00, -0.12, 0.000000, 0.00, 0, -9, 0, 0
ATT, 0.00, -3.30, 0.00, -2.68, 0.00, 128.20, 128.20
GPS, 3, 270158400, 15, 1.38, -33.7850683, 151.0662298, -0.39, 85.99, 0.01, 142.24
CTUN, 0, 0.00, -0.17, 0.000000, 0.00, 0, -9, 0, 0
ATT, 0.00, -3.31, 0.00, -2.68, 0.00, 128.21, 128.21
CTUN, 0, 0.00, -0.18, 0.000000, 0.00, 0, -9, 0, 0
ATT, 0.00, -3.32, 0.00, -2.67, 0.00, 128.22, 128.22
GPS, 3, 270158600, 15, 1.38, -33.7850683, 151.0662298, -0.39, 86.00, 0.01, 142.24
CTUN, 0, 0.00, -0.23, 0.000000, 0.00, 0, -8, 0, 0
ATT, 0.00, -3.31, 0.00, -2.67, 0.00, 128.22, 128.22
CTUN, 0, 0.00, -0.25, 0.000000, 0.00, 0, -9, 0, 0
ATT, 0.00, -3.32, 0.00, -2.65, 0.00, 128.24, 128.24
GPS, 3, 270158800, 15, 1.38, -33.7850682, 151.0662298, -0.38, 86.00, 0.00, 142.24
CTUN, 0, 0.00, -0.26, 0.000000, 0.00, 0, -8, 0, 0
ATT, 0.00, -3.31, 0.00, -2.65, 0.00, 128.24, 128.24
CTUN, 0, 0.00, -0.19, 0.000000, 0.00, 0, -8, 0, 0
ATT, 0.00, -3.33, 0.00, -2.65, 0.00, 128.25, 128.25
GPS, 3, 270159000, 15, 1.38, -33.7850682, 151.0662298, -0.38, 86.00, 0.01, 142.24
DU32, 7, 8793
CURR, 0, 0, 1203, 58, 4793, 1.584308
CTUN, 0, 0.00, -0.29, 0.000000, 0.00, 0, -8, 0, 0
ATT, 0.00, -3.32, 0.00, -2.64, 0.00, 128.25, 128.25
CTUN, 0, 0.00, -0.29, 0.000000, 0.00, 0, -8, 0, 0
ATT, 0.00, -3.32, 0.00, -2.65, 0.00, 128.26, 128.26
GPS, 3, 270159200, 15, 1.38, -33.7850680, 151.0662298, -0.39, 86.01, 0.02, 142.24
CTUN, 0, 0.00, -0.29, 0.000000, 0.00, 0, -8, 0, 0
ATT, 0.00, -3.32, 0.00, -2.63, 0.00, 128.28, 128.28
CTUN, 0, 0.00, -0.16, 0.000000, 0.00, 0, -7, 0, 0
ATT, 0.00, -3.31, 0.00, -2.64, 0.00, 128.28, 128.28
GPS, 3, 270159400, 15, 1.38, -33.7850679, 151.0662298, -0.38, 86.02, 0.01, 142.24
CTUN, 0, 0.00, -0.27, 0.000000, 0.00, 0, -7, 0, 0
ATT, 0.00, -3.32, 0.00, -2.63, 0.00, 128.28, 128.28
CTUN, 0, 0.00, -0.15, 0.000000, 0.00, 0, -7, 0, 0
ATT, 0.00, -3.31, 0.00, -2.63, 0.00, 128.29, 128.29
GPS, 3, 270159600, 15, 1.38, -33.7850678, 151.0662297, -0.38, 86.04, 0.01, 142.24
CTUN, 0, 0.00, -0.09, 0.000000, 0.00, 0, -7, 0, 0
ATT, 0.00, -3.33, 0.00, -2.63, 0.00, 128.29, 128.29
CTUN, 0, 0.00, -0.27, 0.000000, 0.00, 0, -6, 0, 0
ATT, 0.00, -3.31, 0.00, -2.63, 0.00, 128.30, 128.30
GPS, 3, 270159800, 15, 1.38, -33.7850677, 151.0662297, -0.37, 86.04, 0.01, 142.24
CTUN, 0, 0.00, -0.28, 0.000000, 0.00, 0, -7, 0, 0
ATT, 0.00, -3.33, 0.00, -2.62, 0.00, 128.32, 128.32
CTUN, 0, 0.00, -0.15, 0.000000, 0.00, 0, -6, 0, 0
ATT, 0.00, -3.32, 0.00, -2.62, 0.00, 128.33, 128.33
GPS, 3, 270160000, 15, 1.38, -33.7850676, 151.0662297, -0.36, 86.05, 0.01, 142.24
DU32, 7, 8793
CURR, 0, 0, 1204, 58, 4793, 1.739114
CTUN, 0, 0.00, -0.15, 0.000000, 0.00, 0, -6, 0, 0
ATT, 0.00, -3.32, 0.00, -2.61, 0.00, 128.34, 128.34
EV, 15
CTUN, 131, 0.00, -0.37, 0.000000, 0.00, 0, -6, 131, 0
ATT, 0.00, -3.32, 0.00, -2.60, 0.00, 128.34, 128.34
GPS, 3, 270160200, 15, 1.38, -33.7850675, 151.0662297, -0.36, 86.05, 0.01, 142.24
CTUN, 131, 0.00, -0.30, 0.000000, 0.00, 0, -6, 131, 0
ATT, 0.00, -3.32, 0.00, -2.59, 0.00, 128.33, 128.33
CTUN, 0, 0.00, -0.59, 0.000000, 0.00, 0, -6, 0, 0
ATT, 0.00, -3.32, 0.00, -2.57, 0.00, 128.32, 128.32
EV, 15
GPS, 3, 270160400, 15, 1.38, -33.7850674, 151.0662297, -0.38, 86.06, 0.01, 142.24
CTUN, 131, 0.00, -0.95, 0.000000, 0.00, 0, -6, 131, 0
EV, 28
ATT, 0.00, -3.32, 0.00, -2.60, 0.00, 128.32, 128.32
CTUN, 204, 0.00, -0.71, 0.000000, 0.00, 0, -7, 220, 0
ATT, 0.00, -3.31, 0.00, -2.60, 0.00, 128.29, 128.32
GPS, 3, 270160600, 15, 1.38, -33.7850674, 151.0662297, -0.45, 86.06, 0.00, 142.24
CTUN, 203, 0.00, -0.84, 0.000000, 0.00, 0, -7, 218, 0
ATT, 0.00, -3.31, 0.00, -2.61, 0.00, 128.28, 128.32
CTUN, 203, 0.00, -1.47, 0.000000, 0.00, 0, -8, 218, 0
ATT, 0.00, -3.29, 0.00, -2.59, 0.00, 128.27, 128.32
GPS, 3, 270160800, 15, 1.38, -33.7850673, 151.0662297, -0.54, 86.07, 0.01, 142.24
CTUN, 210, 0.00, -1.06, 0.000000, 0.00, 0, -9, 227, 0
ATT, 0.00, -3.31, 0.00, -2.62, 0.00, 128.25, 128.32
CTUN, 258, 0.00, -1.29, 0.000000, 0.00, 0, -10, 285, 0
ATT, 0.00, -3.23, 0.00, -2.65, 0.00, 128.19, 128.32
GPS, 3, 270161000, 15, 1.38, -33.7850672, 151.0662296, -0.64, 86.07, 0.01, 142.24
DU32, 7, 8313
CURR, 321, 1666, 1174, 342, 4732, 2.400896
CTUN, 321, 0.00, -1.35, 0.000000, 0.00, 0, -12, 362, 0
ATT, 0.00, -3.27, 0.00, -2.51, 0.00, 128.13, 128.32
CTUN, 369, 0.00, -1.40, 0.000000, 0.00, 0, -14, 420, 0
ATT, 0.00, -3.28, 0.00, -2.43, 0.00, 128.09, 128.32
GPS, 3, 270161200, 15, 1.38, -33.7850670, 151.0662296, -0.75, 86.07, 0.03, 142.24
CTUN, 369, 0.00, -1.75, 0.000000, 0.00, 0, -15, 420, 0
ATT, 0.00, -3.24, 0.00, -2.42, 0.00, 127.92, 128.32
CTUN, 369, 0.00, -2.11, 0.000000, 0.00, 0, -17, 420, 0
ATT, 0.00, -3.28, 0.00, -2.41, 0.00, 127.86, 128.32
GPS, 3, 270161400, 15, 1.38, -33.7850669, 151.0662296, -0.91, 86.09, 0.03, 142.24
CTUN, 395, 0.00, -2.15, 0.000000, 0.00, 0, -19, 452, 0
ATT, 0.00, -3.32, 0.00, -2.36, 0.00, 127.86, 128.32
CTUN, 414, 0.00, -1.68, 0.000000, 0.00, 0, -20, 475, 0
ATT, 0.00, -3.23, 0.00, -2.23, 0.00, 127.73, 128.32
GPS, 3, 270161600, 15, 1.38, -33.7850667, 151.0662296, -1.07, 86.10, 0.04, 142.24
CTUN, 416, 0.00, -2.19, 0.000000, 0.00, 0, -20, 477, 0
EV, 16
ATT, 0.00, -3.38, 0.00, -1.83, 0.00, 127.23, 128.32
CTUN, 426, 0.00, -2.82, 0.000000, 0.00, 0, -21, 490, 0
ATT, 0.00, -3.60, 0.00, -1.29, 0.00, 126.61, 128.32
GPS, 3, 270161800, 15, 1.38, -33.7850666, 151.0662296, -1.27, 86.10, 0.07, 142.24
CTUN, 425, 0.00, -2.07, 0.000000, 0.00, 0, -21, 488, 0
ATT, 0.00, -3.95, 0.57, 0.07, 0.00, 126.18, 128.32
CTUN, 425, 0.00, -2.04, 0.000000, 0.00, 0, -24, 488, 0
ATT, 0.00, -4.16, 0.34, 1.44, 0.00, 125.49, 128.32
GPS, 3, 270162000, 15, 1.38, -33.7850663, 151.0662297, -1.41, 86.11, 0.08, 142.24
DU32, 7, 8569
CURR, 447, 6134, 1121, 973, 4752, 4.735527
CTUN, 447, 0.00, -2.53, 0.000000, 0.00, 0, -26, 515, 0
ATT, 0.00, -4.84, 0.23, 1.64, 0.00, 123.99, 128.32
CTUN, 490, 0.00, -2.68, 0.000000, 0.00, 0, -23, 567, 0
ATT, 0.00, -4.95, 0.00, 2.72, 0.00, 121.95, 128.32
GPS, 3, 270162200, 15, 1.38, -33.7850661, 151.0662299, -1.59, 86.13, 0.11, 142.24
CTUN, 514, 0.00, -1.83, 0.000000, 0.00, 0, -16, 591, 0
ATT, 0.00, -4.20, 0.00, 4.58, 0.00, 119.97, 128.32
CTUN, 528, 0.00, -1.27, 0.000000, 0.00, 0, -7, 603, 0
ATT, 2.74, -2.45, 0.00, 5.63, 0.00, 119.01, 128.32
GPS, 3, 270162400, 15, 1.38, -33.7850659, 151.0662299, -1.62, 86.16, 0.09, 142.24
CTUN, 530, 0.00, -0.66, 0.000000, 0.00, 0, 6, 605, 0
ATT, 0.00, 0.43, 0.00, 5.68, 0.00, 118.86, 128.32
CTUN, 530, 0.00, -0.31, 0.000000, 0.00, 0, 17, 605, 0
ATT, 0.00, 0.68, 0.00, 5.80, 0.00, 119.26, 128.32
GPS, 3, 270162600, 15, 1.38, -33.7850656, 151.0662300, -1.47, 86.22, 0.16, 94.94
CTUN, 530, 0.00, -0.10, 0.000000, 0.00, 0, 28, 605, 0
ATT, 0.00, -0.37, 0.00, 4.78, 0.00, 120.06, 128.32
CTUN, 530, 0.00, 0.01, 0.000000, 0.00, 0, 34, 605, 0
ATT, 0.00, -1.35, 0.00, 3.42, 0.00, 120.87, 128.32
GPS, 3, 270162800, 15, 1.38, -33.7850649, 151.0662299, -1.24, 86.35, 0.30, 12.30
CTUN, 531, 0.00, 0.01, 0.000000, 0.00, 0, 37, 606, 0
ATT, 0.00, -1.63, 0.00, 2.27, 0.00, 121.36, 128.32
CTUN, 531, 0.00, -0.03, 0.000000, 0.00, 0, 42, 606, 0
ATT, 0.00, -0.77, 0.00, 2.18, 0.00, 121.57, 128.32
GPS, 3, 270163000, 15, 1.38, -33.7850641, 151.0662298, -1.02, 86.49, 0.42, 357.98
DU32, 7, 8569
CURR, 525, 12029, 1102, 1359, 4752, 8.318056
CTUN, 525, 0.00, 0.32, 0.000000, 0.00, 0, 44, 601, 0
ATT, 0.00, -0.29, 0.00, 2.09, 0.00, 121.80, 128.32
CTUN, 525, 0.00, 0.08, 0.000000, 0.00, 0, 46, 601, 0
ATT, 0.00, 0.18, 0.00, 2.02, 0.00, 122.05, 128.32
GPS, 3, 270163200, 15, 1.38, -33.7850632, 151.0662296, -0.79, 86.62, 0.45, 353.01
CTUN, 525, 0.00, 0.32, 0.000000, 0.00, 0, 49, 601, 0
ATT, 0.00, 0.14, 0.00, 1.95, 0.00, 122.60, 128.32
CTUN, 525, 0.00, 0.41, 0.000000, 0.00, 0, 51, 601, 0
ATT, 0.00, -0.04, 0.00, 1.83, 0.00, 123.17, 128.32
GPS, 3, 270163400, 15, 1.38, -33.7850623, 151.0662296, -0.56, 86.76, 0.50, 355.77
CTUN, 527, 0.00, 0.45, 0.000000, 0.00, 0, 53, 602, 0
ATT, 0.00, -0.33, 0.00, 1.68, 0.00, 123.57, 128.32
CTUN, 525, 0.00, 0.57, 0.000000, 0.00, 0, 56, 601, 0
ATT, 0.00, -0.67, 0.00, 1.65, 0.00, 124.18, 128.32
GPS, 3, 270163600, 15, 1.38, -33.7850614, 151.0662297, -0.32, 86.90, 0.47, 358.46
CTUN, 505, 0.00, 0.47, 0.000000, 0.00, 0, 57, 584, 0
ATT, 0.00, -0.75, 0.00, 1.50, 0.00, 124.61, 128.32
CTUN, 507, 0.00, 0.53, 0.000000, 0.00, 0, 57, 585, 0
ATT, 0.00, -0.79, 0.00, 1.12, 0.00, 124.93, 128.32
GPS, 3, 270163800, 15, 1.38, -33.7850604, 151.0662299, -0.11, 87.05, 0.49, 3.24
CTUN, 495, 0.00, 0.69, 0.000000, 0.00, 0, 57, 573, 0
ATT, 2.74, -0.61, 0.00, 1.04, 0.00, 125.03, 128.32
CTUN, 495, 0.00, 0.78, 0.000000, 0.00, 0, 54, 573, 0
ATT, 7.32, 0.70, 0.00, 1.03, 0.00, 124.97, 128.32
GPS, 3, 270164000, 15, 1.38, -33.7850593, 151.0662302, 0.08, 87.19, 0.58, 9.43
DU32, 7, 8569
CURR, 495, 17951, 1103, 1225, 4712, 11.91763
CTUN, 495, 0.00, 0.85, 0.000000, 0.00, 0, 51, 573, 0
ATT, 6.52, 5.21, 0.00, 1.05, 0.00, 124.90, 128.32
CTUN, 495, 0.00, 0.96, 0.000000, 0.00, 0, 48, 573, 0
ATT, 8.12, 8.13, 0.00, 1.02, 0.00, 124.80, 128.32
GPS, 3, 270164200, 15, 1.38, -33.7850584, 151.0662305, 0.27, 87.30, 0.51, 11.42
CTUN, 495, 0.00, 1.08, 0.000000, 0.00, 0, 45, 573, 0
ATT, 15.11, 10.00, 4.63, 0.98, 0.00, 124.87, 128.32
CTUN, 495, 0.00, 1.13, 0.000000, 0.00, 0, 41, 573, 0
ATT, 15.34, 13.50, 4.52, 3.45, 0.00, 125.14, 128.32
GPS, 3, 270164400, 15, 1.38, -33.7850576, 151.0662307, 0.45, 87.42, 0.41, 12.40
CTUN, 495, 0.00, 0.97, 0.000000, 0.00, 0, 37, 573, 0
ATT, 15.34, 15.64, 6.37, 4.89, 0.00, 125.45, 128.32
CTUN, 495, 0.00, 1.08, 0.000000, 0.00, 0, 32, 573, 0
ATT, 10.30, 16.14, 6.26, 6.61, 0.00, 125.63, 128.32
GPS, 3, 270164600, 15, 1.38, -33.7850573, 151.0662304, 0.58, 87.50, 0.21, 3.79
CTUN, 495, 0.00, 1.09, 0.000000, 0.00, 0, 25, 573, 0
ATT, 5.72, 13.76, 4.17, 7.78, 0.00, 125.78, 128.32
CTUN, 495, 0.00, 1.12, 0.000000, 0.00, 0, 20, 573, 0
ATT, 0.00, 8.32, 3.36, 6.73, 0.00, 125.61, 128.32
GPS, 3, 270164800, 15, 1.38, -33.7850571, 151.0662292, 0.68, 87.57, 0.58, 297.40
CTUN, 495, 0.00, 1.25, 0.000000, 0.00, 0, 17, 573, 0
ATT, 0.00, 1.86, 0.00, 4.90, 0.00, 125.26, 128.32
CTUN, 495, 0.00, 1.24, 0.000000, 0.00, 0, 15, 573, 0
ATT, 0.00, -3.10, 0.00, 1.94, 0.00, 125.11, 128.32
GPS, 3, 270165000, 15, 1.38, -33.7850569, 151.0662273, 0.77, 87.63, 0.86, 286.03
DU32, 7, 8569
CURR, 495, 23681, 1100, 1229, 4732, 15.30730
PM, 0, 0, 50, 0, 1000, 10248, 10, 0
CTUN, 495, 0.00, 1.21, 0.000000, 0.00, 0, 14, 573, 0
ATT, 0.00, -5.48, 0.00, 0.88, 0.00, 124.87, 128.32
CTUN, 495, 0.00, 1.22, 0.000000, 0.00, 0, 12, 573, 0
ATT, 0.00, -5.55, 0.00, 0.76, 0.00, 124.86, 128.32
GPS, 3, 270165200, 15, 1.38, -33.7850566, 151.0662254, 0.85, 87.67, 0.92, 281.89
CTUN, 495, 0.00, 1.09, 0.000000, 0.00, 0, 9, 573, 0
ATT, 0.00, -4.35, 0.00, 1.05, 0.00, 125.04, 128.32
CTUN, 495, 0.00, 1.09, 0.000000, 0.00, 0, 8, 573, 0
ATT, 0.00, -2.55, -1.34, 1.53, 0.00, 125.34, 128.32
GPS, 3, 270165400, 15, 1.38, -33.7850564, 151.0662237, 0.90, 87.70, 0.79, 279.99
CTUN, 495, 0.00, 1.22, 0.000000, 0.00, 0, 6, 573, 0
ATT, 0.00, -1.01, -1.59, 1.07, 0.00, 125.71, 128.32
CTUN, 495, 0.00, 1.22, 0.000000, 0.00, 0, 5, 573, 0
ATT, 0.00, -0.15, -0.85, 0.45, 0.00, 126.04, 128.32
GPS, 3, 270165600, 15, 1.38, -33.7850561, 151.0662224, 0.94, 87.66, 0.65, 278.69
CTUN, 495, 0.00, 1.01, 0.000000, 0.00, 0, 5, 573, 0
ATT, 0.00, -0.05, -1.22, 0.61, 0.00, 126.15, 128.32
CTUN, 495, 0.00, 1.13, 0.000000, 0.00, 0, 3, 573, 0
ATT, 0.00, -0.29, -2.94, 0.67, 0.00, 126.27, 128.32
GPS, 3, 270165800, 15, 1.38, -33.7850557, 151.0662212, 0.97, 87.64, 0.59, 283.13
CTUN, 497, 0.00, 1.04, 0.000000, 0.00, 0, 3, 576, 0
ATT, 0.00, -0.64, -5.27, -0.55, 0.00, 126.55, 128.32
CTUN, 498, 0.00, 1.12, 0.000000, 0.00, 0, 1, 577, 0
ATT, 0.00, -0.25, -6.37, -2.60, 0.00, 126.79, 128.32
GPS, 3, 270166000, 15, 1.38, -33.7850553, 151.0662201, 0.98, 87.60, 0.54, 285.19
DU32, 7, 8569
CURR, 498, 29993, 1099, 1220, 4732, 19.00510
CTUN, 498, 0.00, 1.03, 0.000000, 0.00, 0, 0, 577, 0
ATT, 0.00, 0.74, -6.74, -4.17, 0.00, 126.96, 128.32
CTUN, 513, 0.00, 1.04, 0.000000, 0.00, 0, 0, 590, 0
ATT, 0.00, 2.21, -6.00, -4.91, 0.00, 127.01, 128.32
GPS, 3, 270166200, 15, 1.38, -33.7850550, 151.0662193, 0.99, 87.57, 0.40, 285.07
CTUN, 513, 0.00, 1.10, 0.000000, 0.00, 0, 0, 590, 0
ATT, 0.00, 3.54, -4.65, -4.50, 0.00, 126.76, 128.32
CTUN, 513, 0.00, 0.91, 0.000000, 0.00, 0, 0, 590, 0
ATT, 0.00, 4.39, -2.69, -3.36, 0.00, 126.27, 128.32
GPS, 3, 270166400, 15, 1.38, -33.7850550, 151.0662187, 0.99, 87.55, 0.32, 285.07
CTUN, 530, 0.00, 1.01, 0.000000, 0.00, 0, 2, 605, 0
ATT, 0.00, 4.21, 0.00, -1.42, 0.00, 125.70, 128.32
CTUN, 532, 0.00, 0.95, 0.000000, 0.00, 0, 6, 606, 0
ATT, -3.04, 3.36, 0.00, 1.23, 0.00, 125.19, 128.32
GPS, 3, 270166600, 15, 1.38, -33.7850555, 151.0662181, 1.00, 87.53, 0.40, 285.07
CTUN, 537, 0.00, 1.09, 0.000000, 0.00, 0, 8, 611, 0
ATT, -5.85, 1.27, 0.00, 2.01, 0.00, 124.77, 128.32
CTUN, 545, 0.00, 0.98, 0.000000, 0.00, 0, 13, 617, 0
ATT, -6.67, -2.74, 0.00, 1.99, 0.00, 124.27, 128.32
GPS, 3, 270166800, 15, 1.38, -33.7850560, 151.0662174, 1.03, 87.50, 0.46, 250.88
CTUN, 555, 0.00, 0.93, 0.000000, 0.00, 0, 19, 626, 0
ATT, -6.79, -5.87, 0.00, 1.91, 0.00, 123.82, 128.32
CTUN, 556, 0.00, 0.86, 0.000000, 0.00, 0, 26, 627, 0
ATT, -5.97, -7.63, 0.00, 1.48, 0.00, 123.50, 128.32
DU32, 7, 8569
CURR, 555, 36066, 1083, 1401, 4752, 22.68336
GPS, 3, 270167000, 15, 1.38, -33.7850562, 151.0662167, 1.07, 87.51, 0.38, 244.99
CTUN, 554, 0.00, 0.97, 0.000000, 0.00, 0, 33, 625, 0
ATT, -2.92, -7.39, 0.00, 1.26, 0.00, 123.22, 128.32
CTUN, 555, 0.00, 0.89, 0.000000, 0.00, 0, 37, 626, 0
ATT, -1.75, -4.63, 0.00, 1.12, 0.00, 123.18, 128.32
GPS, 3, 270167200, 15, 1.38, -33.7850562, 151.0662164, 1.12, 87.54, 0.15, 244.99
CTUN, 555, 0.00, 1.08, 0.000000, 0.00, 0, 43, 626, 0
ATT, 0.00, -1.16, -2.08, 0.86, 0.00, 123.35, 128.32
CTUN, 555, 0.00, 0.99, 0.000000, 0.00, 0, 47, 626, 0
ATT, 0.00, 2.68, -0.12, -0.18, 0.00, 123.89, 128.32
GPS, 3, 270167400, 15, 1.38, -33.7850561, 151.0662165, 1.20, 87.59, 0.04, 244.99
CTUN, 555, 0.00, 0.89, 0.000000, 0.00, 0, 53, 626, 0
ATT, 0.00, 4.89, 0.00, 0.34, 0.00, 124.49, 128.32
CTUN, 553, 0.00, 0.98, 0.000000, 0.00, 0, 59, 624, 0
ATT, 0.00, 6.24, 0.00, 0.79, 0.00, 125.10, 128.32
GPS, 3, 270167600, 15, 1.38, -33.7850559, 151.0662165, 1.28, 87.64, 0.06, 244.99
CTUN, 553, 0.00, 1.12, 0.000000, 0.00, 0, 64, 624, 0
ATT, 0.00, 6.43, 0.00, 1.15, 0.00, 125.32, 128.32
CTUN, 553, 0.00, 1.19, 0.000000, 0.00, 0, 70, 624, 0
ATT, 0.00, 5.17, 0.00, 1.08, 0.00, 125.29, 128.32
GPS, 3, 270167800, 15, 1.38, -33.7850558, 151.0662162, 1.40, 87.75, 0.13, 244.99
CTUN, 553, 0.00, 1.22, 0.000000, 0.00, 0, 76, 624, 0
ATT, 0.00, 3.12, 0.00, 0.81, 0.00, 124.99, 128.32
CTUN, 520, 0.00, 1.37, 0.000000, 0.00, 0, 83, 596, 0
ATT, 0.00, 0.91, 0.00, 0.57, 0.00, 124.61, 128.32
DU32, 7, 8569
CURR, 508, 42256, 1089, 1252, 4732, 26.50001
GPS, 3, 270168000, 15, 1.38, -33.7850557, 151.0662157, 1.56, 87.87, 0.27, 251.52
CTUN, 508, 0.00, 1.26, 0.000000, 0.00, 0, 88, 586, 0
ATT, 0.00, -0.76, 0.00, 0.55, 0.00, 124.23, 128.32
CTUN, 508, 0.00, 1.34, 0.000000, 0.00, 0, 86, 586, 0
ATT, 0.00, -1.46, 0.00, 0.52, 0.00, 124.00, 128.32
GPS, 3, 270168200, 15, 1.38, -33.7850557, 151.0662148, 1.70, 88.00, 0.43, 259.55
CTUN, 490, 0.00, 1.47, 0.000000, 0.00, 0, 86, 567, 0
ATT, 0.00, -1.39, 0.00, 0.35, 0.00, 123.86, 128.32
CTUN, 484, 0.00, 1.36, 0.000000, 0.00, 0, 83, 560, 0
ATT, 0.00, -0.86, 0.00, 0.43, 0.00, 124.00, 128.32
GPS, 3, 270168400, 15, 1.38, -33.7850556, 151.0662140, 1.83, 88.11, 0.38, 262.94
CTUN, 425, 0.00, 1.54, 0.000000, 0.00, 0, 76, 488, 0
ATT, 0.00, -0.20, 0.00, 0.57, 0.00, 123.95, 128.32
CTUN, 424, 0.00, 1.66, 0.000000, 0.00, 0, 62, 487, 0
ATT, 0.00, 0.26, 0.00, 0.46, 0.00, 123.98, 128.32
GPS, 3, 270168600, 15, 1.38, -33.7850555, 151.0662133, 1.92, 88.23, 0.31, 267.43
CTUN, 424, 0.00, 1.59, 0.000000, 0.00, 0, 44, 487, 0
ATT, 0.00, 0.59, 0.00, 0.08, 0.24, 124.13, 128.33
CTUN, 424, 0.00, 1.67, 0.000000, 0.00, 0, 27, 487, 0
ATT, 0.00, 0.24, 0.00, -0.17, 0.37, 124.43, 128.49
GPS, 3, 270168800, 15, 1.38, -33.7850553, 151.0662126, 1.94, 88.32, 0.35, 273.51
CTUN, 424, 0.00, 1.76, 0.000000, 0.00, 0, 9, 487, 0
ATT, 0.00, -0.24, 0.00, 0.01, 0.49, 124.73, 128.65
CTUN, 424, 0.00, 1.74, 0.000000, 0.00, 0, -7, 487, 0
ATT, 0.00, -0.45, 0.00, 0.46, 0.49, 125.11, 128.83
DU32, 7, 8569
CURR, 424, 47383, 1114, 953, 4712, 29.41905
GPS, 3, 270169000, 15, 1.38, -33.7850552, 151.0662120, 1.90, 88.30, 0.31, 272.39
CTUN, 424, 0.00, 1.67, 0.000000, 0.00, 0, -24, 487, 0
ATT, 0.00, -0.55, 0.00, 0.76, 0.49, 125.69, 129.05
CTUN, 424, 0.00, 1.64, 0.000000, 0.00, 0, -41, 487, 0
ATT, 0.00, -0.45, 0.00, 1.10, 0.12, 126.20, 129.12
GPS, 3, 270169200, 15, 1.38, -33.7850550, 151.0662113, 1.79, 88.20, 0.32, 273.70
CTUN, 424, 0.00, 1.47, 0.000000, 0.00, 0, -58, 487, 0
MODE, LOITER, 551
NTUN, 0.00, 0.00, 0.000000, 0.000000, 0.000000, 0.000000, 16.83556, -23.00521, 0.000000, 0.000000, -0.05, 1.14
ATT, 0.00, 0.04, 0.00, 1.10, 0.37, 126.62, 129.23
CTUN, 424, 0.00, 1.40, 1.210000, 0.00, 0, -72, 568, 0
NTUN, 0.00, 1.15, -0.116104, 0.269516, 16.71945, -22.73569, 18.74059, -22.93948, 0.000000, 0.000000, 0.00, 0.00
ATT, 0.00, -0.13, 0.00, 1.35, 0.37, 126.94, 129.33
GPS, 3, 270169400, 15, 1.38, -33.7850547, 151.0662107, 1.61, 88.09, 0.34, 276.16
CTUN, 424, 0.00, 1.39, 1.210000, 0.00, 0, -76, 635, 0
NTUN, 0.00, 1.15, -0.031417, 0.989563, 13.54654, -18.48041, 20.64632, -22.62238, -36.72915, 46.55281, 0.07, -3.45
ATT, 0.00, -0.91, 0.00, 0.93, 0.74, 127.03, 129.49
CTUN, 424, 0.00, 1.31, 1.210000, 0.00, 0, -66, 659, 0
NTUN, 0.00, 1.01, -0.537597, 2.056900, 9.929352, -14.03692, 23.02102, -21.40201, -47.17188, 52.43485, 0.35, -4.09
ATT, 0.00, -1.71, 0.00, -0.42, 0.74, 127.14, 129.79
GPS, 3, 270169600, 15, 1.38, -33.7850544, 151.0662101, 1.46, 87.89, 0.31, 284.00
NTUN, 0.02, 1.15, -1.658356, 3.361847, 5.867291, -9.539997, 26.77637, -16.32433, -59.03092, 57.42351, 0.72, -4.74
CTUN, 424, 0.00, 1.09, 1.210000, 0.00, 0, -51, 665, 0
ATT, 0.00, -2.20, 0.00, -1.25, 0.74, 127.38, 130.09
NTUN, 0.03, 1.25, -3.384491, 4.675644, 1.302502, -5.145617, 27.83171, -12.35443, -72.64789, 54.94379, 1.42, -5.11
CTUN, 424, 0.00, 1.08, 1.210000, 0.00, 0, -35, 641, 0
ATT, 0.00, -1.36, 0.00, -2.04, 0.49, 127.51, 130.33
GPS, 3, 270169800, 15, 1.38, -33.7850539, 151.0662097, 1.34, 87.75, 0.30, 297.84
NTUN, 0.08, 1.33, -5.572128, 5.830429, -3.596050, -1.048876, 25.10639, -9.805288, -83.98552, 52.96741, 2.00, -5.42
CTUN, 424, 0.00, 1.24, 1.210000, 0.00, 0, -21, 625, 0
ATT, 0.00, 1.20, 0.00, -2.30, 0.49, 127.53, 130.53
NTUN, 0.10, 1.39, -7.993515, 6.832901, -7.993515, 2.763165, 20.95405, -9.011503, -81.97465, 52.12041, 1.93, -5.31
CTUN, 425, 0.00, 1.00, 1.210000, 0.00, 1, -12, 613, 0
ATT, 0.00, 2.85, 0.00, -2.83, 0.00, 127.57, 130.67
DU32, 7, 8569
CURR, 426, 53374, 1083, 1324, 4732, 33.00470
GPS, 3, 270170000, 15, 1.38, -33.7850535, 151.0662094, 1.29, 87.64, 0.21, 306.80
NTUN, 0.12, 1.42, -10.15073, 7.909042, -10.15073, 6.522445, 15.06740, -8.055248, -57.57211, 55.59280, 0.68, -4.61
CTUN, 424, 0.00, 0.76, 1.210000, 0.00, 1, -7, 603, 0
ATT, 0.00, 3.63, 0.00, -2.70, 0.00, 127.60, 130.67
MODE, ALT_HOLD, 551
CTUN, 426, 0.00, 0.93, 1.210000, 0.00, 1, -3, 597, 0
ATT, 0.00, 3.56, 0.00, -2.53, 0.00, 127.69, 130.67
GPS, 3, 270170200, 15, 1.38, -33.7850533, 151.0662092, 1.23, 87.57, 0.16, 306.80
CTUN, 426, 0.00, 0.95, 1.210000, 0.00, 0, 0, 589, 0
ATT, 0.00, 3.14, 0.00, -0.41, 0.00, 127.71, 130.67
CTUN, 424, 0.00, 0.85, 1.210000, 0.00, 0, 1, 590, 0
ATT, 0.00, 2.44, 0.00, 1.71, 0.00, 127.53, 130.67
GPS, 3, 270170400, 15, 1.38, -33.7850533, 151.0662089, 1.19, 87.54, 0.18, 306.80
CTUN, 424, 0.00, 0.81, 1.210000, 0.00, 0, 2, 593, 0
ATT, 0.00, 1.10, 0.00, 2.17, 0.00, 127.50, 130.67
CTUN, 424, 0.00, 0.84, 1.210000, 0.00, 0, 3, 593, 0
ATT, 0.00, 0.06, 0.00, 2.06, 0.00, 127.54, 130.67
GPS, 3, 270170600, 15, 1.38, -33.7850533, 151.0662084, 1.16, 87.50, 0.25, 306.80
CTUN, 426, 0.00, 0.91, 1.210000, 0.00, 0, 4, 592, 0
ATT, 0.00, -0.33, 0.00, 2.21, 0.00, 127.59, 130.67
CTUN, 424, 0.00, 0.87, 1.210000, 0.00, 0, 5, 594, 0
ATT, 0.00, -0.03, 0.00, 2.16, 0.00, 127.77, 130.67
GPS, 3, 270170800, 15, 1.38, -33.7850532, 151.0662078, 1.13, 87.48, 0.27, 294.65
CTUN, 424, 0.00, 0.89, 1.210000, 0.00, 0, 5, 597, 0
ATT, 0.00, 0.24, 0.00, 2.40, 0.00, 127.95, 130.67
CTUN, 424, 0.00, 0.69, 1.210000, 0.00, 0, 6, 601, 0
ATT, 0.00, 0.58, 0.00, 2.48, 0.00, 128.01, 130.67
DU32, 7, 8569
CURR, 425, 59300, 1084, 1287, 4752, 36.53833
GPS, 3, 270171000, 15, 1.38, -33.7850530, 151.0662072, 1.11, 87.46, 0.31, 282.08
CTUN, 424, 0.00, 0.70, 1.210000, 0.00, 0, 8, 592, 0
ATT, 0.00, 1.21, 0.00, 2.37, 0.00, 127.91, 130.67
CTUN, 425, 0.00, 0.82, 1.210000, 0.00, 0, 9, 601, 0
ATT, 0.00, 1.54, 0.00, 1.82, 0.00, 127.72, 130.67
GPS, 3, 270171200, 15, 1.38, -33.7850527, 151.0662064, 1.09, 87.44, 0.39, 289.66
CTUN, 424, 0.00, 0.60, 1.210000, 0.00, 0, 10, 599, 0
ATT, 0.00, 0.78, 0.00, 1.34, 0.00, 127.43, 130.67
CTUN, 424, 0.00, 0.72, 1.210000, 0.00, 0, 11, 605, 0
ATT, 0.00, -0.52, 0.00, 1.34, 0.00, 127.07, 130.67
GPS, 3, 270171400, 15, 1.38, -33.7850522, 151.0662056, 1.06, 87.43, 0.45, 293.29
CTUN, 424, 0.00, 0.67, 1.210000, 0.00, 0, 11, 612, 0
ATT, 0.00, -1.45, 0.00, 1.30, 0.00, 126.83, 130.67
CTUN, 424, 0.00, 0.66, 1.210000, 0.00, 0, 12, 611, 0
ATT, 0.00, -1.91, 0.00, 1.51, 0.00, 126.78, 130.67
GPS, 3, 270171600, 15, 1.38, -33.7850517, 151.0662047, 1.04, 87.42, 0.49, 294.53
CTUN, 424, 0.00, 0.66, 1.210000, 0.00, 0, 13, 614, 0
ATT, 0.00, -1.65, 0.00, 1.63, 0.00, 127.00, 130.67
CTUN, 426, 0.00, 0.63, 1.210000, 0.00, 0, 15, 608, 0
ATT, 0.00, -1.26, 0.00, 1.77, 0.00, 127.26, 130.67
GPS, 3, 270171800, 15, 1.38, -33.7850512, 151.0662038, 1.02, 87.43, 0.48, 301.62
CTUN, 425, 0.00, 0.57, 1.210000, 0.00, 0, 17, 605, 0
ATT, 0.00, -0.89, 0.00, 1.73, 0.00, 127.61, 130.67
CTUN, 426, 0.00, 0.71, 1.210000, 0.00, 0, 17, 612, 0
ATT, 0.00, -0.39, 0.00, 1.66, 0.00, 127.98, 130.67
DU32, 7, 8569
CURR, 425, 65365, 1077, 1314, 4752, 40.17164
GPS, 3, 270172000, 15, 1.38, -33.7850505, 151.0662030, 1.01, 87.42, 0.52, 309.82
CTUN, 425, 0.00, 0.66, 1.210000, 0.00, 0, 19, 606, 0
ATT, 0.00, 0.08, 0.00, 1.67, 0.00, 128.22, 130.67
CTUN, 424, 0.00, 0.73, 1.210000, 0.00, 0, 19, 602, 0
ATT, -1.87, 0.16, 0.00, 1.39, 0.00, 128.38, 130.67
GPS, 3, 270172200, 15, 1.38, -33.7850497, 151.0662023, 1.01, 87.44, 0.52, 312.38
CTUN, 424, 0.00, 0.57, 1.210000, 0.00, 0, 20, 597, 0
ATT, 0.00, -0.83, 0.00, 1.16, 0.00, 128.52, 130.67
CTUN, 424, 0.00, 0.66, 1.210000, 0.00, 0, 19, 602, 0
ATT, 0.00, -0.15, 0.00, 1.07, 0.00, 128.59, 130.67
GPS, 3, 270172400, 15, 1.38, -33.7850487, 151.0662017, 1.00, 87.45, 0.59, 321.88
CTUN, 426, 0.00, 0.58, 1.210000, 0.00, 0, 19, 605, 0
ATT, 0.00, 0.31, 0.00, 0.89, 0.00, 128.70, 130.67
CTUN, 426, 0.00, 0.63, 1.210000, 0.00, 0, 19, 602, 0
ATT, 0.00, 0.52, 0.00, 0.62, 0.00, 128.70, 130.67
GPS, 3, 270172600, 15, 1.38, -33.7850478, 151.0662009, 1.00, 87.48, 0.61, 320.89
CTUN, 424, 0.00, 0.67, 1.210000, 0.00, 0, 20, 597, 0
ATT, 0.00, 0.67, 0.00, 0.49, 0.00, 128.68, 130.67
CTUN, 424, 0.00, 0.65, 1.210000, 0.00, 0, 20, 595, 0
ATT, 0.00, 0.73, 0.00, 0.52, 0.00, 128.69, 130.67
GPS, 3, 270172800, 15, 1.38, -33.7850468, 151.0662001, 1.00, 87.49, 0.62, 322.72
CTUN, 425, 0.00, 0.63, 1.210000, 0.00, 0, 20, 594, 0
ATT, 0.00, 0.58, 0.00, 0.83, 0.00, 128.61, 130.67
CTUN, 426, 0.00, 0.51, 1.210000, 0.00, 0, 20, 597, 0
ATT, 0.00, 0.33, 0.00, 0.77, 0.00, 128.53, 130.67
DU32, 7, 8569
CURR, 424, 71368, 1073, 1279, 4712, 43.74504
GPS, 3, 270173000, 15, 1.38, -33.7850458, 151.0661993, 0.99, 87.51, 0.63, 322.10
CTUN, 424, 0.00, 0.74, 1.210000, 0.00, 0, 20, 603, 0
ATT, 0.00, 0.22, 0.00, 0.66, 0.00, 128.31, 130.67
CTUN, 424, 0.00, 0.67, 1.210000, 0.00, 0, 19, 603, 0
ATT, 0.00, 0.09, 0.00, 0.65, 0.00, 128.10, 130.67
GPS, 3, 270173200, 15, 1.38, -33.7850449, 151.0661985, 0.99, 87.52, 0.60, 321.63
CTUN, 424, 0.00, 0.79, 1.210000, 0.00, 0, 19, 607, 0
ATT, 0.00, -0.12, 0.00, 0.85, 0.00, 127.92, 130.67
CTUN, 424, 0.00, 0.59, 1.210000, 0.00, 0, 19, 606, 0
ATT, 0.00, -0.31, 0.00, 1.14, 0.00, 127.80, 130.67
GPS, 3, 270173400, 14, 1.50, -33.7850440, 151.0661978, 1.00, 87.54, 0.61, 321.85
CTUN, 424, 0.00, 0.68, 1.210000, 0.00, 0, 19, 601, 0
ATT, 0.00, -0.38, 0.00, 1.35, 0.00, 127.79, 130.67
CTUN, 424, 0.00, 0.70, 1.210000, 0.00, 0, 19, 609, 0
ATT, 0.00, -0.21, 0.00, 1.40, 0.00, 127.75, 130.67
GPS, 3, 270173600, 14, 1.50, -33.7850430, 151.0661970, 1.00, 87.55, 0.66, 322.14
CTUN, 426, 0.00, 0.58, 1.210000, 0.00, 0, 19, 603, 0
ATT, -4.68, -0.08, 0.00, 1.30, 0.00, 127.80, 130.67
CTUN, 425, 0.00, 0.70, 1.210000, 0.00, 0, 20, 603, 0
ATT, -6.56, -2.08, -1.47, 1.20, 0.00, 127.77, 130.67
GPS, 3, 270173800, 14, 1.50, -33.7850418, 151.0661962, 0.99, 87.58, 0.67, 324.32
CTUN, 424, 0.00, 0.77, 1.210000, 0.00, 1, 19, 608, 0
ATT, -5.27, -4.24, -5.88, -0.05, 0.00, 127.79, 130.67
CTUN, 424, 0.00, 0.55, 1.210000, 0.00, 2, 19, 606, 0
ATT, -5.85, -5.29, -6.25, -3.19, 0.00, 127.76, 130.67
DU32, 7, 8569
CURR, 424, 77400, 1075, 1301, 4752, 47.36167
GPS, 3, 270174000, 14, 1.50, -33.7850407, 151.0661955, 1.00, 87.59, 0.69, 327.69
CTUN, 424, 0.00, 0.54, 1.210000, 0.00, 4, 20, 603, 0
ATT, -5.97, -5.99, -7.35, -5.25, 0.00, 127.61, 130.67
CTUN, 425, 0.00, 0.81, 1.210000, 0.00, 5, 18, 618, 0
ATT, -6.09, -5.89, -7.97, -6.31, 0.00, 127.40, 130.67
GPS, 3, 270174200, 14, 1.50, -33.7850395, 151.0661951, 0.99, 87.62, 0.69, 336.55
CTUN, 426, 0.00, 0.79, 1.210000, 0.00, 5, 20, 609, 0
ATT, -4.68, -5.40, -8.82, -7.04, 0.00, 127.20, 130.67
CTUN, 426, 0.00, 0.64, 1.210000, 0.00, 5, 20, 604, 0
ATT, -4.68, -4.32, -8.70, -7.82, 0.00, 127.08, 130.67
GPS, 3, 270174400, 14, 1.50, -33.7850383, 151.0661954, 1.00, 87.63, 0.64, 350.00
CTUN, 426, 0.00, 0.69, 1.210000, 0.00, 5, 19, 609, 0
ATT, -3.04, -3.59, -9.19, -7.59, 0.00, 127.12, 130.67
CTUN, 424, 0.00, 0.64, 1.210000, 0.00, 4, 20, 600, 0
ATT, -3.63, -2.71, -9.19, -7.36, 0.00, 127.18, 130.67
GPS, 3, 270174600, 14, 1.50, -33.7850373, 151.0661961, 1.00, 87.64, 0.62, 3.90
CTUN, 426, 0.00, 0.67, 1.210000, 0.00, 4, 20, 605, 0
ATT, -2.81, -2.61, -9.31, -7.03, 0.00, 127.51, 130.67
CTUN, 424, 0.00, 0.70, 1.210000, 0.00, 3, 20, 603, 0
ATT, -1.05, -2.59, -9.56, -6.47, 0.00, 127.68, 130.67
GPS, 3, 270174800, 14, 1.50, -33.7850365, 151.0661974, 1.00, 87.64, 0.71, 29.53
CTUN, 424, 0.00, 0.86, 1.210000, 0.00, 2, 20, 600, 0
ATT, 0.00, -1.66, -9.68, -6.00, 0.00, 127.97, 130.67
CTUN, 424, 0.00, 0.77, 1.210000, 0.00, 2, 19, 597, 0
ATT, 0.00, 0.69, -7.72, -5.88, 0.00, 128.36, 130.67
PM, 0, 0, 49, 0, 1000, 10197, 9, 0
DU32, 7, 8569
CURR, 424, 83438, 1077, 1249, 4732, 50.97560
GPS, 3, 270175000, 14, 1.50, -33.7850359, 151.0661992, 1.02, 87.67, 0.86, 51.48
CTUN, 424, 0.00, 0.77, 1.210000, 0.00, 2, 19, 591, 0
ATT, 0.00, 2.57, -5.76, -4.85, 0.00, 128.83, 130.67
CTUN, 426, 0.00, 0.79, 1.210000, 0.00, 1, 18, 592, 0
ATT, 0.00, 3.33, -1.47, -2.44, 0.00, 129.35, 130.67
GPS, 3, 270175200, 13, 1.88, -33.7850355, 151.0662010, 1.03, 87.68, 0.86, 62.20
CTUN, 426, 0.00, 0.64, 1.210000, 0.00, 0, 20, 577, 0
ATT, 0.00, 2.99, 0.00, 1.03, 0.00, 129.76, 130.67
CTUN, 424, 0.00, 0.67, 1.210000, 0.00, 1, 19, 584, 0
ATT, 0.00, 2.25, -2.20, 3.49, 0.00, 129.97, 130.67
GPS, 3, 270175400, 13, 1.88, -33.7850352, 151.0662028, 1.02, 87.70, 0.80, 71.51
CTUN, 424, 0.00, 0.70, 1.210000, 0.00, 0, 15, 604, 0
ATT, 0.00, 1.14, -6.98, 2.01, 0.00, 130.17, 130.67
CTUN, 424, 0.00, 0.71, 1.210000, 0.00, 0, 13, 616, 0
ATT, 0.00, 0.06, -8.09, -1.76, 0.00, 130.40, 130.67
GPS, 3, 270175600, 14, 1.50, -33.7850350, 151.0662043, 1.01, 87.76, 0.70, 75.31
CTUN, 424, 0.00, 0.92, 1.210000, 0.00, 0, 15, 602, 0
ATT, 0.00, -0.49, -8.21, -3.53, 0.00, 130.31, 130.67
CTUN, 425, 0.00, 0.84, 1.210000, 0.00, 0, 17, 597, 0
ATT, 0.00, -0.16, -8.58, -3.27, 0.00, 130.11, 130.67
GPS, 3, 270175800, 14, 1.50, -33.7850347, 151.0662058, 1.03, 87.77, 0.68, 75.46
CTUN, 425, 0.00, 0.64, 1.210000, 0.00, 0, 17, 596, 0
ATT, 0.00, 0.79, -8.21, -3.35, 0.00, 129.96, 130.67
CTUN, 424, 0.00, 0.79, 1.210000, 0.00, 0, 18, 588, 0
ATT, 0.00, 1.35, -8.46, -3.05, 0.00, 130.02, 130.67
DU32, 7, 8569
CURR, 424, 89367, 1076, 1241, 4732, 54.47223
GPS, 3, 270176000, 14, 1.50, -33.7850344, 151.0662072, 1.03, 87.80, 0.64, 76.05
CTUN, 424, 0.00, 0.85, 1.210000, 0.00, 0, 17, 591, 0
ATT, 0.00, 1.74, -8.21, -3.09, 0.00, 130.15, 130.67
CTUN, 424, 0.00, 0.81, 1.210000, 0.00, 0, 17, 587, 0
ATT, 0.00, 1.96, -6.98, -2.78, 0.00, 130.23, 130.67
GPS, 3, 270176200, 13, 1.88, -33.7850343, 151.0662086, 1.04, 87.82, 0.66, 81.55
CTUN, 424, 0.00, 0.90, 1.210000, 0.00, 0, 18, 578, 0
ATT, 0.00, 2.26, -4.90, -1.94, 0.00, 130.34, 130.67
CTUN, 424, 0.00, 0.97, 1.210000, 0.00, 0, 16, 581, 0
ATT, 0.00, 1.99, -5.02, -0.83, 0.00, 130.53, 130.67
GPS, 3, 270176400, 13, 1.88, -33.7850342, 151.0662100, 1.06, 87.85, 0.59, 86.09
CTUN, 425, 0.00, 0.76, 1.210000, 0.00, 0, 15, 584, 0
ATT, 0.00, 1.60, -7.11, -0.07, 0.00, 130.73, 130.67
CTUN, 424, 0.00, 0.88, 1.210000, 0.00, 0, 14, 586, 0
ATT, 0.00, 1.28, -8.09, -1.38, 0.00, 130.92, 130.67
GPS, 3, 270176600, 13, 1.88, -33.7850344, 151.0662111, 1.06, 87.88, 0.52, 93.61
CTUN, 425, 0.00, 0.95, 1.210000, 0.00, 0, 12, 597, 0
ATT, 0.00, 0.86, -8.82, -2.76, 0.00, 131.06, 130.67
CTUN, 426, 0.00, 0.90, 1.210000, 0.00, 0, 10, 602, 0
ATT, 0.00, 0.68, -9.80, -3.51, 0.00, 131.07, 130.67
GPS, 3, 270176800, 13, 1.88, -33.7850343, 151.0662120, 1.07, 87.91, 0.42, 93.44
CTUN, 426, 0.00, 0.98, 1.210000, 0.00, 1, 11, 595, 0
ATT, 0.00, 0.77, -9.07, -4.20, 0.00, 131.00, 130.67
CTUN, 426, 0.00, 0.79, 1.210000, 0.00, 1, 12, 593, 0
ATT, 0.00, 0.86, -7.60, -4.24, 0.00, 130.82, 130.67
DU32, 7, 8569
CURR, 426, 95269, 1077, 1260, 4772, 57.92174
GPS, 3, 270177000, 13, 1.88, -33.7850346, 151.0662129, 1.07, 87.93, 0.43, 107.73
CTUN, 426, 0.00, 0.88, 1.210000, 0.00, 0, 12, 592, 0
ATT, 0.00, 0.89, -6.00, -3.35, 0.00, 130.52, 130.67
CTUN, 424, 0.00, 0.86, 1.210000, 0.00, 0, 11, 598, 0
ATT, 0.00, 0.68, -5.27, -2.54, 0.00, 130.28, 130.67
GPS, 3, 270177200, 13, 1.88, -33.7850349, 151.0662137, 1.07, 87.93, 0.44, 113.59
CTUN, 424, 0.00, 0.97, 1.210000, 0.00, 0, 10, 603, 0
ATT, 0.00, 0.29, -5.39, -1.54, 0.00, 130.16, 130.67
CTUN, 426, 0.00, 0.85, 1.210000, 0.00, 0, 11, 598, 0
ATT, 0.00, 0.14, -6.98, -1.08, 0.00, 130.21, 130.67
GPS, 3, 270177400, 13, 1.88, -33.7850354, 151.0662146, 1.07, 87.96, 0.48, 121.80
CTUN, 426, 0.00, 0.87, 1.210000, 0.00, 0, 11, 599, 0
ATT, 0.00, -0.29, -9.07, -1.98, 0.00, 130.34, 130.67
CTUN, 424, 0.00, 1.00, 1.210000, 0.00, 0, 11, 599, 0
ATT, 0.00, -0.85, -11.03, -3.68, 0.00, 130.59, 130.67
GPS, 3, 270177600, 13, 1.88, -33.7850358, 151.0662154, 1.08, 87.97, 0.45, 125.88
CTUN, 424, 0.00, 0.96, 1.210000, 0.00, 1, 11, 606, 0
ATT, 0.00, -0.87, -12.38, -5.44, 0.00, 130.71, 130.67
CTUN, 424, 0.00, 1.03, 1.210000, 0.00, 4, 10, 615, 0
ATT, 0.00, -0.98, -12.50, -7.68, 0.00, 130.95, 130.67
GPS, 3, 270177800, 15, 1.38, -33.7850364, 151.0662163, 1.09, 88.00, 0.53, 130.31
CTUN, 425, 0.00, 0.97, 1.210000, 0.00, 5, 10, 609, 0
ATT, 0.00, -1.00, -12.26, -8.49, 0.00, 131.14, 130.67
CTUN, 424, 0.00, 0.95, 1.210000, 0.00, 4, 11, 597, 0
ATT, 0.00, -1.03, -11.77, -8.31, 0.00, 131.19, 130.67
DU32, 7, 8569
CURR, 426, 101313, 1071, 1281, 4732, 61.48903
GPS, 3, 270178000, 15, 1.38, -33.7850373, 151.0662173, 1.10, 88.00, 0.67, 134.32
CTUN, 425, 0.00, 0.86, 1.210000, 0.00, 4, 11, 596, 0
ATT, 0.00, -0.91, -10.91, -7.80, 0.00, 131.24, 130.67
CTUN, 424, 0.00, 1.24, 1.210000, 0.00, 3, 11, 595, 0
ATT, 0.00, -0.68, -9.68, -6.87, 0.00, 131.15, 130.67
GPS, 3, 270178200, 15, 1.38, -33.7850385, 151.0662186, 1.11, 88.01, 0.91, 137.65
CTUN, 426, 0.00, 1.02, 1.210000, 0.00, 2, 11, 593, 0
ATT, 0.00, -0.38, -6.37, -5.47, 0.00, 131.07, 130.67
CTUN, 424, 0.00, 1.03, 1.210000, 0.00, 0, 12, 576, 0
ATT, 0.00, -0.15, 0.00, -2.75, 0.00, 131.05, 130.67
GPS, 3, 270178400, 15, 1.38, -33.7850398, 151.0662201, 1.13, 88.03, 1.03, 137.32
CTUN, 424, 0.00, 1.04, 1.210000, 0.00, 0, 10, 580, 0
ATT, 0.00, 0.07, 0.00, 2.19, 0.00, 131.07, 130.67
CTUN, 425, 0.00, 1.17, 1.210000, 0.00, 1, 7, 591, 0
ATT, 0.00, 0.82, 0.00, 4.93, 0.00, 131.31, 130.67
GPS, 3, 270178600, 15, 1.38, -33.7850412, 151.0662217, 1.14, 88.06, 1.10, 138.31
CTUN, 425, 0.00, 0.96, 1.210000, 0.00, 2, 8, 576, 0
ATT, 0.00, 1.13, 0.00, 5.32, 0.00, 131.65, 130.67
CTUN, 424, 0.00, 1.03, 1.210000, 0.00, 1, 5, 591, 0
ATT, 0.00, 1.05, 0.00, 5.14, 0.00, 132.06, 130.67
GPS, 3, 270178800, 15, 1.38, -33.7850426, 151.0662230, 1.14, 88.07, 0.97, 139.93
CTUN, 424, 0.00, 1.09, 1.210000, 0.00, 1, 4, 594, 0
ATT, 0.00, 0.57, 0.00, 4.70, 0.00, 132.37, 130.67
CTUN, 425, 0.00, 1.02, 1.210000, 0.00, 1, 3, 596, 0
ATT, 0.00, 0.20, -2.08, 4.28, 0.00, 132.43, 130.67
DU32, 7, 8569
CURR, 424, 107209, 1069, 1284, 4732, 64.93911
GPS, 3, 270179000, 15, 1.38, -33.7850435, 151.0662240, 1.13, 88.09, 0.70, 141.02
CTUN, 425, 0.00, 0.87, 1.210000, 0.00, 0, 2, 605, 0
ATT, 0.68, 0.23, -2.08, 2.76, 0.00, 132.37, 130.67
CTUN, 424, 0.00, 1.08, 1.210000, 0.00, 0, 2, 610, 0
ATT, 0.45, 0.12, -2.08, 1.59, 0.00, 132.06, 130.67
GPS, 3, 270179200, 15, 1.38, -33.7850442, 151.0662246, 1.12, 88.09, 0.51, 141.18
CTUN, 424, 0.00, 0.85, 1.210000, 0.00, 0, 4, 608, 0
ATT, 1.37, -0.15, -3.43, 1.46, 0.00, 131.59, 130.67
CTUN, 426, 0.00, 1.01, 1.210000, 0.00, 0, 5, 613, 0
ATT, 0.57, -0.24, -4.53, 0.41, 0.00, 131.23, 130.67
GPS, 3, 270179400, 15, 1.38, -33.7850446, 151.0662252, 1.11, 88.09, 0.40, 139.31
CTUN, 425, 0.00, 0.99, 1.210000, 0.00, 0, 6, 610, 0
ATT, 0.68, -0.69, -4.16, -0.70, 0.00, 130.94, 130.67
CTUN, 424, 0.00, 0.93, 1.210000, 0.00, 0, 7, 609, 0
ATT, 0.00, -1.68, -3.92, -1.27, 0.00, 130.69, 130.67
GPS, 3, 270179600, 15, 1.38, -33.7850450, 151.0662258, 1.11, 88.10, 0.35, 136.27
CTUN, 425, 0.00, 1.04, 1.210000, 0.00, 0, 8, 608, 0
ATT, 0.00, -2.47, -3.80, -1.51, 0.00, 130.47, 130.67
CTUN, 426, 0.00, 0.98, 1.210000, 0.00, 0, 7, 615, 0
ATT, 0.00, -2.71, -2.20, -1.79, 0.00, 130.25, 130.67
GPS, 3, 270179800, 15, 1.38, -33.7850453, 151.0662264, 1.11, 88.12, 0.31, 131.03
CTUN, 425, 0.00, 0.96, 1.210000, 0.00, 0, 7, 614, 0
ATT, 0.00, -2.60, -1.47, -0.84, 0.00, 129.92, 130.67
CTUN, 426, 0.00, 1.07, 1.210000, 0.00, 0, 6, 618, 0
ATT, 0.00, -1.94, -0.24, 0.18, 0.00, 129.74, 130.67
DU32, 7, 8569
CURR, 425, 113338, 1062, 1327, 4712, 68.57681
GPS, 3, 270180000, 15, 1.38, -33.7850455, 151.0662272, 1.11, 88.13, 0.41, 120.85
CTUN, 424, 0.00, 0.95, 1.210000, 0.00, 0, 6, 617, 0
ATT, 0.00, -0.96, 0.00, 1.31, 0.00, 129.63, 130.67
CTUN, 424, 0.00, 1.03, 1.210000, 0.00, 0, 6, 624, 0
ATT, 0.00, -0.33, 0.00, 1.93, 0.00, 129.64, 130.67
GPS, 3, 270180200, 15, 1.38, -33.7850456, 151.0662282, 1.11, 88.17, 0.45, 114.36
CTUN, 425, 0.00, 0.97, 1.210000, 0.00, 0, 7, 622, 0
ATT, 0.00, 0.12, 0.00, 1.91, 0.00, 129.66, 130.67
CTUN, 425, 0.00, 1.10, 1.210000, 0.00, 0, 7, 621, 0
ATT, 0.00, 0.25, 0.00, 1.88, 0.00, 129.70, 130.67
GPS, 3, 270180400, 15, 1.38, -33.7850457, 151.0662291, 1.12, 88.19, 0.41, 106.13
CTUN, 425, 0.00, 0.91, 1.210000, 0.00, 0, 7, 619, 0
ATT, 0.00, 0.48, 0.00, 2.15, 0.00, 129.89, 130.67
CTUN, 425, 0.00, 1.09, 1.210000, 0.00, 0, 8, 613, 0
ATT, 0.00, 0.77, 0.00, 2.21, 0.00, 130.21, 130.67
GPS, 3, 270180600, 15, 1.38, -33.7850455, 151.0662299, 1.12, 88.20, 0.36, 95.91
CTUN, 425, 0.00, 1.14, 1.210000, 0.00, 0, 8, 614, 0
ATT, 0.00, 0.62, 0.00, 2.22, 0.00, 130.56, 130.67
CTUN, 425, 0.00, 1.04, 1.210000, 0.00, 0, 8, 613, 0
ATT, 0.00, 0.04, 0.00, 2.27, 0.00, 130.91, 130.67
GPS, 3, 270180800, 15, 1.38, -33.7850452, 151.0662305, 1.13, 88.22, 0.32, 80.47
CTUN, 425, 0.00, 1.14, 1.210000, 0.00, 0, 7, 614, 0
ATT, 0.00, -0.61, 0.00, 2.32, 0.00, 131.03, 130.67
CTUN, 425, 0.00, 1.19, 1.210000, 0.00, 0, 7, 613, 0
ATT, 0.00, -1.04, 0.00, 2.08, 0.00, 131.12, 130.67
DU32, 7, 8569
CURR, 425, 119511, 1068, 1299, 4772, 72.25616
GPS, 3, 270181000, 15, 1.38, -33.7850448, 151.0662310, 1.15, 88.24, 0.30, 64.32
CTUN, 425, 0.00, 1.00, 1.210000, 0.00, 0, 7, 605, 0
ATT, 0.00, -1.35, 0.00, 1.52, 0.00, 131.12, 130.67
CTUN, 425, 0.00, 1.13, 1.210000, 0.00, 0, 6, 610, 0
ATT, 0.00, -1.50, 0.00, 1.24, 0.00, 130.97, 130.67
GPS, 3, 270181200, 14, 1.50, -33.7850442, 151.0662315, 1.15, 88.25, 0.38, 42.75
CTUN, 425, 0.00, 1.13, 1.210000, 0.00, 0, 5, 611, 0
ATT, 0.00, -1.44, 0.00, 0.88, 0.00, 130.80, 130.67
CTUN, 425, 0.00, 1.02, 1.210000, 0.00, 0, 5, 611, 0
ATT, 0.00, -1.10, 0.00, 0.80, 0.00, 130.54, 130.67
GPS, 3, 270181400, 14, 1.50, -33.7850435, 151.0662320, 1.15, 88.27, 0.41, 35.35
CTUN, 425, 0.00, 1.18, 1.210000, 0.00, 0, 4, 612, 0
ATT, 0.00, -0.54, 0.00, 0.88, 0.00, 130.17, 130.67
CTUN, 425, 0.00, 1.18, 1.210000, 0.00, 0, 4, 606, 0
ATT, 0.00, -0.19, 0.00, 0.87, 0.00, 129.80, 130.67
GPS, 3, 270181600, 14, 1.50, -33.7850427, 151.0662325, 1.16, 88.28, 0.50, 30.17
CTUN, 425, 0.00, 1.24, 1.210000, 0.00, 0, 4, 611, 0
ATT, 0.00, -0.22, 0.00, 0.84, 0.00, 129.50, 130.67
CTUN, 425, 0.00, 1.07, 1.210000, 0.00, 0, 3, 609, 0
ATT, 0.00, -0.24, 0.00, 0.65, 0.00, 129.30, 130.67
GPS, 3, 270181800, 14, 1.50, -33.7850418, 151.0662330, 1.17, 88.28, 0.51, 28.29
CTUN, 425, 0.00, 1.26, 1.210000, 0.00, 0, 2, 610, 0
ATT, 0.00, -0.28, 0.00, 0.57, 0.00, 129.21, 130.67
CTUN, 425, 0.00, 1.16, 1.210000, 0.00, 0, 3, 604, 0
ATT, 0.00, -0.41, 0.00, 0.51, 0.00, 129.05, 130.67
DU32, 7, 8569
CURR, 425, 125597, 1073, 1291, 4793, 75.86602
GPS, 3, 270182000, 14, 1.50, -33.7850409, 151.0662335, 1.18, 88.28, 0.55, 25.37
CTUN, 425, 0.00, 1.18, 1.210000, 0.00, 0, 3, 604, 0
ATT, 0.00, -0.63, 0.00, 0.39, 0.00, 129.06, 130.67
CTUN, 425, 0.00, 1.05, 1.210000, 0.00, 0, 1, 613, 0
ATT, 0.00, -1.04, 0.00, 0.18, 0.00, 129.16, 130.67
GPS, 3, 270182200, 14, 1.50, -33.7850399, 151.0662340, 1.18, 88.29, 0.60, 23.69
CTUN, 425, 0.00, 1.20, 1.210000, 0.00, 0, 1, 609, 0
ATT, 0.00, -0.90, 0.00, 0.19, 0.00, 129.39, 130.67
CTUN, 425, 0.00, 1.10, 1.210000, 0.00, 0, 0, 613, 0
ATT, 0.00, -0.41, 0.00, 0.18, 0.00, 129.62, 130.67
GPS, 3, 270182400, 14, 1.50, -33.7850388, 151.0662346, 1.18, 88.29, 0.65, 22.74
CTUN, 425, 0.00, 1.26, 1.210000, 0.00, 0, 0, 620, 0
ATT, 0.00, -0.16, 0.00, 0.34, 0.00, 129.55, 130.67
CTUN, 425, 0.00, 1.27, 1.210000, 0.00, 0, 0, 617, 0
ATT, 0.00, 0.04, 0.00, 0.37, 0.00, 129.40, 130.67
GPS, 3, 270182600, 14, 1.50, -33.7850376, 151.0662352, 1.18, 88.28, 0.68, 22.97
CTUN, 425, 0.00, 1.20, 1.210000, 0.00, 0, 1, 613, 0
ATT, 0.00, 0.01, 0.00, 0.05, 0.00, 129.32, 130.67
EV, 30
CTUN, 425, 0.00, 1.13, 1.210000, 0.00, 0, 1, 609, 0
ATT, 0.00, -0.07, 0.00, -0.28, 0.00, 129.20, 130.67
GPS, 3, 270182800, 13, 1.88, -33.7850365, 151.0662358, 1.19, 88.30, 0.68, 23.20
CTUN, 425, 0.00, 1.15, 1.210000, 0.00, 0, 0, 614, 0
ATT, 0.00, 0.19, 0.00, -0.36, 0.00, 129.20, 130.67
CTUN, 425, 0.00, 1.12, 1.210000, 0.00, 0, 0, 623, 0
ATT, 0.00, 0.83, 0.00, -0.09, 0.00, 129.40, 130.67
ATDE, 1.04, 1034.370
ATDE, 1.15, 1061.809
ATDE, 1.24, 933.7611
ATDE, 1.31, 689.8601
DU32, 7, 143737
CURR, 425, 131745, 1061, 1376, 4752, 79.52625
ATDE, 1.34, 372.7886
GPS, 3, 270183000, 13, 1.88, -33.7850354, 151.0662365, 1.18, 88.31, 0.67, 24.47
ATDE, 1.29, 524.4486
ATDE, 1.13, 1625.053
CTUN, 425, 0.00, 1.34, 1.210000, 0.00, 0, 2, 609, 0
ATDE, 0.85, 2820.168
ATDE, 0.44, 4042.723
ATT, 0.00, 0.44, 0.00, 0.16, 0.00, 129.74, 130.67
ATDE, 0.03, 4804.914
ATDE, 0.56, 5323.204
ATDE, 1.15, 5917.712
ATDE, 1.75, 5987.834
ATDE, 2.37, 6277.467
ATDE, 2.96, 5841.493
ATDE, 3.51, 5496.983
ATDE, 4.01, 5009.181
CTUN, 425, 0.00, 1.24, 1.210000, 0.00, 1, 1, 614, 0
ATDE, 4.50, 4920.767
ATDE, 4.99, 4929.913
ATT, 0.00, -4.99, 0.00, 0.13, 0.00, 130.20, 130.67
ATDE, 5.49, 4972.596
ATDE, 5.98, 4844.548
ATDE, 6.47, 4926.865
ATDE, 6.97, 5064.059
ATDE, 7.51, 5332.350
ATDE, 8.06, 5557.958
GPS, 3, 270183200, 13, 1.88, -33.7850344, 151.0662371, 1.20, 88.31, 0.62, 25.33
ATDE, 8.61, 5379.487
ATDE, 9.13, 5214.854
CTUN, 425, 0.00, 1.22, 1.210000, 0.00, 6, 0, 622, 0
ATDE, 9.96, 5554.283
ATDE, 10.46, 4949.612
ATT, 0.00, -10.46, 0.00, -0.21, 0.00, 130.87, 130.67
ATDE, 10.95, 4940.465
ATDE, 11.44, 4870.344
ATDE, 11.91, 4684.369
ATDE, 12.37, 4629.491
ATDE, 12.84, 4678.271
ATDE, 13.32, 4769.734
ATDE, 13.82, 5044.124
ATDE, 14.34, 5211.805
CTUN, 425, 0.00, 1.25, 1.210000, 0.00, 15, -1, 634, 0
ATDE, 14.85, 5108.147
ATDE, 15.35, 4928.271
ATT, 0.00, -15.35, 0.00, 0.00, 0.00, 131.35, 130.67
ATDE, 15.84, 4928.271
ATDE, 16.34, 5001.440
ATDE, 16.85, 5102.050
ATDE, 17.35, 5019.733
ATDE, 17.84, 4873.393
ATDE, 18.31, 4687.418
GPS, 3, 270183400, 13, 1.88, -33.7850331, 151.0662379, 1.20, 88.33, 0.79, 25.40
ATDE, 18.76, 4483.982
ATDE, 19.20, 4429.104
CTUN, 425, 0.00, 1.35, 1.210000, 0.00, 29, -3, 660, 0
ATDE, 19.65, 4441.299
ATDE, 20.10, 4575.445
ATT, 0.00, -20.10, 0.00, 0.20, 0.00, 131.66, 130.67
ATUN, 0, 0, 6277.467, 6277.467, 0.060000, 0.004000, 6.750000
CTUN, 425, 0.00, 1.17, 1.210000, 0.00, 39, -3, 663, 0
ATT, 0.00, -20.76, 0.00, 0.39, 0.00, 131.78, 130.67
GPS, 3, 270183600, 14, 1.50, -33.7850315, 151.0662394, 1.20, 88.32, 1.12, 33.75
CTUN, 425, 0.00, 1.22, 1.210000, 0.00, 7, 0, 609, 0
ATT, 0.00, -7.41, 0.00, 0.80, 0.00, 131.36, 130.67
CTUN, 425, 0.00, 1.41, 1.210000, 0.00, 0, 1, 609, 0
ATT, 0.00, 1.64, 0.00, 0.41, 0.00, 131.45, 130.67
GPS, 3, 270183800, 14, 1.50, -33.7850295, 151.0662420, 1.21, 88.32, 1.59, 41.89
CTUN, 425, 0.00, 1.33, 1.210000, 0.00, 2, 0, 619, 0
ATT, 0.00, 6.13, 0.00, -0.28, 0.00, 131.57, 130.67
CTUN, 425, 0.00, 1.36, 1.210000, 0.00, 3, -2, 622, 0
ATT, 0.00, 7.35, 0.00, -0.54, 0.00, 131.76, 130.67
DU32, 7, 12665
CURR, 425, 138011, 1062, 1308, 4712, 83.29259
GPS, 3, 270184000, 14, 1.50, -33.7850273, 151.0662449, 1.23, 88.32, 1.81, 44.54
CTUN, 425, 0.00, 1.32, 1.210000, 0.00, 4, -3, 626, 0
ATT, 0.00, 7.31, 0.00, -0.62, 0.00, 131.94, 130.67
CTUN, 425, 0.00, 1.30, 1.210000, 0.00, 3, -4, 622, 0
ATT, 0.00, 6.66, 0.00, -0.42, 0.00, 132.15, 130.67
GPS, 3, 270184200, 13, 1.88, -33.7850254, 151.0662474, 1.23, 88.33, 1.53, 45.60
CTUN, 425, 0.00, 1.38, 1.210000, 0.00, 3, -4, 625, 0
ATT, 0.00, 6.23, 0.00, -0.56, 0.00, 132.13, 130.67
CTUN, 425, 0.00, 1.40, 1.210000, 0.00, 2, -5, 625, 0
ATT, 0.00, 5.78, 0.00, -0.84, 0.00, 132.01, 130.67
GPS, 3, 270184400, 14, 1.50, -33.7850237, 151.0662494, 1.24, 88.32, 1.32, 45.17
CTUN, 425, 0.00, 1.19, 1.210000, 0.00, 2, -5, 626, 0
ATT, 0.00, 5.33, 0.00, -0.95, 0.00, 131.91, 130.67
CTUN, 425, 0.00, 1.27, 1.210000, 0.00, 1, -4, 623, 0
ATT, 0.00, 4.93, 0.00, -1.03, 0.00, 131.73, 130.67
GPS, 3, 270184600, 15, 1.38, -33.7850223, 151.0662511, 1.23, 88.33, 1.08, 45.11
CTUN, 425, 0.00, 1.26, 1.210000, 0.00, 1, -4, 625, 0
ATT, 0.00, 4.30, 0.00, -1.05, 0.00, 131.52, 130.67
CTUN, 425, 0.00, 1.25, 1.210000, 0.00, 1, -4, 625, 0
ATT, 0.00, 3.58, 0.00, -0.74, 0.00, 131.36, 130.67
GPS, 3, 270184800, 15, 1.38, -33.7850212, 151.0662525, 1.22, 88.33, 0.91, 45.02
CTUN, 425, 0.00, 1.24, 1.210000, 0.00, 0, -3, 624, 0
ATT, 0.00, 2.81, 0.00, -0.45, 0.00, 131.25, 130.67
CTUN, 425, 0.00, 1.36, 1.210000, 0.00, 0, -3, 625, 0
ATT, 0.00, 2.05, 0.00, -0.20, 0.00, 131.18, 130.67
PM, 0, 0, 50, 0, 1000, 10257, 10, 0
DU32, 7, 12665
CURR, 425, 144252, 1059, 1321, 4712, 86.97438
GPS, 3, 270185000, 15, 1.38, -33.7850202, 151.0662537, 1.22, 88.32, 0.74, 45.25
CTUN, 425, 0.00, 1.25, 1.210000, 0.00, 0, -2, 623, 0
ATT, 0.00, 1.74, 0.00, -0.07, 0.00, 131.18, 130.67
ATDE, 1.52, 541.9608
ATDE, 1.48, 319.4009
ATDE, 1.49, 58.64585
ATDE, 1.52, 259.8643
ATDE, 1.59, 695.8376
CTUN, 425, 0.00, 1.28, 1.210000, 0.00, 0, -1, 616, 0
ATDE, 1.77, 1787.295
ATDE, 2.08, 3113.508
ATT, 0.00, 2.08, 0.00, -0.04, 0.00, 131.17, 130.67
ATDE, 2.48, 4073.869
ATDE, 3.01, 5305.569
ATDE, 3.67, 6525.075
ATDE, 4.44, 7720.191
ATDE, 5.66, 8175.473
ATDE, 6.58, 9113.477
