dump 5

ArduCopter V3.1-rc3.1
Free RAM: 1142
APM 2
FMT, 128, 89, FMT, BBnNZ, Type,Length,Name,Format
FMT, 129, 23, PARM, Nf, Name,Value
FMT, 130, 35, GPS, BIBcLLeeEe, Status,Time,NSats,HDop,Lat,Lng,RelAlt,Alt,Spd,GCrs
FMT, 131, 27, IMU, ffffff, GyrX,GyrY,GyrZ,AccX,AccY,AccZ
FMT, 132, 67, MSG, Z, Message
FMT, 9, 19, CURR, hIhhhf, Thr,ThrInt,Volt,Curr,Vcc,CurrTot
FMT, 11, 11, MOT, hhhh, Mot1,Mot2,Mot3,Mot4
FMT, 12, 28, OF, hhBccffee, Dx,Dy,SQual,X,Y,Lat,Lng,Roll,Pitch
FMT, 5, 49, NTUN, Ecffffffffee, WPDst,WPBrg,PErX,PErY,DVelX,DVelY,VelX,VelY,DAcX,DAcY,DRol,DPit
FMT, 4, 25, CTUN, hcefchhhh, ThrIn,SonAlt,BarAlt,WPAlt,DesSonAlt,AngBst,CRate,ThrOut,DCRate
FMT, 15, 21, MAG, hhhhhhhhh, MagX,MagY,MagZ,OfsX,OfsY,OfsZ,MOfsX,MOfsY,MOfsZ
FMT, 6, 17, PM, BBBHHIhB, RenCnt,RenBlw,FixCnt,NLon,NLoop,MaxT,PMT,I2CErr
FMT, 8, 20, CMD, BBBBBeLL, CTot,CNum,CId,COpt,Prm1,Alt,Lat,Lng
FMT, 1, 17, ATT, cccccCC, RollIn,Roll,PitchIn,Pitch,YawIn,Yaw,NavYaw
FMT, 17, 37, INAV, cccfffiiff, BAlt,IAlt,IClb,ACorrX,ACorrY,ACorrZ,GLat,GLng,ILat,ILng
FMT, 3, 6, MODE, Mh, Mode,ThrCrs
FMT, 10, 3, STRT, , 
FMT, 13, 4, EV, B, Id
FMT, 20, 6, D16, Bh, Id,Value
FMT, 21, 6, DU16, BH, Id,Value
FMT, 22, 8, D32, Bi, Id,Value
FMT, 23, 8, DU32, BI, Id,Value
FMT, 24, 8, DFLT, Bf, Id,Value
FMT, 14, 28, PID, Biiiiif, Id,Error,P,I,D,Out,Gain
FMT, 18, 25, CAM, ILLeccC, GPSTime,Lat,Lng,Alt,Roll,Pitch,Yaw
FMT, 19, 5, ERR, BB, Subsys,ECode
D32, 9, 5524
CMD, 6, 0, 16, 0, 0, 0.00, -33.7840727, 151.0681909
EV, 10
GPS, 3, 18882800, 11, 1.82, -33.7840726, 151.0681908, -0.61, 95.93, 0.01, 160.75
CTUN, 146, 0.00, -0.05, 0.000000, 0.00, 0, 4, 0, 0
EV, 15
EV, 28
ATT, 0.00, 0.62, 0.00, 1.04, 0.00, 55.30, 55.24
CTUN, 145, 0.00, -0.10, 0.000000, 0.00, 0, 4, 145, 0
GPS, 3, 18890200, 11, 1.96, -33.7840721, 151.0681882, -0.57, 94.15, 0.01, 160.75
ATT, 0.00, 0.63, 0.00, 1.15, 0.00, 55.18, 55.24
CTUN, 145, 0.00, 0.02, 0.000000, 0.00, 0, 5, 145, 0
ATT, 0.00, 0.62, 0.00, 1.13, 0.00, 55.19, 55.24
CTUN, 143, 0.00, -0.35, 0.000000, 0.00, 0, 5, 145, 0
GPS, 3, 18890400, 11, 1.96, -33.7840721, 151.0681882, -0.49, 94.10, 0.02, 160.75
ATT, 0.00, 0.61, 0.00, 1.15, 0.00, 55.25, 55.24
CTUN, 145, 0.00, -0.34, 0.000000, 0.00, 0, 5, 145, 0
ATT, 0.00, 0.60, 0.00, 1.15, 0.00, 55.27, 55.24
DU32, 7, 1145
CURR, 145, 580, 0, 0, 4772, 0.000000
CTUN, 145, 0.00, -0.46, 0.000000, 0.00, 0, 6, 143, 0
GPS, 3, 18890600, 11, 1.96, -33.7840720, 151.0681881, -0.47, 94.06, 0.01, 160.75
ATT, 0.00, 0.59, 0.00, 1.15, 0.00, 55.31, 55.24
CTUN, 145, 0.00, -0.49, 0.000000, 0.00, 0, 6, 145, 0
ATT, 0.00, 0.58, 0.00, 1.15, 0.00, 55.33, 55.24
CTUN, 145, 0.00, -0.58, 0.000000, 0.00, 0, 5, 145, 0
GPS, 3, 18890800, 11, 1.96, -33.7840719, 151.0681881, -0.46, 94.02, 0.04, 160.75
ATT, 0.00, 0.57, 0.00, 1.14, 0.00, 55.36, 55.24
CTUN, 145, 0.00, -0.49, 0.000000, 0.00, 0, 6, 145, 0
ATT, 0.00, 0.56, 0.00, 1.11, 0.00, 55.39, 55.24
CTUN, 145, 0.00, -0.47, 0.000000, 0.00, 0, 6, 143, 0
GPS, 3, 18891000, 11, 1.96, -33.7840718, 151.0681881, -0.45, 93.98, 0.02, 160.75
CTUN, 145, 0.00, -0.57, 0.000000, 0.00, 0, 6, 145, 0
ATT, 0.00, 0.55, 0.00, 1.12, 0.00, 55.40, 55.24
CTUN, 145, 0.00, -0.48, 0.000000, 0.00, 0, 6, 145, 0
ATT, 0.00, 0.56, 0.00, 1.13, 0.00, 55.41, 55.24
GPS, 3, 18891200, 11, 1.96, -33.7840718, 151.0681881, -0.45, 93.94, 0.00, 160.75
CTUN, 145, 0.00, -0.49, 0.000000, 0.00, 0, 6, 145, 0
ATT, 0.00, 0.54, 0.00, 1.14, 0.00, 55.45, 55.24
CTUN, 147, 0.00, -0.44, 0.000000, 0.00, 0, 6, 147, 0
GPS, 3, 18891400, 11, 1.96, -33.7840717, 151.0681880, -0.44, 93.90, 0.01, 160.75
ATT, 0.00, 0.53, 0.00, 1.13, 0.00, 55.49, 55.24
CTUN, 147, 0.00, -0.46, 0.000000, 0.00, 0, 6, 147, 0
ATT, 0.00, 0.54, 0.00, 1.11, 0.00, 55.51, 55.24
DU32, 7, 1145
CURR, 146, 1888, 0, 0, 4752, 0.000000
CTUN, 148, 0.00, -0.58, 0.000000, 0.00, 0, 5, 147, 0
GPS, 3, 18891600, 11, 1.96, -33.7840717, 151.0681880, -0.43, 93.87, 0.00, 160.75
ATT, 0.00, 0.53, 0.00, 1.14, 0.00, 55.52, 55.24
CTUN, 147, 0.00, -0.48, 0.000000, 0.00, 0, 5, 147, 0
ATT, 0.00, 0.52, 0.00, 1.12, 0.00, 55.54, 55.24
CTUN, 146, 0.00, -0.50, 0.000000, 0.00, 0, 5, 147, 0
GPS, 3, 18891800, 11, 1.96, -33.7840717, 151.0681880, -0.43, 93.84, 0.02, 160.75
ATT, 0.00, 0.53, 0.00, 1.13, 0.00, 55.57, 55.24
CTUN, 139, 0.00, -0.38, 0.000000, 0.00, 0, 5, 139, 0
ATT, 0.00, 0.54, 0.00, 1.09, -4.12, 55.58, 55.58
CTUN, 0, 0.00, -0.35, 0.000000, 0.00, 0, 5, 0, 0
GPS, 3, 18892000, 11, 1.96, -33.7840717, 151.0681880, -0.42, 93.80, 0.02, 160.75
ATT, 0.00, 0.53, 0.00, 1.12, -16.13, 55.59, 55.59
CTUN, 0, 0.00, -0.42, 0.000000, 0.00, 0, 5, 0, 0
ATT, 0.00, 0.54, 0.00, 1.12, -29.21, 55.62, 55.62
CTUN, 0, 0.00, -0.32, 0.000000, 0.00, 0, 5, 0, 0
GPS, 3, 18892200, 11, 1.96, -33.7840717, 151.0681880, -0.41, 93.77, 0.01, 160.75
ATT, 0.00, 0.54, 0.00, 1.12, -44.17, 55.61, 55.61
CTUN, 0, 0.00, -0.28, 0.000000, 0.00, 0, 5, 0, 0
ATT, 0.00, 0.52, 0.00, 1.11, -44.76, 55.62, 55.62
CTUN, 0, 0.00, -0.21, 0.000000, 0.00, 0, 5, 0, 0
GPS, 3, 18892400, 10, 2.05, -33.7840716, 151.0681880, -0.38, 93.75, 0.01, 160.75
PM, 0, 0, 51, 36, 1000, 7334204, 0, 4
ATT, 0.00, 0.51, 0.00, 1.11, -44.88, 55.63, 55.63
CTUN, 0, 0.00, -0.21, 0.000000, 0.00, 0, 6, 0, 0
DU32, 7, 1113
CURR, 0, 2467, 0, 0, 4772, 0.000000
ATT, 0.00, 0.51, 0.00, 1.11, -44.88, 55.63, 55.63
CTUN, 0, 0.00, -0.23, 0.000000, 0.00, 0, 6, 0, 0
GPS, 3, 18892600, 10, 2.05, -33.7840717, 151.0681881, -0.35, 93.71, 0.02, 160.75
ATT, 0.00, 0.50, 0.00, 1.10, -45.00, 55.64, 55.64
CTUN, 0, 0.00, -0.21, 0.000000, 0.00, 0, 6, 0, 0
ATT, 0.00, 0.50, 0.00, 1.10, -45.35, 55.64, 55.64
CTUN, 0, 0.00, -0.18, 0.000000, 0.00, 0, 6, 0, 0
GPS, 3, 18892800, 11, 1.78, -33.7840717, 151.0681882, -0.32, 93.69, 0.02, 160.75
EV, 18
ATT, 0.00, 0.50, 0.00, 1.09, -45.35, 55.65, 55.65
CTUN, 0, 0.00, -0.17, 0.000000, 0.00, 0, 6, 0, 0
ATT, 0.00, 0.51, 0.00, 1.08, -45.35, 55.66, 55.66
CTUN, 0, 0.00, -0.09, 0.000000, 0.00, 0, 6, 0, 0
GPS, 3, 18893000, 11, 1.78, -33.7840718, 151.0681882, -0.29, 93.68, 0.01, 160.75
ATT, 0.00, 0.51, 0.00, 1.09, -45.35, 55.66, 55.66
CTUN, 0, 0.00, -0.16, 0.000000, 0.00, 0, 7, 0, 0
ATT, 0.00, 0.52, 0.00, 1.09, -45.35, 55.66, 55.66
CTUN, 0, 0.00, -0.06, 0.000000, 0.00, 0, 7, 0, 0
GPS, 3, 18893200, 11, 1.78, -33.7840718, 151.0681883, -0.26, 93.67, 0.02, 160.75
ATT, 0.00, 0.51, 0.00, 1.09, -45.35, 55.67, 55.67
CTUN, 0, 0.00, -0.08, 0.000000, 0.00, 0, 7, 0, 0
ATT, 0.00, 0.50, 0.00, 1.09, -45.35, 55.69, 55.69
CTUN, 0, 0.00, -0.15, 0.000000, 0.00, 0, 7, 0, 0
GPS, 3, 18893400, 11, 1.78, -33.7840719, 151.0681884, -0.22, 93.66, 0.01, 160.75
ATT, 0.00, 0.50, 0.00, 1.08, -45.35, 55.70, 55.70
CTUN, 0, 0.00, -0.02, 0.000000, 0.00, 0, 8, 0, 0
DU32, 7, 1625
CURR, 0, 2467, 0, 0, 4752, 0.000000
ATT, 0.00, 0.51, 0.00, 1.08, -45.35, 55.71, 55.71
CTUN, 0, 0.00, -0.03, 0.000000, 0.00, 0, 8, 0, 0
GPS, 3, 18893600, 11, 1.78, -33.7840719, 151.0681885, -0.19, 93.63, 0.01, 160.75
ATT, 0.00, 0.50, 0.00, 1.07, -45.35, 55.71, 55.71
CTUN, 0, 0.00, 0.02, 0.000000, 0.00, 0, 8, 0, 0
ATT, 0.00, 0.50, 0.00, 1.08, -45.35, 55.71, 55.71
CTUN, 0, 0.00, -0.08, 0.000000, 0.00, 0, 8, 0, 0
GPS, 3, 18893800, 11, 1.78, -33.7840719, 151.0681886, -0.15, 93.62, 0.02, 160.75
ATT, 0.00, 0.49, 0.00, 1.08, -45.23, 55.71, 55.71
CTUN, 0, 0.00, -0.12, 0.000000, 0.00, 0, 8, 0, 0
ATT, 0.00, 0.49, 0.00, 1.07, -45.35, 55.72, 55.72
CTUN, 0, 0.00, -0.04, 0.000000, 0.00, 0, 9, 0, 0
GPS, 3, 18894000, 11, 1.78, -33.7840720, 151.0681887, -0.13, 93.59, 0.03, 160.75
ATT, 0.00, 0.48, 0.00, 1.06, -45.35, 55.73, 55.73
CTUN, 0, 0.00, -0.12, 0.000000, 0.00, 0, 9, 0, 0
ATT, 0.00, 0.49, 0.00, 1.07, -45.35, 55.73, 55.73
CTUN, 0, 0.00, -0.11, 0.000000, 0.00, 0, 9, 0, 0
EV, 11
DU32, 7, 1625
DU32, 7, 1625
DU32, 7, 1625
DU32, 7, 1625
DU32, 7, 1625
DU32, 7, 1625
DU32, 7, 1625
DU32, 7, 1625
PM, 0, 0, 50, 4, 1001, 113528, 0, 4
DU32, 7, 1625
DU32, 7, 1625
D32, 9, 5648
CMD, 6, 0, 16, 0, 0, 0.00, -33.7840704, 151.0681937
EV, 10
GPS, 3, 18904800, 12, 1.63, -33.7840704, 151.0681938, 0.10, 93.90, 0.01, 160.75
EV, 15
DU32, 7, 1657
CURR, 237, 2467, 0, 0, 4752, 0.000000
EV, 28
CTUN, 236, 0.00, -0.01, 0.000000, 0.00, 0, 3, 236, 0
ATT, 0.00, 0.65, 0.00, 0.87, 0.00, 56.51, 56.49
GPS, 3, 18906800, 12, 1.63, -33.7840699, 151.0681943, 0.10, 94.02, 0.01, 160.75
CTUN, 237, 0.00, 0.13, 0.000000, 0.00, 0, 2, 237, 0
ATT, 0.00, 0.67, 0.00, 0.86, 0.00, 56.50, 56.49
CTUN, 237, 0.00, -0.15, 0.000000, 0.00, 0, 2, 237, 0
GPS, 3, 18907000, 12, 1.73, -33.7840698, 151.0681944, 0.10, 94.03, 0.04, 160.75
ATT, 0.00, 0.65, 0.00, 0.85, 0.00, 56.48, 56.49
CTUN, 237, 0.00, -0.52, 0.000000, 0.00, 0, 2, 238, 0
ATT, 0.00, 0.63, 0.00, 0.85, 0.00, 56.52, 56.49
CTUN, 238, 0.00, -0.66, 0.000000, 0.00, 0, 1, 238, 0
GPS, 3, 18907200, 12, 1.73, -33.7840697, 151.0681945, 0.04, 94.05, 0.01, 160.75
ATT, 0.00, 0.61, 0.00, 0.84, 0.00, 56.51, 56.49
CTUN, 237, 0.00, -0.83, 0.000000, 0.00, 0, 0, 237, 0
ATT, 0.00, 0.60, 0.00, 0.83, 0.00, 56.52, 56.49
CTUN, 238, 0.00, -0.89, 0.000000, 0.00, 0, 0, 238, 0
GPS, 3, 18907400, 12, 1.73, -33.7840698, 151.0681946, -0.04, 94.03, 0.02, 160.75
ATT, 0.00, 0.63, 0.00, 0.86, 0.00, 56.55, 56.49
CTUN, 237, 0.00, -0.73, 0.000000, 0.00, 0, -1, 237, 0
ATT, 0.00, 0.61, 0.00, 0.86, 0.00, 56.56, 56.49
CTUN, 238, 0.00, -0.87, 0.000000, 0.00, 0, -2, 237, 0
GPS, 3, 18907600, 12, 1.73, -33.7840698, 151.0681947, -0.13, 94.04, 0.01, 160.75
ATT, 0.00, 0.61, 0.00, 0.87, 0.00, 56.59, 56.49
CTUN, 237, 0.00, -0.78, 0.000000, 0.00, 0, -3, 237, 0
DU32, 7, 1145
CURR, 238, 4602, 0, 0, 4732, 0.000000
ATT, 0.00, 0.61, 0.00, 0.86, 0.00, 56.58, 56.49
CTUN, 238, 0.00, -0.70, 0.000000, 0.00, 0, -4, 237, 0
GPS, 3, 18907800, 12, 1.73, -33.7840698, 151.0681948, -0.22, 94.02, 0.02, 160.75
CTUN, 254, 0.00, -0.81, 0.000000, 0.00, 0, -4, 254, 0
ATT, 0.00, 0.61, 0.00, 0.84, 0.00, 56.60, 56.49
CTUN, 339, 0.00, -0.91, 0.000000, 0.00, 0, -5, 326, 0
ATT, 0.00, 0.63, 0.00, 0.84, 0.00, 56.62, 56.49
GPS, 3, 18908000, 12, 1.73, -33.7840698, 151.0681947, -0.29, 94.00, 0.02, 160.75
EV, 16
CTUN, 422, 0.00, -1.10, 0.000000, 0.00, 0, -5, 422, 0
ATT, 0.00, 0.61, 0.00, 0.85, 0.00, 56.61, 56.49
CTUN, 420, 0.00, -0.99, 0.000000, 0.00, 0, -5, 420, 0
GPS, 3, 18908200, 12, 1.73, -33.7840698, 151.0681947, -0.39, 94.01, 0.03, 160.75
ATT, 0.00, 0.54, 0.00, 0.92, 0.00, 56.47, 56.49
CTUN, 421, 0.00, -1.62, 0.000000, 0.00, 0, -6, 421, 0
ATT, 0.00, 0.54, 0.00, 0.88, 0.00, 56.45, 56.49
CTUN, 423, 0.00, -1.69, 0.000000, 0.00, 0, -8, 423, 0
GPS, 3, 18908400, 12, 1.73, -33.7840698, 151.0681947, -0.52, 94.02, 0.02, 160.75
ATT, 0.00, 0.61, 0.00, 0.94, 0.00, 56.43, 56.49
CTUN, 432, 0.00, -1.80, 0.000000, 0.00, 0, -10, 423, 0
ATT, 0.00, 0.60, 0.00, 0.92, 0.00, 56.51, 56.49
CTUN, 538, 0.00, -1.83, 0.000000, 0.00, 0, -11, 538, 0
GPS, 3, 18908600, 12, 1.73, -33.7840696, 151.0681947, -0.68, 94.02, 0.02, 160.75
ATT, 0.00, 0.62, 0.00, 1.22, 0.00, 56.21, 56.49
CTUN, 610, 0.00, -2.00, 0.000000, 0.00, 0, -9, 592, 0
DU32, 7, 1401
CURR, 653, 8371, 0, 0, 4712, 0.000000
ATT, 0.00, -0.79, 0.00, 2.12, 0.00, 54.97, 56.49
CTUN, 668, 0.00, -2.05, 0.000000, 0.00, 0, 5, 653, 0
GPS, 3, 18908800, 12, 1.73, -33.7840697, 151.0681946, -0.84, 93.99, 0.02, 160.75
CTUN, 691, 0.00, -1.54, 0.000000, 0.00, 0, 33, 689, 0
ATT, 0.00, -0.70, 0.00, 2.94, 0.00, 52.44, 56.49
CTUN, 691, 0.00, -0.36, 0.000000, 0.00, 1, 66, 691, 0
ATT, 0.00, -0.54, -2.18, 3.62, 0.00, 49.70, 56.49
GPS, 3, 18909000, 12, 1.73, -33.7840695, 151.0681944, -0.84, 94.03, 0.08, 160.75
CTUN, 688, 0.00, 0.06, 0.000000, 0.00, 0, 94, 688, 0
ATT, 0.00, -0.59, -3.03, 1.79, 0.00, 47.03, 56.49
CTUN, 654, 0.00, 0.28, 0.000000, 0.00, 0, 120, 654, 0
GPS, 3, 18909200, 12, 1.63, -33.7840692, 151.0681937, -0.55, 94.20, 0.23, 160.75
ATT, 0.00, -0.12, -7.64, 0.09, 0.00, 44.52, 54.52
CTUN, 631, 0.00, 0.43, 0.000000, 0.00, 0, 139, 630, 0
ATT, 0.00, 0.52, -8.73, -2.44, 0.00, 42.68, 52.68
CTUN, 623, 0.00, 0.56, 0.000000, 0.00, 0, 151, 623, 0
GPS, 3, 18909400, 13, 1.61, -33.7840691, 151.0681934, -0.17, 94.53, 0.14, 160.75
ATT, 0.00, 0.50, -7.52, -5.69, 0.00, 40.90, 50.90
CTUN, 583, 0.00, 0.80, 0.000000, 0.00, 2, 157, 589, 0
ATT, 0.00, 0.93, -3.15, -6.30, 2.88, 39.53, 49.53
CTUN, 565, 0.00, 1.05, 0.000000, 0.00, 2, 158, 567, 0
GPS, 3, 18909600, 13, 1.61, -33.7840683, 151.0681926, 0.24, 95.07, 0.27, 160.75
ATT, 0.00, 1.87, -2.18, -3.92, 15.60, 39.08, 49.08
CTUN, 525, 0.00, 1.22, 0.000000, 0.00, 1, 159, 527, 0
ATT, 0.00, 3.36, -3.15, -1.23, 21.12, 41.29, 51.29
CTUN, 527, 0.00, 1.34, 0.000000, 0.00, 0, 156, 527, 0
GPS, 3, 18909800, 13, 1.61, -33.7840680, 151.0681921, 0.63, 95.46, 0.14, 160.75
DU32, 7, 1401
CURR, 527, 14578, 0, 0, 4712, 0.000000
ATT, 0.00, 3.10, -3.15, -0.14, 22.08, 46.16, 56.16
CTUN, 526, 0.00, 1.67, 0.000000, 0.00, 0, 150, 526, 0
ATT, 0.00, 1.77, -2.91, -0.88, 12.36, 52.17, 62.08
CTUN, 525, 0.00, 1.58, 0.000000, 0.00, 0, 139, 525, 0
GPS, 3, 18910000, 13, 1.61, -33.7840677, 151.0681920, 1.04, 95.80, 0.11, 160.75
CTUN, 527, 0.00, 1.77, 0.000000, 0.00, 0, 124, 527, 0
ATT, 0.00, 0.20, -3.15, -1.87, 5.64, 58.13, 67.06
CTUN, 525, 0.00, 1.97, 0.000000, 0.00, 0, 110, 525, 0
ATT, 0.00, -0.14, -4.24, -2.27, 4.68, 62.09, 69.20
GPS, 3, 18910200, 13, 1.61, -33.7840675, 151.0681917, 1.35, 96.11, 0.11, 160.75
CTUN, 525, 0.00, 2.01, 0.000000, 0.00, 0, 98, 525, 0
ATT, 0.00, -0.75, -5.57, -3.44, 0.48, 65.49, 70.07
CTUN, 527, 0.00, 2.14, 0.000000, 0.00, 0, 85, 527, 0
GPS, 3, 18910400, 13, 1.61, -33.7840671, 151.0681916, 1.61, 96.27, 0.18, 160.75
ATT, 0.00, -1.08, -5.33, -4.22, 0.00, 66.55, 70.07
CTUN, 526, 0.00, 2.09, 0.000000, 0.00, 1, 73, 527, 0
ATT, 0.00, -1.13, -4.73, -4.30, 0.00, 66.44, 70.07
CTUN, 527, 0.00, 2.23, 0.000000, 0.00, 1, 62, 528, 0
GPS, 3, 18910600, 13, 1.61, -33.7840667, 151.0681915, 1.81, 96.44, 0.18, 160.75
ATT, 0.00, -0.81, -8.61, -4.07, 0.00, 65.65, 70.07
CTUN, 527, 0.00, 2.40, 0.000000, 0.00, 1, 51, 528, 0
ATT, 0.00, -0.51, -9.58, -5.65, 0.00, 64.80, 70.07
CTUN, 527, 0.00, 2.31, 0.000000, 0.00, 2, 43, 529, 0
GPS, 3, 18910800, 13, 1.61, -33.7840660, 151.0681917, 1.96, 96.53, 0.35, 68.19
DU32, 7, 1401
CURR, 527, 19315, 0, 0, 4772, 0.000000
ATT, 0.00, -0.82, -8.24, -7.31, 0.00, 63.78, 70.07
CTUN, 528, 0.00, 2.57, 0.000000, 0.00, 3, 32, 531, 0
ATT, 0.00, -0.43, -5.82, -7.00, 0.00, 62.94, 70.07
CTUN, 527, 0.00, 2.49, 0.000000, 0.00, 2, 23, 528, 0
GPS, 3, 18911000, 13, 1.61, -33.7840651, 151.0681922, 2.08, 96.59, 0.53, 41.28
CTUN, 527, 0.00, 2.62, 0.000000, 0.00, 1, 15, 528, 0
ATT, 0.00, -0.09, -5.45, -5.29, 0.00, 61.96, 70.07
CTUN, 527, 0.00, 2.62, 0.000000, 0.00, 1, 8, 528, 0
ATT, 0.00, 0.00, -4.85, -4.21, 0.00, 61.22, 70.07
GPS, 3, 18911200, 13, 1.61, -33.7840641, 151.0681931, 2.16, 96.54, 0.67, 40.77
CTUN, 538, 0.00, 2.48, 0.000000, 0.00, 0, 2, 534, 0
ATT, 0.00, -0.08, -3.15, -3.68, 0.00, 60.50, 70.07
CTUN, 548, 0.00, 2.71, 0.000000, 0.00, 0, -2, 548, 0
GPS, 3, 18911400, 13, 1.61, -33.7840627, 151.0681939, 2.21, 96.49, 0.78, 35.67
ATT, 0.00, -0.08, -0.12, -2.66, 0.00, 60.12, 70.07
CTUN, 560, 0.00, 2.56, 0.000000, 0.00, 0, -4, 560, 0
ATT, 0.00, -0.10, 0.00, -1.11, 0.00, 60.02, 70.02
CTUN, 571, 0.00, 2.54, 0.000000, 0.00, 0, -4, 571, 0
GPS, 3, 18911600, 13, 1.61, -33.7840615, 151.0681948, 2.25, 96.41, 0.82, 34.05
ATT, 0.00, 0.25, 0.00, 0.12, 0.00, 59.99, 69.99
CTUN, 572, 0.00, 2.66, 0.000000, 0.00, 0, -4, 571, 0
ATT, 0.00, 0.27, 0.00, 0.44, 0.00, 60.04, 69.99
CTUN, 576, 0.00, 2.55, 0.000000, 0.00, 0, -2, 576, 0
GPS, 3, 18911800, 13, 1.61, -33.7840607, 151.0681960, 2.28, 96.37, 0.81, 37.17
DU32, 7, 1401
CURR, 576, 24245, 0, 0, 4732, 0.000000
ATT, 0.00, 0.48, 0.00, 0.70, 0.00, 60.08, 69.99
CTUN, 576, 0.00, 2.68, 0.000000, 0.00, 0, 0, 576, 0
ATT, 0.00, 0.63, 0.00, 0.65, 0.00, 60.12, 69.99
CTUN, 576, 0.00, 2.59, 0.000000, 0.00, 0, 3, 577, 0
GPS, 3, 18912000, 13, 1.61, -33.7840598, 151.0681971, 2.33, 96.37, 0.82, 38.47
CTUN, 576, 0.00, 2.64, 0.000000, 0.00, 0, 6, 576, 0
ATT, 0.00, 0.56, 0.00, 0.54, 0.00, 60.22, 69.99
CTUN, 576, 0.00, 2.63, 0.000000, 0.00, 0, 8, 576, 0
ATT, 0.00, 0.27, 0.00, 0.37, 0.00, 60.34, 69.99
GPS, 3, 18912200, 13, 1.61, -33.7840589, 151.0681981, 2.37, 96.33, 0.80, 39.82
CTUN, 576, 0.00, 2.69, 0.000000, 0.00, 0, 10, 576, 0
ATT, 0.00, 0.12, 0.00, 0.19, 0.00, 60.51, 69.99
CTUN, 576, 0.00, 2.57, 0.000000, 0.00, 0, 12, 576, 0
GPS, 3, 18912400, 13, 1.61, -33.7840579, 151.0681989, 2.43, 96.33, 0.73, 34.31
ATT, 0.00, 0.05, 0.00, 0.14, 0.00, 60.67, 69.99
CTUN, 576, 0.00, 2.56, 0.000000, 0.00, 0, 15, 576, 0
ATT, 0.00, -0.21, 0.00, 0.00, 0.00, 60.75, 69.99
CTUN, 576, 0.00, 2.70, 0.000000, 0.00, 0, 17, 576, 0
GPS, 3, 18912600, 13, 1.61, -33.7840571, 151.0681995, 2.48, 96.27, 0.63, 32.23
ATT, 1.03, -0.34, 0.00, -0.15, 0.00, 60.81, 69.99
CTUN, 577, 0.00, 2.72, 0.000000, 0.00, 0, 19, 576, 0
ATT, 3.34, 0.28, 0.00, -0.23, 0.00, 60.80, 69.99
CTUN, 577, 0.00, 2.60, 0.000000, 0.00, 0, 20, 577, 0
GPS, 3, 18912800, 13, 1.61, -33.7840561, 151.0682003, 2.54, 96.30, 0.66, 28.80
DU32, 7, 1401
CURR, 577, 29430, 0, 0, 4772, 0.000000
ATT, 4.96, 2.16, 0.00, -0.01, 0.00, 60.76, 69.99
CTUN, 577, 0.00, 2.75, 0.000000, 0.00, 0, 23, 577, 0
ATT, 6.23, 3.39, 0.00, -0.10, 0.00, 60.84, 69.99
CTUN, 577, 0.00, 2.69, 0.000000, 0.00, 0, 24, 577, 0
GPS, 3, 18913000, 13, 1.61, -33.7840548, 151.0682007, 2.60, 96.29, 0.73, 21.11
CTUN, 577, 0.00, 2.79, 0.000000, 0.00, 1, 26, 578, 0
ATT, 5.65, 4.27, 0.00, 0.10, 0.00, 61.15, 69.99
CTUN, 576, 0.00, 2.78, 0.000000, 0.00, 1, 28, 577, 0
ATT, 8.65, 4.37, 0.00, 0.26, 0.00, 61.64, 69.99
GPS, 3, 18913200, 13, 1.61, -33.7840538, 151.0682013, 2.67, 96.34, 0.59, 24.48
CTUN, 577, 0.00, 2.73, 0.000000, 0.00, 2, 28, 579, 0
ATT, 7.84, 6.15, 0.00, 0.21, 0.00, 62.02, 69.99
CTUN, 576, 0.00, 2.78, 0.000000, 0.00, 2, 30, 578, 0
GPS, 3, 18913400, 13, 1.61, -33.7840532, 151.0682018, 2.74, 96.36, 0.50, 26.38
ATT, 6.46, 6.46, 0.00, 0.53, 0.00, 62.47, 69.99
CTUN, 577, 0.00, 2.89, 0.000000, 0.00, 2, 31, 579, 0
ATT, 5.30, 5.88, 0.35, 0.69, 0.00, 62.79, 69.99
CTUN, 577, 0.00, 2.83, 0.000000, 0.00, 2, 32, 578, 0
GPS, 3, 18913600, 13, 1.61, -33.7840530, 151.0682026, 2.81, 96.43, 0.38, 33.05
ATT, 4.38, 4.82, 0.23, 0.47, 0.00, 63.09, 69.99
CTUN, 577, 0.00, 2.96, 0.000000, 0.00, 1, 33, 578, 0
ATT, 4.03, 3.92, 0.00, 0.35, 0.00, 63.26, 69.99
CTUN, 576, 0.00, 3.07, 0.000000, 0.00, 0, 34, 576, 0
GPS, 3, 18913800, 13, 1.61, -33.7840528, 151.0682034, 2.89, 96.52, 0.39, 33.05
DU32, 7, 1401
CURR, 577, 34631, 0, 0, 4752, 0.000000
ATT, 3.11, 2.99, 0.00, -0.07, 0.00, 63.34, 69.99
CTUN, 577, 0.00, 3.04, 0.000000, 0.00, 0, 34, 577, 0
ATT, 5.88, 2.54, 0.35, -0.11, 0.00, 63.27, 69.99
CTUN, 577, 0.00, 3.02, 0.000000, 0.00, 0, 36, 577, 0
GPS, 3, 18914000, 12, 1.63, -33.7840529, 151.0682042, 2.98, 96.51, 0.32, 33.05
CTUN, 577, 0.00, 3.04, 0.000000, 0.00, 0, 38, 577, 0
ATT, 4.38, 3.25, 2.69, 0.49, 0.00, 63.00, 69.99
CTUN, 576, 0.00, 3.08, 0.000000, 0.00, 0, 40, 577, 0
ATT, 0.11, 2.37, 2.34, 1.42, 0.00, 62.81, 69.99
GPS, 3, 18914200, 13, 1.61, -33.7840535, 151.0682050, 3.06, 96.56, 0.34, 69.00
CTUN, 577, 0.00, 3.23, 0.000000, 0.00, 0, 40, 577, 0
ATT, 0.00, 0.41, 1.75, 2.35, 0.00, 62.75, 69.99
CTUN, 576, 0.00, 3.20, 0.000000, 0.00, 0, 41, 577, 0
GPS, 3, 18914400, 13, 1.61, -33.7840541, 151.0682059, 3.15, 96.58, 0.38, 101.08
ATT, 0.00, -0.34, 0.23, 1.45, 0.00, 62.79, 69.99
CTUN, 577, 0.00, 3.23, 0.000000, 0.00, 0, 41, 577, 0
ATT, 0.00, -1.09, 0.00, 0.64, 0.00, 62.90, 69.99
CTUN, 577, 0.00, 3.26, 0.000000, 0.00, 0, 43, 577, 0
GPS, 3, 18914600, 13, 1.61, -33.7840542, 151.0682065, 3.24, 96.63, 0.31, 101.08
PM, 0, 0, 52, 26, 1000, 2064116, 0, 4
ATT, 0.00, -0.88, 0.00, 0.11, 0.00, 63.01, 69.99
CTUN, 577, 0.00, 3.39, 0.000000, 0.00, 0, 43, 577, 0
ATT, 0.00, -0.86, 0.00, 0.03, 0.00, 63.08, 69.99
CTUN, 577, 0.00, 3.36, 0.000000, 0.00, 0, 43, 577, 0
GPS, 3, 18914800, 13, 1.61, -33.7840545, 151.0682069, 3.34, 96.64, 0.19, 101.08
DU32, 7, 1401
CURR, 577, 39823, 0, 0, 4772, 0.000000
ATT, 0.00, -0.51, 0.00, -0.06, 0.00, 63.10, 69.99
CTUN, 577, 0.00, 3.47, 0.000000, 0.00, 0, 44, 577, 0
ATT, 0.00, 0.13, 0.00, 0.20, 0.00, 63.07, 69.99
CTUN, 577, 0.00, 3.40, 0.000000, 0.00, 0, 45, 576, 0
GPS, 3, 18915000, 13, 1.61, -33.7840545, 151.0682072, 3.43, 96.66, 0.13, 101.08
CTUN, 562, 0.00, 3.50, 0.000000, 0.00, 0, 44, 562, 0
ATT, 0.00, 0.76, 0.00, 0.35, 0.00, 63.01, 69.99
CTUN, 543, 0.00, 3.54, 0.000000, 0.00, 0, 42, 547, 0
ATT, 0.00, 0.84, 0.00, 0.09, 0.00, 62.88, 69.99
GPS, 3, 18915200, 13, 1.61, -33.7840548, 151.0682074, 3.52, 96.80, 0.14, 101.08
CTUN, 543, 0.00, 3.61, 0.000000, 0.00, 0, 37, 543, 0
ATT, 0.00, 0.94, 0.00, -0.29, 0.00, 62.79, 69.99
CTUN, 543, 0.00, 3.55, 0.000000, 0.00, 0, 31, 543, 0
GPS, 3, 18915400, 13, 1.61, -33.7840549, 151.0682075, 3.60, 96.86, 0.10, 101.08
ATT, 0.00, 1.27, 0.00, -0.59, 0.00, 62.78, 69.99
CTUN, 543, 0.00, 3.58, 0.000000, 0.00, 0, 26, 543, 0
ATT, 0.00, 1.24, 0.00, -0.72, 0.00, 62.91, 69.99
CTUN, 544, 0.00, 3.62, 0.000000, 0.00, 0, 21, 543, 0
GPS, 3, 18915600, 13, 1.61, -33.7840550, 151.0682076, 3.64, 96.92, 0.07, 101.08
ATT, 0.00, 0.78, 0.00, -0.98, 0.00, 63.12, 69.99
CTUN, 542, 0.00, 3.73, 0.000000, 0.00, 0, 16, 542, 0
ATT, 1.03, 0.50, 0.00, -1.23, 0.00, 63.38, 69.99
CTUN, 542, 0.00, 3.66, 0.000000, 0.00, 0, 10, 542, 0
GPS, 3, 18915800, 13, 1.61, -33.7840550, 151.0682077, 3.68, 96.96, 0.07, 101.08
ATT, 0.00, 1.45, 0.00, -1.13, 0.00, 63.72, 69.99
DU32, 7, 1401
CURR, 542, 44783, 0, 0, 4712, 0.000000
CTUN, 542, 0.00, 3.60, 0.000000, 0.00, 0, 4, 542, 0
ATT, 0.00, 0.72, 0.00, -1.17, 0.00, 64.27, 69.99
CTUN, 543, 0.00, 3.69, 0.000000, 0.00, 0, -2, 543, 0
GPS, 3, 18916000, 13, 1.61, -33.7840552, 151.0682078, 3.67, 96.95, 0.09, 101.08
ATT, 0.00, 0.37, 0.00, -1.40, 0.00, 64.87, 69.99
CTUN, 543, 0.00, 3.70, 0.000000, 0.00, 0, -9, 543, 0
ATT, 0.00, 0.68, 0.00, -1.16, 0.00, 65.35, 69.99
CTUN, 543, 0.00, 3.50, 0.000000, 0.00, 0, -14, 543, 0
GPS, 3, 18916200, 13, 1.61, -33.7840556, 151.0682080, 3.65, 96.93, 0.13, 101.08
ATT, 0.00, 0.55, 0.00, -0.63, 0.00, 65.79, 69.99
CTUN, 543, 0.00, 3.54, 0.000000, 0.00, 0, -19, 543, 0
ATT, 0.00, 0.37, 0.00, -0.46, 0.00, 66.12, 69.99
CTUN, 543, 0.00, 3.61, 0.000000, 0.00, 0, -27, 543, 0
GPS, 3, 18916400, 13, 1.61, -33.7840558, 151.0682080, 3.60, 96.90, 0.11, 101.08
CTUN, 567, 0.00, 3.56, 0.000000, 0.00, 0, -33, 568, 0
ATT, 1.03, 0.12, 0.00, -0.19, 0.00, 66.39, 69.99
CTUN, 571, 0.00, 3.51, 0.000000, 0.00, 0, -34, 571, 0
ATT, 0.34, 1.08, 1.05, 0.01, 0.00, 66.33, 69.99
GPS, 3, 18916600, 13, 1.61, -33.7840559, 151.0682082, 3.53, 96.82, 0.11, 101.08
CTUN, 568, 0.00, 3.47, 0.000000, 0.00, 0, -32, 571, 0
ATT, 0.00, 1.30, 0.00, 1.29, 0.00, 65.96, 69.99
CTUN, 569, 0.00, 3.42, 0.000000, 0.00, 0, -33, 569, 0
ATT, 1.96, 0.11, 0.00, -0.07, 0.00, 65.64, 69.99
GPS, 3, 18916800, 13, 1.61, -33.7840559, 151.0682082, 3.45, 96.72, 0.10, 101.08
DU32, 7, 1401
CURR, 572, 49746, 0, 0, 4752, 0.000000
CTUN, 573, 0.00, 3.39, 0.000000, 0.00, 0, -33, 571, 0
ATT, 1.84, 0.88, 0.00, 0.10, 0.00, 65.25, 69.99
CTUN, 580, 0.00, 3.36, 0.000000, 0.00, 0, -32, 580, 0
GPS, 3, 18917000, 13, 1.61, -33.7840557, 151.0682081, 3.39, 96.67, 0.09, 101.08
ATT, 1.84, 0.73, 0.00, 0.46, 0.00, 64.95, 69.99
CTUN, 580, 0.00, 3.30, 0.000000, 0.00, 0, -31, 580, 0
ATT, 0.34, 0.62, 0.00, 0.05, 0.00, 64.79, 69.99
CTUN, 581, 0.00, 3.32, 0.000000, 0.00, 0, -29, 581, 0
GPS, 3, 18917200, 12, 1.63, -33.7840553, 151.0682080, 3.32, 96.63, 0.09, 101.08
ATT, 0.00, -0.04, 0.00, 0.41, 0.00, 64.63, 69.99
CTUN, 581, 0.00, 3.23, 0.000000, 0.00, 0, -28, 582, 0
ATT, 0.00, -0.37, 0.00, 0.24, 0.00, 64.52, 69.99
CTUN, 580, 0.00, 3.30, 0.000000, 0.00, 0, -26, 583, 0
GPS, 3, 18917400, 12, 1.63, -33.7840550, 151.0682080, 3.26, 96.58, 0.11, 101.08
CTUN, 582, 0.00, 3.30, 0.000000, 0.00, 0, -24, 582, 0
ATT, 0.00, -0.82, 0.00, 0.18, 0.00, 64.42, 69.99
CTUN, 582, 0.00, 3.29, 0.000000, 0.00, 0, -22, 582, 0
ATT, 0.00, -1.07, 0.00, 0.19, 0.00, 64.34, 69.99
GPS, 3, 18917600, 13, 1.61, -33.7840548, 151.0682079, 3.22, 96.54, 0.15, 101.08
CTUN, 582, 0.00, 3.28, 0.000000, 0.00, 0, -19, 582, 0
ATT, 0.00, -1.16, 0.00, 0.18, 0.00, 64.26, 69.99
CTUN, 580, 0.00, 3.22, 0.000000, 0.00, 0, -18, 580, 0
ATT, 0.00, -1.13, 0.00, 0.07, 0.00, 64.14, 69.99
GPS, 3, 18917800, 13, 1.61, -33.7840545, 151.0682077, 3.19, 96.53, 0.18, 52.24
DU32, 7, 1401
CURR, 580, 54969, 0, 0, 4732, 0.000000
CTUN, 582, 0.00, 3.22, 0.000000, 0.00, 0, -15, 580, 0
ATT, 0.00, -0.82, 0.00, -0.16, 0.00, 63.99, 69.99
CTUN, 582, 0.00, 3.17, 0.000000, 0.00, 0, -15, 582, 0
GPS, 3, 18918000, 13, 1.61, -33.7840542, 151.0682076, 3.16, 96.50, 0.24, 2.11
ATT, 0.00, -0.49, 0.00, 0.02, 0.00, 63.85, 69.99
CTUN, 581, 0.00, 3.17, 0.000000, 0.00, 0, -13, 580, 0
ATT, 0.00, -0.56, 0.00, -0.06, 0.00, 63.81, 69.99
CTUN, 580, 0.00, 3.10, 0.000000, 0.00, 0, -11, 580, 0
GPS, 3, 18918200, 13, 1.61, -33.7840537, 151.0682075, 3.14, 96.46, 0.35, 346.82
ATT, 5.07, 0.16, 0.00, -0.70, 0.00, 63.89, 69.99
CTUN, 580, 0.00, 3.16, 0.000000, 0.00, 0, -11, 580, 0
ATT, 6.46, 2.84, 0.00, -0.50, 0.00, 63.88, 69.99
CTUN, 580, 0.00, 3.01, 0.000000, 0.00, 0, -8, 580, 0
GPS, 3, 18918400, 13, 1.61, -33.7840530, 151.0682071, 3.11, 96.46, 0.35, 340.25
ATT, 7.15, 4.59, 0.00, -0.26, 0.00, 63.99, 69.99
CTUN, 581, 0.00, 3.08, 0.000000, 0.00, 1, -5, 582, 0
ATT, 5.88, 4.95, 0.00, 0.12, 0.00, 64.20, 69.99
CTUN, 580, 0.00, 2.98, 0.000000, 0.00, 1, -3, 581, 0
GPS, 3, 18918600, 13, 1.61, -33.7840526, 151.0682070, 3.10, 96.41, 0.28, 339.30
CTUN, 580, 0.00, 3.07, 0.000000, 0.00, 1, -3, 581, 0
ATT, 6.57, 5.12, 0.00, 0.09, 0.00, 64.50, 69.99
CTUN, 580, 0.00, 3.05, 0.000000, 0.00, 1, 0, 581, 0
ATT, 5.65, 5.35, 0.00, 0.00, 0.00, 64.80, 69.99
GPS, 3, 18918800, 13, 1.61, -33.7840520, 151.0682069, 3.09, 96.41, 0.34, 344.13
DU32, 7, 1401
CURR, 583, 60777, 0, 0, 4752, 0.000000
CTUN, 583, 0.00, 3.10, 0.000000, 0.00, 1, 0, 584, 0
ATT, 5.88, 5.10, 0.00, 0.04, 0.00, 65.12, 69.99
CTUN, 580, 0.00, 3.08, 0.000000, 0.00, 1, 1, 581, 0
GPS, 3, 18919000, 13, 1.61, -33.7840516, 151.0682069, 3.09, 96.42, 0.19, 345.50
ATT, 6.11, 5.21, 0.00, -0.20, 0.00, 65.43, 69.99
CTUN, 580, 0.00, 3.04, 0.000000, 0.00, 1, 3, 581, 0
ATT, 6.57, 5.56, 0.00, -0.29, 0.00, 65.62, 69.99
CTUN, 580, 0.00, 3.06, 0.000000, 0.00, 2, 4, 582, 0
GPS, 3, 18919200, 12, 1.74, -33.7840515, 151.0682071, 3.09, 96.42, 0.03, 345.50
ATT, 5.53, 5.98, 0.00, -0.20, 0.00, 65.78, 69.99
CTUN, 580, 0.00, 3.00, 0.000000, 0.00, 2, 5, 582, 0
ATT, 5.30, 5.78, 0.00, -0.12, 0.00, 65.93, 69.99
CTUN, 580, 0.00, 3.13, 0.000000, 0.00, 2, 7, 582, 0
GPS, 3, 18919400, 13, 1.61, -33.7840516, 151.0682074, 3.10, 96.44, 0.13, 345.50
ATT, 1.84, 5.58, 0.00, 0.06, 0.00, 66.11, 69.99
CTUN, 580, 0.00, 3.08, 0.000000, 0.00, 2, 8, 582, 0
ATT, 0.34, 3.68, 0.00, 0.32, 0.00, 66.37, 69.99
CTUN, 581, 0.00, 3.06, 0.000000, 0.00, 0, 10, 581, 0
GPS, 3, 18919600, 13, 1.61, -33.7840519, 151.0682078, 3.11, 96.44, 0.23, 54.81
CTUN, 581, 0.00, 3.07, 0.000000, 0.00, 0, 11, 581, 0
ATT, 0.00, 1.60, 0.00, -0.21, 0.00, 66.58, 69.99
CTUN, 581, 0.00, 3.11, 0.000000, 0.00, 0, 12, 581, 0
ATT, 0.00, 0.52, 0.00, -0.10, 0.00, 66.67, 69.99
GPS, 3, 18919800, 13, 1.61, -33.7840524, 151.0682081, 3.13, 96.45, 0.28, 109.91
DU32, 7, 1401
CURR, 580, 66011, 0, 0, 4732, 0.000000
CTUN, 580, 0.00, 3.11, 0.000000, 0.00, 0, 13, 580, 0
ATT, 0.00, 0.21, 0.00, 0.05, 0.00, 66.63, 69.99
CTUN, 581, 0.00, 3.19, 0.000000, 0.00, 0, 16, 581, 0
ATT, 0.00, -0.02, 0.00, 0.09, 0.00, 66.53, 69.99
GPS, 3, 18920000, 13, 1.61, -33.7840530, 151.0682084, 3.16, 96.39, 0.39, 132.82
CTUN, 581, 0.00, 3.10, 0.000000, 0.00, 0, 17, 581, 0
ATT, 0.00, -0.10, 0.00, 0.11, 0.00, 66.38, 69.99
CTUN, 580, 0.00, 3.21, 0.000000, 0.00, 0, 19, 578, 0
GPS, 3, 18920200, 13, 1.61, -33.7840534, 151.0682087, 3.19, 96.36, 0.24, 136.60
ATT, 0.00, -0.01, 0.00, 0.28, 0.00, 66.17, 69.99
CTUN, 580, 0.00, 3.24, 0.000000, 0.00, 0, 21, 580, 0
ATT, 0.00, 0.03, 0.00, 0.27, 0.00, 66.01, 69.99
CTUN, 582, 0.00, 3.25, 0.000000, 0.00, 0, 22, 581, 0
GPS, 3, 18920400, 13, 1.61, -33.7840537, 151.0682091, 3.24, 96.43, 0.25, 140.08
ATT, 0.00, 0.25, 0.00, 0.20, 0.00, 65.91, 69.99
CTUN, 580, 0.00, 3.11, 0.000000, 0.00, 0, 23, 580, 0
ATT, 0.00, 0.61, 0.00, 0.26, 0.00, 65.90, 69.99
CTUN, 582, 0.00, 3.13, 0.000000, 0.00, 0, 25, 582, 0
GPS, 3, 18920600, 13, 1.61, -33.7840540, 151.0682093, 3.28, 96.48, 0.22, 141.66
CTUN, 581, 0.00, 3.19, 0.000000, 0.00, 0, 26, 581, 0
ATT, 0.00, 0.60, 0.00, 0.26, 0.00, 66.00, 69.99
CTUN, 581, 0.00, 3.14, 0.000000, 0.00, 0, 27, 580, 0
ATT, 0.00, 0.52, 0.00, 0.28, 0.00, 66.07, 69.99
GPS, 3, 18920800, 13, 1.61, -33.7840542, 151.0682093, 3.32, 96.49, 0.07, 141.66
CTUN, 581, 0.00, 3.31, 0.000000, 0.00, 0, 28, 581, 0
DU32, 7, 1401
CURR, 581, 71238, 0, 0, 4793, 0.000000
ATT, 0.00, 0.59, 0.00, 0.23, 0.00, 66.11, 69.99
CTUN, 580, 0.00, 3.39, 0.000000, 0.00, 0, 29, 581, 0
ATT, 0.00, 0.54, 0.00, 0.00, 0.00, 66.12, 69.99
GPS, 3, 18921000, 13, 1.61, -33.7840544, 151.0682093, 3.37, 96.50, 0.14, 141.66
CTUN, 580, 0.00, 3.25, 0.000000, 0.00, 0, 30, 580, 0
ATT, 0.00, 0.54, 0.00, 0.09, 0.00, 66.08, 69.99
CTUN, 581, 0.00, 3.31, 0.000000, 0.00, 0, 31, 581, 0
GPS, 3, 18921200, 13, 1.61, -33.7840545, 151.0682094, 3.42, 96.52, 0.06, 141.66
ATT, 0.00, 0.69, 0.00, 0.23, 0.00, 66.08, 69.99
CTUN, 581, 0.00, 3.36, 0.000000, 0.00, 0, 32, 581, 0
ATT, 0.00, 0.48, 0.00, 0.23, 0.00, 66.30, 69.99
CTUN, 581, 0.00, 3.40, 0.000000, 0.00, 0, 34, 581, 0
GPS, 3, 18921400, 13, 1.61, -33.7840545, 151.0682094, 3.48, 96.55, 0.05, 141.66
ATT, 0.00, 0.17, 0.00, 0.20, 0.00, 66.72, 69.99
CTUN, 581, 0.00, 3.45, 0.000000, 0.00, 0, 34, 581, 0
ATT, 0.00, 0.09, 0.00, 0.19, 0.00, 67.07, 69.99
CTUN, 580, 0.00, 3.47, 0.000000, 0.00, 0, 35, 580, 0
GPS, 3, 18921600, 13, 1.61, -33.7840545, 151.0682095, 3.54, 96.58, 0.04, 141.66
CTUN, 569, 0.00, 3.56, 0.000000, 0.00, 0, 35, 569, 0
ATT, 0.00, 0.10, 0.00, 0.29, 0.00, 67.47, 69.99
CTUN, 569, 0.00, 3.58, 0.000000, 0.00, 0, 33, 569, 0
ATT, 0.00, 0.09, 0.00, 0.12, 0.00, 67.86, 69.99
GPS, 3, 18921800, 13, 1.61, -33.7840545, 151.0682093, 3.61, 96.63, 0.10, 141.66
CTUN, 568, 0.00, 3.58, 0.000000, 0.00, 0, 30, 568, 0
DU32, 7, 1401
CURR, 568, 76438, 0, 0, 4752, 0.000000
ATT, 2.42, 0.33, 0.00, 0.00, 0.00, 68.20, 69.99
CTUN, 568, 0.00, 3.75, 0.000000, 0.00, 0, 28, 568, 0
GPS, 3, 18922000, 13, 1.61, -33.7840544, 151.0682093, 3.66, 96.64, 0.11, 141.66
ATT, 2.76, 1.66, 0.00, -0.24, 0.00, 68.40, 69.99
CTUN, 552, 0.00, 3.66, 0.000000, 0.00, 0, 26, 551, 0
ATT, 2.65, 2.24, 0.00, -0.04, 0.00, 68.48, 69.99
CTUN, 551, 0.00, 3.80, 0.000000, 0.00, 0, 19, 551, 0
GPS, 3, 18922200, 13, 1.61, -33.7840544, 151.0682092, 3.72, 96.65, 0.09, 141.66
ATT, 2.65, 2.62, 0.00, -0.35, 0.00, 68.44, 69.99
CTUN, 553, 0.00, 3.67, 0.000000, 0.00, 0, 14, 551, 0
ATT, 1.26, 2.61, 0.00, -0.53, 0.00, 68.31, 69.99
CTUN, 551, 0.00, 3.76, 0.000000, 0.00, 0, 11, 551, 0
GPS, 3, 18922400, 13, 1.61, -33.7840541, 151.0682091, 3.74, 96.63, 0.17, 141.66
ATT, 0.92, 1.83, 0.00, -0.61, 0.00, 68.07, 69.99
CTUN, 551, 0.00, 3.65, 0.000000, 0.00, 0, 6, 551, 0
ATT, 1.96, 1.53, 0.00, -1.09, 0.00, 67.70, 69.99
CTUN, 551, 0.00, 3.72, 0.000000, 0.00, 0, 3, 551, 0
GPS, 3, 18922600, 13, 1.61, -33.7840541, 151.0682091, 3.75, 96.61, 0.07, 141.66
ATT, 0.92, 1.59, 0.00, -1.01, 0.00, 67.15, 69.99
CTUN, 551, 0.00, 3.80, 0.000000, 0.00, 0, 0, 551, 0
ATT, 1.84, 1.46, 0.00, -0.83, 0.00, 66.58, 69.99
CTUN, 553, 0.00, 3.67, 0.000000, 0.00, 0, -3, 553, 0
GPS, 3, 18922800, 12, 1.73, -33.7840541, 151.0682091, 3.74, 96.59, 0.05, 141.66
CTUN, 554, 0.00, 3.73, 0.000000, 0.00, 0, -7, 554, 0
DU32, 7, 1401
CURR, 554, 81421, 0, 0, 4732, 0.000000
ATT, 1.73, 1.81, 0.00, -0.83, 0.00, 65.96, 69.99
CTUN, 554, 0.00, 3.75, 0.000000, 0.00, 0, -9, 554, 0
ATT, 6.11, 2.18, 0.00, -0.69, 0.00, 65.42, 69.99
GPS, 3, 18923000, 12, 1.73, -33.7840541, 151.0682092, 3.73, 96.55, 0.06, 141.66
CTUN, 554, 0.00, 3.77, 0.000000, 0.00, 0, -12, 554, 0
ATT, 4.38, 4.64, 0.00, -0.81, 0.00, 64.93, 69.99
CTUN, 553, 0.00, 3.77, 0.000000, 0.00, 1, -14, 554, 0
ATT, 5.07, 5.36, 0.00, -0.19, 0.00, 64.73, 69.99
GPS, 3, 18923200, 12, 1.73, -33.7840541, 151.0682094, 3.70, 96.51, 0.05, 141.66
CTUN, 558, 0.00, 3.70, 0.000000, 0.00, 2, -16, 559, 0
ATT, 4.15, 5.52, 0.00, -0.70, 0.00, 64.65, 69.99
CTUN, 558, 0.00, 3.63, 0.000000, 0.00, 1, -18, 559, 0
GPS, 3, 18923400, 12, 1.73, -33.7840543, 151.0682099, 3.67, 96.46, 0.15, 141.66
ATT, 0.57, 4.72, 0.00, -0.49, 0.00, 64.78, 69.99
CTUN, 558, 0.00, 3.66, 0.000000, 0.00, 1, -20, 559, 0
ATT, 0.00, 3.27, 0.00, -0.15, 0.00, 64.97, 69.99
CTUN, 559, 0.00, 3.67, 0.000000, 0.00, 0, -22, 559, 0
GPS, 3, 18923600, 13, 1.61, -33.7840546, 151.0682105, 3.63, 96.40, 0.27, 127.97
ATT, 0.00, 2.01, 0.00, -0.35, 0.00, 65.22, 69.99
CTUN, 559, 0.00, 3.66, 0.000000, 0.00, 0, -23, 558, 0
ATT, 0.00, 0.91, 0.00, -0.41, 0.00, 65.54, 69.99
CTUN, 560, 0.00, 3.68, 0.000000, 0.00, 0, -25, 560, 0
GPS, 3, 18923800, 13, 1.61, -33.7840550, 151.0682110, 3.58, 96.34, 0.25, 126.81
ATT, 0.00, 0.03, 0.00, -0.22, 0.00, 65.97, 69.99
CTUN, 561, 0.00, 3.57, 0.000000, 0.00, 0, -27, 561, 0
DU32, 7, 1401
CURR, 561, 86437, 0, 0, 4772, 0.000000
ATT, 0.00, -0.13, 0.00, 0.21, 0.00, 66.27, 69.99
CTUN, 563, 0.00, 3.49, 0.000000, 0.00, 0, -30, 563, 0
GPS, 3, 18924000, 13, 1.61, -33.7840554, 151.0682116, 3.53, 96.28, 0.31, 125.45
CTUN, 561, 0.00, 3.54, 0.000000, 0.00, 0, -31, 561, 0
ATT, 0.00, -0.22, 0.00, 0.61, 0.00, 66.51, 69.99
CTUN, 561, 0.00, 3.36, 0.000000, 0.00, 0, -34, 561, 0
ATT, 0.00, -0.18, 0.00, 0.69, 0.00, 66.59, 69.99
GPS, 3, 18924200, 12, 1.73, -33.7840557, 151.0682123, 3.46, 96.22, 0.27, 116.62
CTUN, 563, 0.00, 3.50, 0.000000, 0.00, 0, -36, 563, 0
ATT, 0.00, -0.26, 0.00, 0.63, 0.00, 66.61, 69.99
CTUN, 562, 0.00, 3.43, 0.000000, 0.00, 0, -37, 561, 0
ATT, 0.00, -0.19, 0.00, 0.51, 0.00, 66.57, 69.99
GPS, 3, 18924400, 12, 1.73, -33.7840560, 151.0682126, 3.39, 96.11, 0.15, 116.62
CTUN, 561, 0.00, 3.28, 0.000000, 0.00, 0, -39, 561, 0
ATT, 0.00, -0.16, 0.00, 0.41, 0.00, 66.47, 69.99
CTUN, 561, 0.00, 3.25, 0.000000, 0.00, 0, -41, 561, 0
MODE, ALT_HOLD, 563
GPS, 3, 18924600, 12, 1.73, -33.7840562, 151.0682129, 3.30, 96.03, 0.13, 116.62
ATT, 0.00, 0.03, 0.00, 0.27, 0.00, 66.35, 69.99
PM, 0, 0, 50, 31, 1000, 12460, 0, 4
CTUN, 562, 0.00, 3.25, 2.910000, 0.00, 0, -41, 565, 0
ATT, 0.00, 0.08, 0.00, 0.14, 0.00, 66.27, 69.99
CTUN, 562, 0.00, 3.31, 2.910000, 0.00, 0, -41, 591, 0
GPS, 3, 18924800, 12, 1.73, -33.7840563, 151.0682130, 3.22, 95.92, 0.10, 116.62
ATT, 0.00, 0.25, 0.00, -0.02, 0.00, 66.22, 69.99
CTUN, 561, 0.00, 3.23, 2.910000, 0.00, 0, -37, 595, 0
DU32, 7, 1401
CURR, 562, 92125, 0, 0, 4712, 0.000000
ATT, 1.50, 0.25, 0.00, 0.06, 0.00, 66.14, 69.99
CTUN, 562, 0.00, 3.15, 2.910000, 0.00, 0, -32, 590, 0
GPS, 3, 18925000, 12, 1.73, -33.7840563, 151.0682133, 3.16, 95.82, 0.11, 116.62
ATT, 3.92, 1.27, 0.00, 0.00, 0.00, 65.94, 69.99
CTUN, 561, 0.00, 3.10, 2.910000, 0.00, 0, -26, 587, 0
ATT, 3.69, 2.63, 0.00, 0.08, 0.00, 65.72, 69.99
CTUN, 563, 0.00, 3.04, 2.910000, 0.00, 0, -22, 592, 0
GPS, 3, 18925200, 12, 1.73, -33.7840561, 151.0682134, 3.10, 95.73, 0.18, 116.62
ATT, 3.00, 3.10, 0.00, 0.24, 0.00, 65.54, 69.99
CTUN, 561, 0.00, 3.03, 2.910000, 0.00, 0, -18, 596, 0
ATT, 2.65, 3.25, 0.00, 0.20, 0.00, 65.42, 69.99
CTUN, 561, 0.00, 3.09, 2.910000, 0.00, 0, -15, 586, 0
GPS, 3, 18925400, 12, 1.73, -33.7840559, 151.0682135, 3.06, 95.66, 0.19, 72.75
ATT, 2.76, 2.91, 0.00, 0.28, 0.00, 65.37, 69.99
CTUN, 561, 0.00, 3.02, 2.910000, 0.00, 0, -12, 577, 0
ATT, 3.23, 2.81, 0.00, 0.22, 0.00, 65.35, 69.99
CTUN, 563, 0.00, 3.01, 2.910000, 0.00, 0, -11, 573, 0
GPS, 3, 18925600, 12, 1.73, -33.7840559, 151.0682136, 3.03, 95.61, 0.10, 72.75
ATT, 3.00, 2.83, 0.00, 0.26, 0.00, 65.37, 69.99
CTUN, 561, 0.00, 2.94, 2.910000, 0.00, 0, -9, 575, 0
ATT, 1.50, 2.64, 0.00, 0.46, 0.00, 65.46, 69.99
CTUN, 561, 0.00, 3.01, 2.910000, 0.00, 0, -9, 579, 0
GPS, 3, 18925800, 12, 1.73, -33.7840558, 151.0682138, 3.01, 95.56, 0.10, 72.75
ATT, 1.15, 2.05, 0.00, 0.60, 0.00, 65.60, 69.99
CTUN, 561, 0.00, 3.02, 2.910000, 0.00, 0, -9, 579, 0
DU32, 7, 1401
CURR, 562, 97954, 0, 0, 4752, 0.000000
ATT, 1.84, 1.61, 0.11, 0.44, 0.00, 65.80, 69.99
CTUN, 561, 0.00, 2.97, 2.910000, 0.00, 0, -8, 576, 0
GPS, 3, 18926000, 12, 1.73, -33.7840558, 151.0682140, 2.99, 95.51, 0.10, 72.75
CTUN, 561, 0.00, 2.98, 2.910000, 0.00, 0, -7, 574, 0
ATT, 1.61, 1.26, 0.70, 0.63, 0.00, 66.08, 69.99
CTUN, 561, 0.00, 3.05, 2.910000, 0.00, 0, -8, 588, 0
ATT, 1.96, 1.00, 1.87, 0.79, 0.00, 66.42, 69.99
GPS, 3, 18926200, 12, 1.73, -33.7840557, 151.0682142, 2.98, 95.46, 0.10, 72.75
CTUN, 563, 0.00, 2.99, 2.910000, 0.00, 0, -7, 580, 0
ATT, 1.96, 0.78, 2.81, 1.12, 0.00, 66.66, 69.99
CTUN, 562, 0.00, 3.00, 2.910000, 0.00, 0, -7, 583, 0
ATT, 2.76, 1.09, 3.63, 2.01, 0.00, 66.74, 69.99
GPS, 3, 18926400, 12, 1.73, -33.7840557, 151.0682145, 2.97, 95.45, 0.06, 72.75
CTUN, 563, 0.00, 3.06, 2.910000, 0.00, 0, -5, 578, 0
ATT, 3.34, 1.87, 3.51, 3.07, 0.00, 66.66, 69.99
CTUN, 561, 0.00, 3.02, 2.910000, 0.00, 1, -4, 573, 0
GPS, 3, 18926600, 12, 1.73, -33.7840556, 151.0682146, 2.96, 95.44, 0.03, 72.75
ATT, 3.34, 2.36, 4.10, 3.30, 0.00, 66.49, 69.99
CTUN, 561, 0.00, 3.09, 2.910000, 0.00, 1, -4, 579, 0
ATT, 3.11, 2.50, 3.98, 3.70, 0.00, 66.31, 69.99
CTUN, 561, 0.00, 3.00, 2.910000, 0.00, 1, -2, 572, 0
GPS, 3, 18926800, 13, 1.61, -33.7840555, 151.0682146, 2.97, 95.46, 0.04, 72.75
ATT, 2.76, 2.77, 4.21, 3.99, 0.00, 66.21, 69.99
CTUN, 561, 0.00, 2.90, 2.910000, 0.00, 1, -5, 576, 0
ATT, 2.65, 2.61, 3.75, 3.74, 0.00, 66.24, 69.99
CTUN, 562, 0.00, 3.06, 2.910000, 0.00, 1, -5, 580, 0
GPS, 3, 18927000, 13, 1.61, -33.7840557, 151.0682145, 2.96, 95.47, 0.15, 72.75
DU32, 7, 1401
CURR, 561, 103733, 0, 0, 4793, 0.000000
ATT, 1.84, 1.80, 3.16, 3.02, 0.00, 66.28, 69.99
CTUN, 561, 0.00, 2.98, 2.910000, 0.00, 0, -5, 577, 0
ATT, 0.57, 1.58, 2.34, 2.34, 0.00, 66.21, 69.99
GPS, 3, 18927200, 13, 1.61, -33.7840560, 151.0682140, 2.95, 95.47, 0.30, 160.27
CTUN, 561, 0.00, 2.94, 2.910000, 0.00, 0, -5, 578, 0
ATT, 0.46, 1.03, 0.93, 1.83, 0.00, 66.02, 69.99
CTUN, 563, 0.00, 3.07, 2.910000, 0.00, 0, -3, 568, 0
ATT, 0.00, 0.79, 0.00, 0.95, 0.00, 65.74, 69.99
GPS, 3, 18927400, 13, 1.61, -33.7840563, 151.0682133, 2.95, 95.43, 0.31, 212.18
CTUN, 563, 0.00, 2.95, 2.910000, 0.00, 0, -3, 569, 0
ATT, 0.00, 0.30, 0.00, -0.03, 0.00, 65.46, 69.99
CTUN, 561, 0.00, 2.92, 2.910000, 0.00, 0, -3, 566, 0
ATT, 0.00, -0.04, 0.00, -0.90, 0.00, 65.14, 69.99
GPS, 3, 18927600, 13, 1.61, -33.7840568, 151.0682128, 2.94, 95.45, 0.41, 218.02
CTUN, 561, 0.00, 2.99, 2.910000, 0.00, 0, -3, 570, 0
ATT, 0.00, -0.01, 0.00, -1.12, 0.00, 64.81, 69.99
CTUN, 561, 0.00, 2.98, 2.910000, 0.00, 0, -3, 568, 0
ATT, 0.57, 0.43, 0.00, -0.89, 0.00, 64.47, 69.99
GPS, 3, 18927800, 13, 1.61, -33.7840569, 151.0682122, 2.94, 95.43, 0.27, 228.66
CTUN, 561, 0.00, 2.91, 2.910000, 0.00, 0, -3, 570, 0
ATT, 2.65, 0.26, 0.46, -1.13, 0.00, 64.14, 69.99
CTUN, 561, 0.00, 2.97, 2.910000, 0.00, 0, -3, 567, 0
ATT, 5.19, 0.95, 1.75, -1.36, 0.00, 63.86, 69.99
GPS, 3, 18928000, 13, 1.61, -33.7840570, 151.0682118, 2.93, 95.43, 0.25, 228.66
CTUN, 561, 0.00, 3.09, 2.910000, 0.00, 0, -2, 572, 0
ATT, 4.50, 2.73, 1.40, -0.29, 0.00, 63.67, 69.99
DU32, 7, 1401
CURR, 562, 109448, 0, 0, 4772, 0.000000
CTUN, 560, 0.00, 2.93, 2.910000, 0.00, 0, -2, 572, 0
ATT, 3.80, 4.26, 0.82, 0.77, 0.00, 63.65, 69.99
GPS, 3, 18928200, 12, 1.64, -33.7840571, 151.0682115, 2.94, 95.41, 0.20, 228.66
CTUN, 562, 0.00, 2.96, 2.910000, 0.00, 1, -2, 579, 0
ATT, 1.50, 3.88, 0.00, 0.72, 0.00, 63.80, 69.99
CTUN, 561, 0.00, 2.99, 2.910000, 0.00, 0, -4, 580, 0
ATT, 0.00, 2.44, 0.00, 0.53, 0.00, 64.07, 69.99
GPS, 3, 18928400, 13, 1.61, -33.7840572, 151.0682113, 2.93, 95.42, 0.17, 228.66
CTUN, 562, 0.00, 2.95, 2.910000, 0.00, 0, -3, 573, 0
ATT, 0.00, 0.82, 0.00, 0.49, 0.00, 64.38, 69.99
CTUN, 561, 0.00, 2.81, 2.910000, 0.00, 0, -3, 577, 0
ATT, 0.00, 0.06, 0.00, 0.65, 0.00, 64.66, 69.99
GPS, 3, 18928600, 13, 1.61, -33.7840575, 151.0682110, 2.92, 95.42, 0.18, 228.66
CTUN, 562, 0.00, 2.90, 2.910000, 0.00, 0, -5, 587, 0
ATT, 0.00, -0.18, 0.00, 0.82, 0.00, 64.98, 69.99
CTUN, 561, 0.00, 2.93, 2.910000, 0.00, 0, -3, 588, 0
ATT, 0.00, -0.45, 0.00, 0.73, 0.00, 65.40, 69.99
GPS, 3, 18928800, 13, 1.61, -33.7840576, 151.0682107, 2.91, 95.40, 0.18, 228.66
CTUN, 561, 0.00, 2.97, 2.910000, 0.00, 0, -3, 590, 0
ATT, 5.07, -0.43, 0.00, 0.66, 0.00, 65.77, 69.99
CTUN, 561, 0.00, 2.95, 2.910000, 0.00, 0, -2, 586, 0
ATT, 6.00, 2.03, 0.00, 0.52, 0.00, 65.99, 69.99
GPS, 3, 18929000, 13, 1.61, -33.7840576, 151.0682103, 2.91, 95.39, 0.19, 228.66
CTUN, 561, 0.00, 2.79, 2.910000, 0.00, 0, 0, 577, 0
ATT, 5.65, 3.92, 0.00, 1.46, 0.00, 66.21, 69.99
DU32, 7, 1401
CURR, 562, 115254, 0, 0, 4712, 0.000000
CTUN, 561, 0.00, 2.96, 2.910000, 0.00, 1, 0, 582, 0
GPS, 3, 18929200, 13, 1.61, -33.7840575, 151.0682099, 2.91, 95.39, 0.24, 260.38
ATT, 5.19, 5.12, 0.00, 1.41, 0.00, 66.44, 69.99
CTUN, 561, 0.00, 2.92, 2.910000, 0.00, 1, 1, 573, 0
ATT, 5.42, 5.35, 0.00, 1.12, 0.00, 66.66, 69.99
CTUN, 561, 0.00, 2.82, 2.910000, 0.00, 1, 1, 580, 0
ATT, 5.19, 5.22, 0.00, 0.73, 0.00, 66.87, 69.99
GPS, 3, 18929400, 13, 1.61, -33.7840575, 151.0682093, 2.91, 95.35, 0.28, 271.35
CTUN, 561, 0.00, 2.85, 2.910000, 0.00, 1, 2, 581, 0
ATT, 4.38, 5.05, 0.00, 0.76, 0.00, 67.04, 69.99
CTUN, 561, 0.00, 2.98, 2.910000, 0.00, 1, 1, 577, 0
GPS, 3, 18929600, 13, 1.61, -33.7840578, 151.0682087, 2.91, 95.32, 0.27, 258.47
ATT, 4.15, 4.80, 0.00, 0.90, 0.00, 67.17, 69.99
CTUN, 561, 0.00, 2.90, 2.910000, 0.00, 1, 2, 576, 0
ATT, 3.23, 4.21, 0.00, 0.61, 0.00, 67.25, 69.99
CTUN, 561, 0.00, 3.07, 2.910000, 0.00, 0, 2, 580, 0
GPS, 3, 18929800, 13, 1.61, -33.7840582, 151.0682082, 2.91, 95.32, 0.29, 258.47
ATT, 2.65, 3.47, 0.00, 0.60, 0.00, 67.34, 69.99
CTUN, 561, 0.00, 3.02, 2.910000, 0.00, 0, 0, 575, 0
ATT, 0.46, 3.18, 0.00, 0.69, 0.00, 67.41, 69.99
CTUN, 561, 0.00, 3.09, 2.910000, 0.00, 0, 1, 573, 0
GPS, 3, 18930000, 13, 1.61, -33.7840588, 151.0682079, 2.93, 95.34, 0.35, 231.02
ATT, 0.00, 1.65, 0.00, 0.59, 0.00, 67.46, 69.99
CTUN, 562, 0.00, 2.93, 2.910000, 0.00, 0, 0, 568, 0
ATT, 0.00, 1.01, 0.00, 0.09, 0.00, 67.36, 69.99
CTUN, 561, 0.00, 3.11, 2.910000, 0.00, 0, -1, 563, 0
GPS, 3, 18930200, 13, 1.61, -33.7840593, 151.0682075, 2.94, 95.34, 0.34, 221.88
DU32, 7, 1401
CURR, 561, 121572, 0, 0, 4793, 0.000000
ATT, 0.00, 0.91, 0.00, -0.33, 0.00, 67.26, 69.99
CTUN, 561, 0.00, 3.08, 2.910000, 0.00, 0, -2, 569, 0
ATT, 0.00, 0.78, 0.00, -0.56, 0.00, 67.21, 69.99
CTUN, 561, 0.00, 3.11, 2.910000, 0.00, 0, -3, 569, 0
GPS, 3, 18930400, 13, 1.61, -33.7840599, 151.0682071, 2.95, 95.32, 0.34, 215.82
CTUN, 561, 0.00, 3.12, 2.910000, 0.00, 0, -4, 571, 0
ATT, 0.00, 0.65, 0.00, -0.87, 0.00, 67.12, 69.99
CTUN, 561, 0.00, 3.07, 2.910000, 0.00, 0, -4, 578, 0
ATT, 0.00, 0.58, 0.00, -0.85, 0.00, 67.07, 69.99
GPS, 3, 18930600, 13, 1.61, -33.7840603, 151.0682068, 2.96, 95.32, 0.27, 217.16
CTUN, 561, 0.00, 3.13, 2.910000, 0.00, 0, -6, 574, 0
ATT, 0.00, 0.36, 0.00, -0.77, 0.00, 67.08, 69.99
CTUN, 561, 0.00, 3.04, 2.910000, 0.00, 0, -6, 580, 0
ATT, 0.00, 0.32, 0.00, -0.79, 0.00, 67.05, 69.99
GPS, 3, 18930800, 13, 1.61, -33.7840607, 151.0682065, 2.96, 95.29, 0.25, 211.29
CTUN, 561, 0.00, 3.06, 2.910000, 0.00, 0, -6, 574, 0
ATT, 0.00, 0.19, 0.00, -0.69, 0.00, 66.94, 69.99
CTUN, 562, 0.00, 3.02, 2.910000, 0.00, 0, -6, 577, 0
GPS, 3, 18931000, 13, 1.61, -33.7840610, 151.0682063, 2.96, 95.25, 0.18, 211.29
ATT, 0.00, 0.60, 0.00, -0.58, 0.00, 66.81, 69.99
CTUN, 561, 0.00, 3.10, 2.910000, 0.00, 0, -7, 586, 0
ATT, 0.00, 0.93, 0.00, -0.26, 0.00, 66.83, 69.99
CTUN, 561, 0.00, 2.94, 2.910000, 0.00, 0, -6, 577, 0
GPS, 3, 18931200, 13, 1.61, -33.7840611, 151.0682061, 2.96, 95.24, 0.12, 211.29
ATT, 0.00, 1.36, 0.00, 0.03, 0.00, 67.08, 69.99
DU32, 7, 1401
CURR, 561, 126743, 0, 0, 4793, 0.000000
CTUN, 561, 0.00, 2.88, 2.910000, 0.00, 0, -6, 577, 0
ATT, 0.00, 0.95, 0.00, 0.25, 0.00, 67.31, 69.99
CTUN, 561, 0.00, 2.91, 2.910000, 0.00, 0, -5, 577, 0
GPS, 3, 18931400, 13, 1.61, -33.7840611, 151.0682061, 2.95, 95.23, 0.08, 211.29
ATT, 0.00, 0.45, 0.00, 0.48, 0.00, 67.43, 69.99
CTUN, 561, 0.00, 2.92, 2.910000, 0.00, 0, -5, 583, 0
ATT, 0.00, 0.31, 0.00, 0.73, 0.00, 67.35, 69.99
CTUN, 562, 0.00, 2.93, 2.910000, 0.00, 0, -4, 590, 0
GPS, 3, 18931600, 13, 1.61, -33.7840611, 151.0682060, 2.93, 95.23, 0.05, 211.29
ATT, 0.00, 0.07, 0.00, 0.90, 0.00, 67.12, 69.99
CTUN, 561, 0.00, 2.91, 2.910000, 0.00, 0, -3, 581, 0
ATT, 0.00, -0.05, 0.00, 1.10, 0.00, 66.73, 69.99
GPS, 3, 18931800, 13, 1.61, -33.7840611, 151.0682059, 2.92, 95.20, 0.07, 211.29
CTUN, 561, 0.00, 2.84, 2.910000, 0.00, 0, -2, 582, 0
ATT, 0.00, -0.17, 0.00, 1.30, 0.00, 66.34, 69.99
CTUN, 561, 0.00, 2.96, 2.910000, 0.00, 0, -2, 580, 0
ATT, 0.00, -0.05, 0.00, 1.40, 0.00, 66.15, 69.99
GPS, 3, 18932000, 13, 1.61, -33.7840612, 151.0682056, 2.92, 95.17, 0.10, 211.29
CTUN, 561, 0.00, 2.98, 2.910000, 0.00, 0, 0, 567, 0
ATT, 0.00, -0.18, 0.00, 1.53, 0.00, 66.17, 69.99
CTUN, 560, 0.00, 3.00, 2.910000, 0.00, 0, 0, 573, 0
ATT, 0.00, -0.50, 0.00, 1.29, 0.00, 66.44, 69.99
GPS, 3, 18932200, 13, 1.61, -33.7840611, 151.0682053, 2.92, 95.13, 0.17, 211.29
CTUN, 561, 0.00, 3.02, 2.910000, 0.00, 0, -1, 575, 0
ATT, 0.00, -0.61, 0.00, 0.95, 0.00, 66.92, 69.99
DU32, 7, 1401
CURR, 561, 132549, 0, 0, 4712, 0.000000
CTUN, 562, 0.00, 2.99, 2.910000, 0.00, 0, -1, 576, 0
ATT, 0.00, -0.41, 0.00, 0.80, 0.00, 67.34, 69.99
GPS, 3, 18932400, 13, 1.61, -33.7840609, 151.0682048, 2.93, 95.11, 0.23, 211.29
CTUN, 561, 0.00, 2.97, 2.910000, 0.00, 0, -1, 579, 0
ATT, 0.00, -0.32, 0.00, 0.64, 0.00, 67.91, 69.99
CTUN, 561, 0.00, 2.99, 2.910000, 0.00, 0, -3, 579, 0
ATT, 0.00, -0.28, 0.00, 0.70, 0.00, 68.40, 69.99
GPS, 3, 18932600, 13, 1.61, -33.7840607, 151.0682043, 2.93, 95.08, 0.27, 247.76
CTUN, 561, 0.00, 2.82, 2.910000, 0.00, 0, -4, 588, 0
ATT, 0.00, -0.16, 0.00, 0.83, 0.00, 68.73, 69.99
CTUN, 561, 0.00, 2.86, 2.910000, 0.00, 0, -3, 580, 0
GPS, 3, 18932800, 13, 1.61, -33.7840603, 151.0682035, 2.91, 95.08, 0.40, 285.05
ATT, 2.07, 0.42, 0.00, 1.09, 0.00, 68.97, 69.99
CTUN, 561, 0.00, 2.90, 2.910000, 0.00, 0, -5, 599, 0
ATT, 5.19, 1.88, 0.00, 1.24, 0.00, 68.98, 69.99
CTUN, 561, 0.00, 2.86, 2.910000, 0.00, 0, -1, 583, 0
GPS, 3, 18933000, 13, 1.61, -33.7840597, 151.0682025, 2.90, 95.08, 0.53, 296.79
CTUN, 561, 0.00, 2.87, 2.910000, 0.00, 1, 0, 586, 0
ATT, 5.65, 3.94, 0.00, 1.24, 0.00, 68.93, 69.99
CTUN, 561, 0.00, 2.81, 2.910000, 0.00, 1, 1, 586, 0
ATT, 7.03, 4.85, 0.00, 1.09, 0.00, 68.91, 69.99
GPS, 3, 18933200, 13, 1.61, -33.7840595, 151.0682016, 2.90, 95.08, 0.44, 292.61
CTUN, 561, 0.00, 2.77, 2.910000, 0.00, 2, 1, 591, 0
ATT, 5.88, 5.91, 0.00, 0.81, 0.00, 68.81, 69.99
CTUN, 561, 0.00, 2.81, 2.910000, 0.00, 2, 2, 583, 0
ATT, 5.07, 6.05, 0.00, 1.11, 0.00, 68.70, 69.99
GPS, 3, 18933400, 13, 1.61, -33.7840592, 151.0682005, 2.89, 95.10, 0.52, 288.14
CTUN, 561, 0.00, 2.83, 2.910000, 0.00, 2, 2, 584, 0
ATT, 3.57, 5.55, 0.00, 0.95, 0.00, 68.48, 69.99
CTUN, 561, 0.00, 2.88, 2.910000, 0.00, 1, 2, 584, 0
DU32, 7, 1401
CURR, 561, 139542, 0, 0, 4732, 0.000000
ATT, 1.96, 4.73, 0.00, 1.12, 0.00, 68.22, 69.99
GPS, 3, 18933600, 13, 1.61, -33.7840596, 151.0681996, 2.89, 95.11, 0.47, 270.19
CTUN, 562, 0.00, 2.97, 2.910000, 0.00, 1, 3, 580, 0
ATT, 0.57, 3.36, -0.24, 1.29, 0.00, 67.87, 69.99
CTUN, 561, 0.00, 2.88, 2.910000, 0.00, 0, 3, 578, 0
ATT, 0.00, 1.91, -3.03, 0.67, 0.00, 67.62, 69.99
GPS, 3, 18933800, 13, 1.61, -33.7840602, 151.0681985, 2.90, 95.09, 0.55, 250.95
CTUN, 561, 0.00, 2.77, 2.910000, 0.00, 0, 2, 572, 0
ATT, 0.00, 1.13, -5.57, -0.88, 0.00, 67.34, 69.99
CTUN, 561, 0.00, 2.89, 2.910000, 0.00, 0, 1, 573, 0
ATT, 0.00, 0.75, -6.30, -2.97, 0.00, 67.07, 69.99
GPS, 3, 18934000, 13, 1.61, -33.7840608, 151.0681974, 2.90, 95.05, 0.55, 244.74
CTUN, 561, 0.00, 2.79, 2.910000, 0.00, 0, 1, 570, 0
ATT, 0.00, 0.52, -6.06, -4.68, 0.00, 66.72, 69.99
CTUN, 561, 0.00, 2.84, 2.910000, 0.00, 1, 0, 576, 0
GPS, 3, 18934200, 13, 1.61, -33.7840613, 151.0681965, 2.89, 95.05, 0.49, 241.20
ATT, 0.00, 0.77, -5.82, -5.38, 0.00, 66.34, 69.99
CTUN, 561, 0.00, 2.88, 2.910000, 0.00, 2, 2, 580, 0
ATT, 0.00, 0.90, -5.09, -5.49, 0.00, 65.92, 69.99
CTUN, 561, 0.00, 2.88, 2.910000, 0.00, 2, 2, 575, 0
GPS, 3, 18934400, 13, 1.61, -33.7840617, 151.0681959, 2.89, 95.05, 0.38, 236.92
ATT, 0.00, 0.82, -3.88, -4.99, 0.00, 65.55, 69.99
CTUN, 561, 0.00, 2.83, 2.910000, 0.00, 1, 1, 579, 0
ATT, 0.00, 0.49, -4.00, -4.06, 0.00, 65.26, 69.99
CTUN, 561, 0.00, 2.91, 2.910000, 0.00, 1, 2, 580, 0
GPS, 3, 18934600, 13, 1.61, -33.7840619, 151.0681953, 2.89, 95.06, 0.28, 236.92
DU32, 7, 1401
CURR, 561, 145314, 0, 0, 4752, 0.000000
ATT, 0.00, 0.33, -4.36, -3.27, 0.00, 65.07, 69.99
CTUN, 561, 0.00, 2.77, 2.910000, 0.00, 0, 1, 578, 0
PM, 0, 0, 50, 97, 1000, 14160, 0, 4
ATT, 0.00, -0.07, -4.85, -3.27, 0.00, 65.04, 69.99
CTUN, 561, 0.00, 2.83, 2.910000, 0.00, 0, 1, 579, 0
GPS, 3, 18934800, 13, 1.61, -33.7840619, 151.0681951, 2.89, 95.03, 0.09, 236.92
CTUN, 562, 0.00, 2.77, 2.910000, 0.00, 0, 1, 584, 0
ATT, 0.00, -0.09, -5.57, -3.50, 0.00, 65.01, 69.99
CTUN, 561, 0.00, 2.81, 2.910000, 0.00, 0, 0, 578, 0
ATT, 0.11, 0.00, -6.79, -3.77, 0.00, 65.03, 69.99
GPS, 3, 18935000, 12, 1.73, -33.7840619, 151.0681949, 2.88, 95.02, 0.09, 236.92
CTUN, 561, 0.00, 2.88, 2.910000, 0.00, 1, 2, 586, 0
ATT, 1.03, 0.17, -7.27, -4.62, 0.00, 65.15, 69.99
CTUN, 562, 0.00, 2.73, 2.910000, 0.00, 1, 2, 580, 0
ATT, 2.76, 0.60, -7.39, -5.09, 0.00, 65.28, 69.99
GPS, 3, 18935200, 12, 1.73, -33.7840616, 151.0681949, 2.88, 94.99, 0.13, 236.92
CTUN, 561, 0.00, 2.74, 2.910000, 0.00, 1, 3, 578, 0
ATT, 4.96, 1.74, -7.64, -5.29, 0.00, 65.46, 69.99
CTUN, 561, 0.00, 2.84, 2.910000, 0.00, 2, 2, 591, 0
ATT, 5.19, 2.84, -7.64, -5.73, 0.00, 65.66, 69.99
GPS, 3, 18935400, 12, 1.73, -33.7840610, 151.0681949, 2.87, 94.98, 0.29, 315.61
CTUN, 561, 0.00, 2.73, 2.910000, 0.00, 3, 4, 579, 0
ATT, 5.65, 3.43, -6.79, -6.10, 0.00, 66.03, 69.99
CTUN, 561, 0.00, 2.96, 2.910000, 0.00, 3, 5, 570, 0
ATT, 6.00, 4.27, -6.06, -5.81, 0.00, 66.48, 69.99
GPS, 3, 18935600, 12, 1.73, -33.7840604, 151.0681952, 2.87, 94.97, 0.36, 350.78
CTUN, 561, 0.00, 2.72, 2.910000, 0.00, 3, 4, 581, 0
DU32, 7, 1401
CURR, 561, 151111, 0, 0, 4752, 0.000000
ATT, 5.88, 4.63, -4.85, -4.96, 0.00, 67.02, 69.99
CTUN, 561, 0.00, 2.74, 2.910000, 0.00, 2, 2, 581, 0
ATT, 6.80, 5.45, -2.54, -3.55, 0.00, 67.49, 69.99
GPS, 3, 18935800, 12, 1.73, -33.7840596, 151.0681958, 2.87, 94.95, 0.50, 22.88
CTUN, 561, 0.00, 2.81, 2.910000, 0.00, 2, 6, 560, 0
ATT, 7.15, 6.15, -0.84, -1.36, 0.00, 67.80, 69.99
CTUN, 561, 0.00, 2.81, 2.910000, 0.00, 2, 6, 573, 0
ATT, 6.80, 6.68, 0.00, 0.74, 0.00, 67.96, 69.99
GPS, 3, 18936000, 12, 1.73, -33.7840592, 151.0681968, 2.88, 94.98, 0.56, 46.60
CTUN, 561, 0.00, 2.84, 2.910000, 0.00, 3, 2, 586, 0
ATT, 5.53, 6.70, 0.00, 2.19, 0.00, 68.10, 69.99
CTUN, 561, 0.00, 2.89, 2.910000, 0.00, 3, 1, 590, 0
ATT, 5.88, 6.12, 0.00, 2.91, 0.00, 68.26, 69.99
GPS, 3, 18936200, 12, 1.73, -33.7840590, 151.0681978, 2.87, 94.96, 0.48, 60.27
CTUN, 561, 0.00, 2.87, 2.910000, 0.00, 3, 0, 593, 0
ATT, 1.15, 6.40, 0.00, 3.27, 0.00, 68.42, 69.99
CTUN, 561, 0.00, 2.83, 2.910000, 0.00, 2, 5, 553, 0
ATT, 0.00, 3.58, 0.00, 3.86, 0.00, 68.69, 69.99
GPS, 3, 18936400, 12, 1.73, -33.7840591, 151.0681987, 2.88, 94.92, 0.41, 77.36
CTUN, 561, 0.00, 2.95, 2.910000, 0.00, 1, 5, 584, 0
ATT, 0.00, 3.09, 0.00, 3.43, 0.00, 68.50, 69.99
CTUN, 561, 0.00, 2.93, 2.910000, 0.00, 1, 1, 579, 0
ATT, 0.00, 2.27, 0.00, 3.71, 0.00, 68.17, 69.99
GPS, 3, 18936600, 12, 1.73, -33.7840598, 151.0681993, 2.89, 94.98, 0.51, 128.09
CTUN, 562, 0.00, 3.03, 2.910000, 0.00, 0, 4, 558, 0
DU32, 7, 1401
CURR, 561, 156853, 0, 0, 4712, 0.000000
ATT, 0.00, 1.69, 0.00, 3.22, 0.00, 67.56, 69.99
CTUN, 561, 0.00, 2.97, 2.910000, 0.00, 0, 4, 569, 0
GPS, 3, 18936800, 12, 1.73, -33.7840603, 151.0681995, 2.91, 94.95, 0.28, 138.20
ATT, 0.00, 1.39, 0.00, 2.86, 0.00, 66.83, 69.99
CTUN, 561, 0.00, 2.89, 2.910000, 0.00, 0, 0, 569, 0
ATT, 0.00, 0.73, 0.00, 2.35, 0.00, 66.26, 69.99
CTUN, 561, 0.00, 2.87, 2.910000, 0.00, 0, -1, 572, 0
GPS, 3, 18937000, 12, 1.73, -33.7840615, 151.0681994, 2.91, 94.96, 0.64, 171.36
ATT, 0.00, 0.34, 0.00, 1.70, 0.00, 65.72, 69.99
CTUN, 561, 0.00, 2.93, 2.910000, 0.00, 0, -1, 575, 0
ATT, 0.00, 0.12, 0.00, 1.23, 0.00, 65.39, 69.99
CTUN, 561, 0.00, 3.05, 2.910000, 0.00, 0, -1, 576, 0
GPS, 3, 18937200, 12, 1.73, -33.7840626, 151.0681991, 2.91, 94.98, 0.59, 179.26
ATT, 0.00, -0.08, 0.00, 0.56, 0.00, 65.28, 69.99
CTUN, 561, 0.00, 2.98, 2.910000, 0.00, 0, -2, 578, 0
ATT, 0.00, -0.32, 0.00, 0.11, 0.00, 65.34, 69.99
GPS, 3, 18937400, 12, 1.73, -33.7840635, 151.0681984, 2.91, 94.99, 0.60, 191.40
CTUN, 561, 0.00, 2.91, 2.910000, 0.00, 0, -1, 579, 0
ATT, 0.00, -0.34, 0.00, -0.26, 0.00, 65.52, 69.99
CTUN, 561, 0.00, 3.04, 2.910000, 0.00, 0, -1, 581, 0
ATT, 0.00, -0.27, 0.00, -0.71, 0.00, 65.80, 69.99
GPS, 3, 18937600, 13, 1.61, -33.7840647, 151.0681978, 2.92, 95.02, 0.70, 200.28
CTUN, 561, 0.00, 3.02, 2.910000, 0.00, 0, -1, 584, 0
ATT, 0.00, -0.28, -1.33, -0.85, 0.00, 66.07, 69.99
CTUN, 561, 0.00, 3.07, 2.910000, 0.00, 0, -1, 578, 0
DU32, 7, 1401
CURR, 561, 162620, 0, 0, 4752, 0.000000
ATT, 0.00, -0.15, -6.18, -1.61, 0.00, 66.29, 69.99
GPS, 3, 18937800, 13, 1.61, -33.7840655, 151.0681969, 2.93, 95.06, 0.59, 205.92
CTUN, 562, 0.00, 3.07, 2.910000, 0.00, 0, -3, 576, 0
ATT, 0.00, -0.87, -7.64, -4.51, 0.00, 66.56, 69.99
CTUN, 561, 0.00, 3.01, 2.910000, 0.00, 1, -3, 586, 0
GPS, 3, 18938000, 12, 1.64, -33.7840662, 151.0681960, 2.94, 95.06, 0.57, 215.04
ATT, 0.00, -0.82, -9.82, -6.70, 0.00, 66.77, 69.99
CTUN, 561, 0.00, 3.11, 2.910000, 0.00, 3, -1, 581, 0
ATT, 0.00, -0.14, -8.49, -7.93, 0.00, 66.78, 69.99
CTUN, 561, 0.00, 3.09, 2.910000, 0.00, 4, -3, 575, 0
GPS, 3, 18938200, 13, 1.61, -33.7840668, 151.0681953, 2.95, 95.07, 0.48, 218.25
ATT, 0.00, -0.12, -8.12, -8.26, 0.00, 66.79, 69.99
CTUN, 561, 0.00, 3.08, 2.910000, 0.00, 4, -3, 571, 0
ATT, 0.00, 0.49, -8.12, -7.72, 0.00, 66.76, 69.99
CTUN, 561, 0.00, 2.99, 2.910000, 0.00, 4, -4, 584, 0
GPS, 3, 18938400, 13, 1.61, -33.7840669, 151.0681948, 2.95, 95.06, 0.21, 218.25
CTUN, 561, 0.00, 3.03, 2.910000, 0.00, 3, -4, 584, 0
ATT, 0.00, 0.23, -7.76, -7.55, 0.00, 66.85, 69.99
CTUN, 561, 0.00, 3.01, 2.910000, 0.00, 3, -6, 581, 0
ATT, 0.00, 0.23, -7.76, -7.22, 0.00, 66.94, 69.99
GPS, 3, 18938600, 13, 1.61, -33.7840668, 151.0681948, 2.95, 95.06, 0.03, 218.25
CTUN, 561, 0.00, 3.03, 2.910000, 0.00, 3, -5, 587, 0
ATT, 0.00, 0.70, -8.24, -6.73, 0.00, 66.94, 69.99
CTUN, 561, 0.00, 3.05, 2.910000, 0.00, 2, -3, 565, 0
ATT, 0.00, 0.81, -8.24, -6.48, 0.00, 66.86, 69.99
DU32, 7, 1401
CURR, 561, 167834, 0, 0, 4732, 0.000000
GPS, 3, 18938800, 13, 1.61, -33.7840666, 151.0681952, 2.95, 95.07, 0.22, 218.25
CTUN, 561, 0.00, 3.12, 2.910000, 0.00, 2, -4, 583, 0
ATT, 0.00, 0.81, -7.52, -6.39, 0.00, 66.63, 69.99
CTUN, 561, 0.00, 2.99, 2.910000, 0.00, 2, -3, 567, 0
ATT, 0.00, 1.12, -4.85, -5.73, 0.00, 66.42, 69.99
GPS, 3, 18939000, 13, 1.61, -33.7840658, 151.0681957, 2.96, 95.10, 0.43, 127.03
CTUN, 561, 0.00, 3.11, 2.910000, 0.00, 1, -4, 571, 0
ATT, 0.00, 1.12, -0.48, -3.29, 0.00, 66.12, 69.99
CTUN, 561, 0.00, 3.12, 2.910000, 0.00, 0, -3, 563, 0
ATT, 0.00, 1.83, 0.00, -0.24, 0.00, 65.84, 69.99
GPS, 3, 18939200, 13, 1.61, -33.7840653, 151.0681967, 2.97, 95.11, 0.55, 91.68
CTUN, 561, 0.00, 2.98, 2.910000, 0.00, 0, -4, 564, 0
ATT, 0.00, 1.52, -1.45, 1.20, 0.00, 65.76, 69.99
CTUN, 561, 0.00, 2.97, 2.910000, 0.00, 0, -3, 557, 0
GPS, 3, 18939400, 13, 1.61, -33.7840647, 151.0681976, 2.96, 95.15, 0.53, 66.47
ATT, 0.00, 1.68, 0.00, 1.17, 0.00, 65.78, 69.99
CTUN, 561, 0.00, 3.10, 2.910000, 0.00, 0, -6, 574, 0
ATT, 0.00, 1.91, -2.18, 1.80, 0.00, 65.83, 69.99
CTUN, 562, 0.00, 3.14, 2.910000, 0.00, 0, -4, 566, 0
GPS, 3, 18939600, 13, 1.61, -33.7840642, 151.0681983, 2.97, 95.18, 0.43, 64.44
ATT, 0.00, 2.18, -2.18, 1.11, 0.00, 65.80, 69.99
CTUN, 561, 0.00, 3.13, 2.910000, 0.00, 0, -4, 564, 0
ATT, 0.00, 1.92, -2.06, 0.53, 0.00, 65.79, 69.99
CTUN, 561, 0.00, 3.09, 2.910000, 0.00, 0, -6, 569, 0
GPS, 3, 18939800, 13, 1.61, -33.7840638, 151.0681989, 2.97, 95.21, 0.36, 60.10
DU32, 7, 1401
CURR, 562, 173519, 0, 0, 4752, 0.000000
ATT, 0.00, 2.01, -2.54, 0.31, 0.00, 65.76, 69.99
CTUN, 561, 0.00, 3.08, 2.910000, 0.00, 0, -6, 569, 0
ATT, 0.00, 2.03, -2.54, 0.14, 0.00, 65.69, 69.99
CTUN, 561, 0.00, 3.19, 2.910000, 0.00, 0, -7, 569, 0
GPS, 3, 18940000, 13, 1.61, -33.7840636, 151.0681993, 2.97, 95.26, 0.22, 60.10
ATT, 0.00, 1.69, -2.54, 0.15, 0.00, 65.64, 69.99
CTUN, 561, 0.00, 3.08, 2.910000, 0.00, 0, -7, 580, 0
ATT, 0.00, 1.54, -2.18, -0.09, 0.00, 65.54, 69.99
CTUN, 561, 0.00, 3.09, 2.910000, 0.00, 0, -7, 566, 0
GPS, 3, 18940200, 13, 1.61, -33.7840636, 151.0681997, 2.98, 95.25, 0.17, 60.10
ATT, 0.00, 1.32, -1.21, -0.01, 0.00, 65.45, 69.99
CTUN, 561, 0.00, 3.12, 2.910000, 0.00, 0, -8, 577, 0
ATT, 0.00, 1.15, -1.81, 0.13, 0.00, 65.38, 69.99
CTUN, 561, 0.00, 3.10, 2.910000, 0.00, 0, -8, 577, 0
GPS, 3, 18940400, 13, 1.61, -33.7840637, 151.0682000, 2.97, 95.24, 0.16, 60.10
CTUN, 561, 0.00, 3.05, 2.910000, 0.00, 0, -7, 575, 0
ATT, 0.00, 0.62, -1.69, -0.29, 0.00, 65.29, 69.99
CTUN, 561, 0.00, 3.03, 2.910000, 0.00, 0, -8, 587, 0
ATT, 0.00, 0.12, -4.12, -0.91, 0.00, 65.26, 69.99
GPS, 3, 18940600, 13, 1.61, -33.7840639, 151.0682001, 2.97, 95.23, 0.09, 60.10
CTUN, 561, 0.00, 2.93, 2.910000, 0.00, 0, -8, 577, 0
ATT, 0.00, 0.00, -4.48, -2.37, 0.00, 65.33, 69.99
CTUN, 561, 0.00, 3.05, 2.910000, 0.00, 0, -8, 586, 0
ATT, 0.00, -0.19, -4.85, -3.16, 0.00, 65.56, 69.99
GPS, 3, 18940800, 13, 1.61, -33.7840641, 151.0682001, 2.95, 95.22, 0.13, 60.10
CTUN, 561, 0.00, 3.01, 2.910000, 0.00, 0, -6, 583, 0
ATT, 0.00, -0.07, -5.21, -3.67, 0.00, 65.77, 69.99
DU32, 7, 1401
CURR, 561, 179267, 0, 0, 4752, 0.000000
CTUN, 562, 0.00, 3.08, 2.910000, 0.00, 1, -5, 577, 0
GPS, 3, 18941000, 12, 1.64, -33.7840643, 151.0682002, 2.95, 95.22, 0.09, 60.10
ATT, 0.00, 0.09, -5.82, -4.39, 0.00, 65.96, 69.99
CTUN, 561, 0.00, 2.99, 2.910000, 0.00, 1, -3, 570, 0
ATT, 0.00, 0.23, -6.06, -4.96, 0.00, 66.00, 69.99
CTUN, 561, 0.00, 3.10, 2.910000, 0.00, 1, -4, 576, 0
GPS, 3, 18941200, 12, 1.64, -33.7840644, 151.0682004, 2.95, 95.21, 0.06, 60.10
ATT, 0.00, 0.55, -6.18, -5.18, 0.00, 65.96, 69.99
CTUN, 561, 0.00, 3.05, 2.910000, 0.00, 1, -3, 575, 0
ATT, 0.00, 0.22, -6.06, -5.41, 0.00, 65.92, 69.99
CTUN, 561, 0.00, 3.07, 2.910000, 0.00, 1, -4, 565, 0
GPS, 3, 18941400, 12, 1.64, -33.7840643, 151.0682008, 2.96, 95.21, 0.19, 60.10
ATT, 0.00, 0.05, -5.94, -5.22, 0.00, 65.93, 69.99
CTUN, 561, 0.00, 3.11, 2.910000, 0.00, 1, -4, 573, 0
ATT, 0.00, 0.00, -5.70, -4.69, 0.00, 66.01, 69.99
CTUN, 561, 0.00, 3.11, 2.910000, 0.00, 1, -4, 577, 0
GPS, 3, 18941600, 13, 1.61, -33.7840641, 151.0682014, 2.97, 95.20, 0.31, 60.10
ATT, 0.00, 0.08, -4.97, -4.16, 0.00, 66.17, 69.99
CTUN, 561, 0.00, 3.06, 2.910000, 0.00, 1, -6, 570, 0
ATT, 0.00, 0.16, -1.94, -3.62, 0.00, 66.34, 69.99
CTUN, 562, 0.00, 3.13, 2.910000, 0.00, 0, -6, 571, 0
GPS, 3, 18941800, 13, 1.61, -33.7840637, 151.0682021, 2.97, 95.26, 0.37, 56.91
ATT, 0.00, 0.71, 0.00, -1.97, 0.00, 66.44, 69.99
CTUN, 561, 0.00, 3.11, 2.910000, 0.00, 0, -6, 572, 0
ATT, 0.00, 0.90, 0.00, -0.48, 0.00, 66.43, 69.99
CTUN, 561, 0.00, 3.08, 2.910000, 0.00, 0, -5, 563, 0
GPS, 3, 18942000, 13, 1.61, -33.7840634, 151.0682030, 2.97, 95.23, 0.48, 61.82
DU32, 7, 1401
CURR, 561, 185590, 0, 0, 4732, 0.000000
ATT, 0.00, 0.48, 0.00, -0.24, 0.00, 66.31, 69.99
CTUN, 561, 0.00, 3.06, 2.910000, 0.00, 0, -5, 568, 0
ATT, 0.00, 0.46, 0.00, 0.03, 0.00, 66.08, 69.99
CTUN, 561, 0.00, 3.08, 2.910000, 0.00, 0, -6, 571, 0
GPS, 3, 18942200, 13, 1.61, -33.7840630, 151.0682039, 2.97, 95.22, 0.46, 60.34
ATT, 0.00, 0.41, 0.00, 0.62, 0.00, 65.79, 69.99
