dump 1

ArduCopter V3.1-rc3.1
Free RAM: 1342
APM 2
FMT, 128, 89, FMT, BBnNZ, Type,Length,Name,Format
FMT, 129, 23, PARM, Nf, Name,Value
FMT, 130, 35, GPS, BIBcLLeeEe, Status,Time,NSats,HDop,Lat,Lng,RelAlt,Alt,Spd,GCrs
FMT, 131, 27, IMU, ffffff, GyrX,GyrY,GyrZ,AccX,AccY,AccZ
FMT, 132, 67, MSG, Z, Message
FMT, 9, 19, CURR, hIhhhf, Thr,ThrInt,Volt,Curr,Vcc,CurrTot
FMT, 11, 11, MOT, hhhh, Mot1,Mot2,Mot3,Mot4
FMT, 12, 28, OF, hhBccffee, Dx,Dy,SQual,X,Y,Lat,Lng,Roll,Pitch
FMT, 5, 49, NTUN, Ecffffffffee, WPDst,WPBrg,PErX,PErY,DVelX,DVelY,VelX,VelY,DAcX,DAcY,DRol,DPit
FMT, 4, 25, CTUN, hcefchhhh, ThrIn,SonAlt,BarAlt,WPAlt,DesSonAlt,AngBst,CRate,ThrOut,DCRate
FMT, 15, 21, MAG, hhhhhhhhh, MagX,MagY,MagZ,OfsX,OfsY,OfsZ,MOfsX,MOfsY,MOfsZ
FMT, 6, 17, PM, BBBHHIhB, RenCnt,RenBlw,FixCnt,NLon,NLoop,MaxT,PMT,I2CErr
FMT, 8, 20, CMD, BBBBBeLL, CTot,CNum,CId,COpt,Prm1,Alt,Lat,Lng
FMT, 1, 17, ATT, cccccCC, RollIn,Roll,PitchIn,Pitch,YawIn,Yaw,NavYaw
FMT, 17, 37, INAV, cccfffiiff, BAlt,IAlt,IClb,ACorrX,ACorrY,ACorrZ,GLat,GLng,ILat,ILng
FMT, 3, 6, MODE, Mh, Mode,ThrCrs
FMT, 10, 3, STRT, , 
FMT, 13, 4, EV, B, Id
FMT, 20, 6, D16, Bh, Id,Value
FMT, 21, 6, DU16, BH, Id,Value
FMT, 22, 8, D32, Bi, Id,Value
FMT, 23, 8, DU32, BI, Id,Value
FMT, 24, 8, DFLT, Bf, Id,Value
FMT, 14, 28, PID, Biiiiif, Id,Error,P,I,D,Out,Gain
FMT, 18, 25, CAM, ILLeccC, GPSTime,Lat,Lng,Alt,Roll,Pitch,Yaw
FMT, 19, 5, ERR, BB, Subsys,ECode
D32, 9, 5858
CMD, 6, 0, 16, 0, 0, 0.00, -33.7840614, 151.0682073
EV, 10
GPS, 3, 368477200, 9, 1.79, -33.7840614, 151.0682072, -1.38, 89.45, 0.02, 0.00
CTUN, 0, 0.00, 0.02, 0.000000, 0.00, 0, -7, 0, 0
ATT, 0.00, 0.84, 0.00, 1.63, 0.00, 58.61, 58.61
CTUN, 0, 0.00, 0.07, 0.000000, 0.00, 0, -6, 0, 0
ATT, 0.00, 0.85, 0.00, 1.81, 0.00, 58.57, 58.57
GPS, 3, 368484600, 9, 1.79, -33.7840599, 151.0682025, -1.25, 89.39, 0.01, 0.00
CTUN, 0, 0.00, -0.01, 0.000000, 0.00, 0, -4, 0, 0
DU32, 7, 8793
CURR, 0, 0, 1225, 92, 4732, 0.049804
ATT, 0.00, 0.86, 0.00, 1.89, 0.00, 58.60, 58.60
CTUN, 0, 0.00, 0.13, 0.000000, 0.00, 0, -3, 0, 0
ATT, 0.00, 0.87, 0.00, 1.90, 0.00, 58.64, 58.64
GPS, 3, 368484800, 9, 1.79, -33.7840599, 151.0682024, -1.10, 89.39, 0.03, 0.00
CTUN, 0, 0.00, 0.06, 0.000000, 0.00, 0, -1, 0, 0
ATT, 0.00, 0.87, 0.00, 1.90, 0.00, 58.64, 58.64
CTUN, 0, 0.00, 0.04, 0.000000, 0.00, 0, 0, 0, 0
ATT, 0.00, 0.87, 0.00, 1.91, 0.00, 58.67, 58.67
GPS, 3, 368485000, 9, 1.79, -33.7840598, 151.0682023, -0.97, 89.39, 0.02, 0.00
CTUN, 0, 0.00, 0.00, 0.000000, 0.00, 0, 0, 0, 0
ATT, 0.00, 0.86, 0.00, 1.91, 0.00, 58.70, 58.70
CTUN, 0, 0.00, 0.04, 0.000000, 0.00, 0, 2, 0, 0
ATT, 0.00, 0.86, 0.00, 1.90, 0.00, 58.73, 58.73
GPS, 3, 368485200, 9, 1.79, -33.7840597, 151.0682023, -0.85, 89.41, 0.01, 0.00
CTUN, 0, 0.00, 0.06, 0.000000, 0.00, 0, 2, 0, 0
ATT, 0.00, 0.85, 0.00, 1.90, 0.00, 58.74, 58.74
CTUN, 0, 0.00, 0.00, 0.000000, 0.00, 0, 4, 0, 0
ATT, 0.00, 0.85, 0.00, 1.89, 0.00, 58.77, 58.77
GPS, 3, 368485400, 9, 1.79, -33.7840596, 151.0682023, -0.74, 89.43, 0.02, 0.00
CTUN, 0, 0.00, -0.04, 0.000000, 0.00, 0, 5, 0, 0
ATT, 0.00, 0.87, 0.00, 1.90, 0.00, 58.79, 58.79
CTUN, 0, 0.00, 0.00, 0.000000, 0.00, 0, 5, 0, 0
ATT, 0.00, 0.86, 0.00, 1.91, 0.00, 58.82, 58.82
GPS, 3, 368485600, 9, 1.79, -33.7840595, 151.0682022, -0.64, 89.45, 0.01, 0.00
CTUN, 0, 0.00, -0.01, 0.000000, 0.00, 0, 6, 0, 0
DU32, 7, 8793
CURR, 0, 0, 1230, 67, 4752, 0.232066
ATT, 0.00, 0.86, 0.00, 1.89, 0.00, 58.83, 58.83
CTUN, 0, 0.00, 0.05, 0.000000, 0.00, 0, 7, 0, 0
ATT, 0.00, 0.86, 0.00, 1.89, 0.00, 58.85, 58.85
GPS, 3, 368485800, 9, 1.79, -33.7840595, 151.0682021, -0.55, 89.47, 0.02, 0.00
CTUN, 0, 0.00, 0.05, 0.000000, 0.00, 0, 8, 0, 0
ATT, 0.00, 0.86, 0.00, 1.89, 0.00, 58.88, 58.88
CTUN, 0, 0.00, -0.01, 0.000000, 0.00, 0, 8, 0, 0
ATT, 0.00, 0.87, 0.00, 1.90, 0.00, 58.90, 58.90
GPS, 3, 368486000, 9, 1.79, -33.7840594, 151.0682021, -0.47, 89.49, 0.00, 0.00
CTUN, 0, 0.00, 0.00, 0.000000, 0.00, 0, 9, 0, 0
ATT, 0.00, 0.87, 0.00, 1.89, 0.00, 58.91, 58.91
CTUN, 0, 0.00, 0.10, 0.000000, 0.00, 0, 10, 0, 0
ATT, 0.00, 0.86, 0.00, 1.89, 0.00, 58.93, 58.93
GPS, 3, 368486200, 9, 1.79, -33.7840594, 151.0682020, -0.39, 89.50, 0.01, 0.00
CTUN, 0, 0.00, 0.00, 0.000000, 0.00, 0, 10, 0, 0
ATT, 0.00, 0.86, 0.00, 1.89, 0.00, 58.96, 58.96
CTUN, 0, 0.00, 0.00, 0.000000, 0.00, 0, 11, 0, 0
ATT, 0.00, 0.86, 0.00, 1.89, 0.00, 58.99, 58.99
GPS, 3, 368486400, 9, 1.79, -33.7840594, 151.0682020, -0.32, 89.51, 0.03, 0.00
CTUN, 0, 0.00, 0.12, 0.000000, 0.00, 0, 12, 0, 0
ATT, 0.00, 0.87, 0.00, 1.90, 0.00, 59.00, 59.00
CTUN, 0, 0.00, 0.15, 0.000000, 0.00, 0, 12, 0, 0
ATT, 0.00, 0.87, 0.00, 1.90, 0.00, 59.02, 59.02
GPS, 3, 368486600, 9, 1.79, -33.7840594, 151.0682020, -0.24, 89.52, 0.01, 0.00
CTUN, 0, 0.00, 0.04, 0.000000, 0.00, 0, 13, 0, 0
DU32, 7, 8793
CURR, 0, 0, 1224, 65, 4732, 0.409931
ATT, 0.00, 0.86, 0.00, 1.90, 0.00, 59.05, 59.05
CTUN, 0, 0.00, 0.14, 0.000000, 0.00, 0, 13, 0, 0
ATT, 0.00, 0.86, 0.00, 1.90, 0.00, 59.06, 59.06
GPS, 3, 368486800, 9, 1.79, -33.7840593, 151.0682019, -0.18, 89.54, 0.03, 0.00
CTUN, 0, 0.00, 0.11, 0.000000, 0.00, 0, 14, 0, 0
ATT, 0.00, 0.86, 0.00, 1.89, 0.00, 59.08, 59.08
CTUN, 0, 0.00, 0.09, 0.000000, 0.00, 0, 14, 0, 0
ATT, 0.00, 0.84, 0.00, 1.88, 0.00, 59.10, 59.10
GPS, 3, 368487000, 9, 1.79, -33.7840593, 151.0682019, -0.11, 89.55, 0.03, 0.00
CTUN, 0, 0.00, 0.18, 0.000000, 0.00, 0, 15, 0, 0
ATT, 0.00, 0.84, 0.00, 1.88, 0.00, 59.12, 59.12
CTUN, 0, 0.00, 0.16, 0.000000, 0.00, 0, 15, 0, 0
ATT, 0.00, 0.85, 0.00, 1.89, 0.00, 59.14, 59.14
GPS, 3, 368487200, 9, 1.79, -33.7840593, 151.0682018, -0.05, 89.55, 0.03, 0.00
CTUN, 0, 0.00, 0.07, 0.000000, 0.00, 0, 15, 0, 0
ATT, 0.00, 0.86, 0.00, 1.90, 0.00, 59.15, 59.15
CTUN, 0, 0.00, 0.14, 0.000000, 0.00, 0, 16, 0, 0
ATT, 0.00, 0.86, 0.00, 1.90, 0.00, 59.18, 59.18
GPS, 3, 368487400, 9, 1.79, -33.7840593, 151.0682018, 0.00, 89.56, 0.03, 0.00
CTUN, 0, 0.00, 0.11, 0.000000, 0.00, 0, 16, 0, 0
ATT, 0.00, 0.85, 0.00, 1.90, 0.00, 59.20, 59.20
CTUN, 0, 0.00, 0.17, 0.000000, 0.00, 0, 16, 0, 0
PM, 0, 0, 50, 4, 1000, 7326116, 16, 4
ATT, 0.00, 0.85, 0.00, 1.89, 0.00, 59.22, 59.22
GPS, 3, 368487600, 9, 1.79, -33.7840594, 151.0682018, 0.04, 89.56, 0.03, 0.00
CTUN, 0, 0.00, 0.20, 0.000000, 0.00, 0, 16, 0, 0
DU32, 7, 8793
CURR, 0, 0, 1224, 62, 4732, 0.584820
ATT, 0.00, 0.85, 0.00, 1.89, 0.00, 59.24, 59.24
CTUN, 0, 0.00, 0.17, 0.000000, 0.00, 0, 17, 0, 0
ATT, 0.00, 0.85, 0.00, 1.89, 0.00, 59.26, 59.26
GPS, 3, 368487800, 9, 1.79, -33.7840594, 151.0682018, 0.09, 89.56, 0.01, 0.00
CTUN, 0, 0.00, 0.18, 0.000000, 0.00, 0, 17, 0, 0
ATT, 0.00, 0.86, 0.00, 1.88, 0.00, 59.28, 59.28
CTUN, 0, 0.00, 0.17, 0.000000, 0.00, 0, 17, 0, 0
ATT, 0.00, 0.86, 0.00, 1.87, 0.00, 59.30, 59.30
GPS, 3, 368488000, 9, 1.79, -33.7840595, 151.0682018, 0.13, 89.55, 0.01, 0.00
CTUN, 0, 0.00, 0.17, 0.000000, 0.00, 0, 17, 0, 0
ATT, 0.00, 0.86, 0.00, 1.87, 0.00, 59.32, 59.32
CTUN, 0, 0.00, 0.07, 0.000000, 0.00, 0, 18, 0, 0
ATT, 0.00, 0.85, 0.00, 1.87, 0.00, 59.34, 59.34
GPS, 3, 368488200, 9, 1.79, -33.7840596, 151.0682018, 0.17, 89.55, 0.01, 0.00
CTUN, 0, 0.00, 0.23, 0.000000, 0.00, 0, 18, 0, 0
ATT, 0.00, 0.86, 0.00, 1.87, 0.00, 59.36, 59.36
CTUN, 0, 0.00, 0.31, 0.000000, 0.00, 0, 18, 0, 0
ATT, 0.00, 0.86, 0.00, 1.87, 0.00, 59.38, 59.38
GPS, 3, 368488400, 9, 1.79, -33.7840597, 151.0682017, 0.21, 89.54, 0.03, 0.00
CTUN, 0, 0.00, 0.25, 0.000000, 0.00, 0, 18, 0, 0
ATT, 0.00, 0.86, 0.00, 1.88, 0.00, 59.41, 59.41
CTUN, 0, 0.00, 0.28, 0.000000, 0.00, 0, 18, 0, 0
ATT, 0.00, 0.86, 0.00, 1.89, 0.00, 59.43, 59.43
GPS, 3, 368488600, 9, 1.79, -33.7840597, 151.0682016, 0.26, 89.55, 0.01, 0.00
CTUN, 0, 0.00, 0.25, 0.000000, 0.00, 0, 18, 0, 0
DU32, 7, 8793
CURR, 0, 0, 1228, 65, 4712, 0.758646
ATT, 0.00, 0.85, 0.00, 1.88, 0.00, 59.45, 59.45
CTUN, 0, 0.00, 0.15, 0.000000, 0.00, 0, 18, 0, 0
ATT, 0.00, 0.86, 0.00, 1.89, 0.00, 59.46, 59.46
GPS, 3, 368488800, 9, 1.79, -33.7840598, 151.0682016, 0.29, 89.56, 0.01, 0.00
CTUN, 0, 0.00, 0.13, 0.000000, 0.00, 0, 18, 0, 0
ATT, 0.00, 0.85, 0.00, 1.88, 0.00, 59.48, 59.48
CTUN, 0, 0.00, 0.10, 0.000000, 0.00, 0, 18, 0, 0
ATT, 0.00, 0.84, 0.00, 1.88, 0.00, 59.50, 59.50
GPS, 3, 368489000, 9, 1.79, -33.7840599, 151.0682016, 0.30, 89.56, 0.01, 0.00
CTUN, 0, 0.00, 0.13, 0.000000, 0.00, 0, 18, 0, 0
ATT, 0.00, 0.84, 0.00, 1.88, 0.00, 59.51, 59.51
CTUN, 0, 0.00, 0.36, 0.000000, 0.00, 0, 18, 0, 0
ATT, 0.00, 0.83, 0.00, 1.88, 0.00, 59.52, 59.52
GPS, 3, 368489200, 9, 1.79, -33.7840599, 151.0682015, 0.33, 89.55, 0.00, 0.00
CTUN, 0, 0.00, 0.22, 0.000000, 0.00, 0, 18, 0, 0
ATT, 0.00, 0.84, 0.00, 1.87, 0.00, 59.53, 59.53
CTUN, 0, 0.00, 0.22, 0.000000, 0.00, 0, 18, 0, 0
ATT, 0.00, 0.84, 0.00, 1.87, 0.00, 59.56, 59.56
GPS, 3, 368489400, 9, 1.79, -33.7840600, 151.0682015, 0.36, 89.56, 0.00, 0.00
CTUN, 0, 0.00, 0.27, 0.000000, 0.00, 0, 18, 0, 0
ATT, 0.00, 0.85, 0.00, 1.87, 0.00, 59.57, 59.57
CTUN, 0, 0.00, 0.36, 0.000000, 0.00, 0, 18, 0, 0
ATT, 0.00, 0.85, 0.00, 1.87, 0.00, 59.59, 59.59
GPS, 3, 368489600, 9, 1.79, -33.7840600, 151.0682015, 0.39, 89.56, 0.01, 0.00
CTUN, 0, 0.00, 0.33, 0.000000, 0.00, 0, 18, 0, 0
DU32, 7, 8793
CURR, 0, 0, 1224, 59, 4732, 0.931560
ATT, 0.00, 0.85, 0.00, 1.88, 0.00, 59.61, 59.61
CTUN, 0, 0.00, 0.35, 0.000000, 0.00, 0, 18, 0, 0
ATT, 0.00, 0.85, 0.00, 1.88, 0.00, 59.62, 59.62
GPS, 3, 368489800, 9, 1.79, -33.7840600, 151.0682014, 0.42, 89.57, 0.01, 0.00
CTUN, 0, 0.00, 0.27, 0.000000, 0.00, 0, 18, 0, 0
ATT, 0.00, 0.85, 0.00, 1.87, 0.00, 59.63, 59.63
CTUN, 0, 0.00, 0.34, 0.000000, 0.00, 0, 18, 0, 0
ATT, 0.00, 0.84, 0.00, 1.87, 0.00, 59.66, 59.66
GPS, 3, 368490000, 9, 1.79, -33.7840600, 151.0682013, 0.44, 89.58, 0.01, 0.00
CTUN, 0, 0.00, 0.29, 0.000000, 0.00, 0, 18, 0, 0
ATT, 0.00, 0.84, 0.00, 1.87, 0.00, 59.68, 59.68
CTUN, 0, 0.00, 0.24, 0.000000, 0.00, 0, 18, 0, 0
ATT, 0.00, 0.85, 0.00, 1.86, 0.00, 59.69, 59.69
GPS, 3, 368490200, 9, 1.79, -33.7840600, 151.0682013, 0.46, 89.59, 0.02, 0.00
CTUN, 0, 0.00, 0.32, 0.000000, 0.00, 0, 18, 0, 0
ATT, 0.00, 0.86, 0.00, 1.86, 0.00, 59.70, 59.70
CTUN, 0, 0.00, 0.28, 0.000000, 0.00, 0, 18, 0, 0
ATT, 0.00, 0.86, 0.00, 1.86, 0.00, 59.71, 59.71
GPS, 3, 368490400, 9, 1.79, -33.7840600, 151.0682013, 0.47, 89.59, 0.02, 0.00
CTUN, 0, 0.00, 0.22, 0.000000, 0.00, 0, 17, 0, 0
ATT, 0.00, 0.85, 0.00, 1.86, 0.00, 59.73, 59.73
CTUN, 0, 0.00, 0.20, 0.000000, 0.00, 0, 17, 0, 0
ATT, 0.00, 0.85, 0.00, 1.86, 0.00, 59.75, 59.75
GPS, 3, 368490600, 9, 1.79, -33.7840600, 151.0682012, 0.48, 89.61, 0.02, 0.00
CTUN, 0, 0.00, 0.21, 0.000000, 0.00, 0, 17, 0, 0
DU32, 7, 8793
CURR, 0, 0, 1226, 61, 4732, 1.104515
ATT, 0.00, 0.85, 0.00, 1.86, 0.00, 59.77, 59.77
CTUN, 0, 0.00, 0.21, 0.000000, 0.00, 0, 17, 0, 0
ATT, 0.00, 0.85, 0.00, 1.87, 0.00, 59.79, 59.79
GPS, 3, 368490800, 9, 1.79, -33.7840599, 151.0682011, 0.48, 89.63, 0.01, 0.00
CTUN, 0, 0.00, 0.26, 0.000000, 0.00, 0, 16, 0, 0
ATT, 0.00, 0.86, 0.00, 1.86, 0.00, 59.80, 59.80
CTUN, 0, 0.00, 0.30, 0.000000, 0.00, 0, 16, 0, 0
ATT, 0.00, 0.85, 0.00, 1.85, 0.00, 59.82, 59.82
GPS, 3, 368491000, 9, 1.79, -33.7840599, 151.0682011, 0.49, 89.63, 0.01, 0.00
CTUN, 0, 0.00, 0.25, 0.000000, 0.00, 0, 16, 0, 0
ATT, 0.00, 0.86, 0.00, 1.86, 0.00, 59.84, 59.84
CTUN, 0, 0.00, 0.24, 0.000000, 0.00, 0, 16, 0, 0
ATT, 0.00, 0.86, 0.00, 1.87, 0.00, 59.85, 59.85
GPS, 3, 368491200, 9, 1.79, -33.7840599, 151.0682010, 0.49, 89.64, 0.01, 0.00
CTUN, 0, 0.00, 0.31, 0.000000, 0.00, 0, 16, 0, 0
ATT, 0.00, 0.86, 0.00, 1.86, 0.00, 59.86, 59.86
CTUN, 0, 0.00, 0.30, 0.000000, 0.00, 0, 15, 0, 0
ATT, 0.00, 0.86, 0.00, 1.86, 0.00, 59.87, 59.87
GPS, 3, 368491400, 9, 1.79, -33.7840599, 151.0682010, 0.50, 89.64, 0.01, 0.00
CTUN, 0, 0.00, 0.34, 0.000000, 0.00, 0, 15, 0, 0
ATT, 0.00, 0.85, 0.00, 1.85, 0.00, 59.89, 59.89
CTUN, 0, 0.00, 0.41, 0.000000, 0.00, 0, 15, 0, 0
ATT, 0.00, 0.84, 0.00, 1.85, 0.00, 59.92, 59.92
GPS, 3, 368491600, 9, 1.79, -33.7840599, 151.0682010, 0.52, 89.65, 0.01, 0.00
CTUN, 0, 0.00, 0.37, 0.000000, 0.00, 0, 15, 0, 0
DU32, 7, 8793
CURR, 0, 0, 1226, 64, 4772, 1.281290
ATT, 0.00, 0.85, 0.00, 1.85, 0.00, 59.93, 59.93
CTUN, 0, 0.00, 0.34, 0.000000, 0.00, 0, 15, 0, 0
ATT, 0.00, 0.85, 0.00, 1.84, 0.00, 59.95, 59.95
GPS, 3, 368491800, 9, 1.79, -33.7840599, 151.0682009, 0.53, 89.65, 0.01, 0.00
CTUN, 0, 0.00, 0.23, 0.000000, 0.00, 0, 15, 0, 0
ATT, 0.00, 0.85, 0.00, 1.84, 0.00, 59.97, 59.97
CTUN, 0, 0.00, 0.30, 0.000000, 0.00, 0, 15, 0, 0
ATT, 0.00, 0.86, 0.00, 1.84, 0.00, 59.97, 59.97
GPS, 3, 368492000, 9, 1.79, -33.7840600, 151.0682009, 0.53, 89.66, 0.02, 0.00
CTUN, 0, 0.00, 0.34, 0.000000, 0.00, 0, 15, 0, 0
ATT, 0.00, 0.86, 0.00, 1.86, 0.00, 59.98, 59.98
CTUN, 0, 0.00, 0.33, 0.000000, 0.00, 0, 14, 0, 0
ATT, 0.00, 0.86, 0.00, 1.85, 0.00, 59.99, 59.99
GPS, 3, 368492200, 9, 1.79, -33.7840600, 151.0682008, 0.53, 89.69, 0.01, 0.00
CTUN, 0, 0.00, 0.33, 0.000000, 0.00, 0, 14, 0, 0
ATT, 0.00, 0.87, 0.00, 1.86, 0.00, 60.01, 60.01
CTUN, 0, 0.00, 0.25, 0.000000, 0.00, 0, 14, 0, 0
ATT, 0.00, 0.86, 0.00, 1.85, 0.00, 60.01, 60.01
GPS, 3, 368492400, 9, 1.79, -33.7840600, 151.0682006, 0.53, 89.71, 0.02, 0.00
CTUN, 0, 0.00, 0.37, 0.000000, 0.00, 0, 13, 0, 0
ATT, 0.00, 0.86, 0.00, 1.84, 0.00, 60.02, 60.02
CTUN, 0, 0.00, 0.28, 0.000000, 0.00, 0, 13, 0, 0
ATT, 0.00, 0.85, 0.00, 1.84, 0.00, 60.04, 60.04
GPS, 3, 368492600, 9, 1.79, -33.7840600, 151.0682005, 0.53, 89.74, 0.02, 0.00
CTUN, 0, 0.00, 0.35, 0.000000, 0.00, 0, 13, 0, 0
DU32, 7, 8793
CURR, 0, 0, 1225, 67, 4732, 1.456386
ATT, 0.00, 0.85, 0.00, 1.84, 0.00, 60.06, 60.06
CTUN, 0, 0.00, 0.31, 0.000000, 0.00, 0, 13, 0, 0
ATT, 0.00, 0.85, 0.00, 1.84, 0.00, 60.08, 60.08
GPS, 3, 368492800, 9, 1.79, -33.7840600, 151.0682004, 0.54, 89.76, 0.01, 0.00
CTUN, 0, 0.00, 0.26, 0.000000, 0.00, 0, 12, 0, 0
ATT, 0.00, 0.86, 0.00, 1.84, 0.00, 60.09, 60.09
CTUN, 0, 0.00, 0.34, 0.000000, 0.00, 0, 12, 0, 0
ATT, 0.00, 0.87, 0.00, 1.84, 0.00, 60.11, 60.11
GPS, 3, 368493000, 9, 1.79, -33.7840601, 151.0682003, 0.53, 89.78, 0.03, 0.00
CTUN, 0, 0.00, 0.23, 0.000000, 0.00, 0, 12, 0, 0
ATT, 0.00, 0.87, 0.00, 1.84, 0.00, 60.13, 60.13
CTUN, 0, 0.00, 0.23, 0.000000, 0.00, 0, 11, 0, 0
ATT, 0.00, 0.86, 0.00, 1.85, 0.00, 60.16, 60.16
GPS, 3, 368493200, 9, 1.79, -33.7840602, 151.0682002, 0.52, 89.79, 0.02, 0.00
CTUN, 0, 0.00, 0.29, 0.000000, 0.00, 0, 11, 0, 0
ATT, 0.00, 0.86, 0.00, 1.85, 0.00, 60.17, 60.17
CTUN, 0, 0.00, 0.37, 0.000000, 0.00, 0, 11, 0, 0
ATT, 0.00, 0.86, 0.00, 1.84, 0.00, 60.18, 60.18
GPS, 3, 368493400, 9, 1.79, -33.7840602, 151.0682001, 0.52, 89.80, 0.02, 0.00
CTUN, 0, 0.00, 0.28, 0.000000, 0.00, 0, 11, 0, 0
ATT, 0.00, 0.86, 0.00, 1.83, 0.00, 60.20, 60.20
CTUN, 0, 0.00, 0.40, 0.000000, 0.00, 0, 10, 0, 0
ATT, 0.00, 0.85, 0.00, 1.82, 0.00, 60.22, 60.22
GPS, 3, 368493600, 9, 1.79, -33.7840603, 151.0682000, 0.52, 89.81, 0.02, 0.00
CTUN, 0, 0.00, 0.40, 0.000000, 0.00, 0, 10, 0, 0
DU32, 7, 8793
CURR, 0, 0, 1226, 63, 4752, 1.630943
ATT, 0.00, 0.85, 0.00, 1.82, 0.00, 60.23, 60.23
CTUN, 0, 0.00, 0.32, 0.000000, 0.00, 0, 10, 0, 0
ATT, 0.00, 0.85, 0.00, 1.82, 0.00, 60.25, 60.25
GPS, 3, 368493800, 9, 1.79, -33.7840603, 151.0682000, 0.52, 89.82, 0.02, 0.00
CTUN, 0, 0.00, 0.36, 0.000000, 0.00, 0, 10, 0, 0
ATT, 0.00, 0.85, 0.00, 1.82, 0.00, 60.27, 60.27
CTUN, 0, 0.00, 0.30, 0.000000, 0.00, 0, 10, 0, 0
ATT, 0.00, 0.84, 0.00, 1.80, 0.00, 60.28, 60.28
GPS, 3, 368494000, 9, 1.79, -33.7840604, 151.0681999, 0.52, 89.84, 0.01, 0.00
CTUN, 0, 0.00, 0.28, 0.000000, 0.00, 0, 10, 0, 0
ATT, 0.00, 0.86, 0.00, 1.79, 0.00, 60.29, 60.29
CTUN, 0, 0.00, 0.30, 0.000000, 0.00, 0, 9, 0, 0
ATT, 0.00, 0.86, 0.00, 1.80, 0.00, 60.31, 60.31
GPS, 3, 368494200, 9, 1.79, -33.7840605, 151.0681999, 0.51, 89.85, 0.02, 0.00
CTUN, 0, 0.00, 0.20, 0.000000, 0.00, 0, 9, 0, 0
ATT, 0.00, 0.87, 0.00, 1.81, 0.00, 60.32, 60.32
CTUN, 0, 0.00, 0.19, 0.000000, 0.00, 0, 9, 0, 0
ATT, 0.00, 0.87, 0.00, 1.81, 0.00, 60.33, 60.33
GPS, 3, 368494400, 9, 1.79, -33.7840605, 151.0681998, 0.50, 89.87, 0.01, 0.00
CTUN, 0, 0.00, 0.19, 0.000000, 0.00, 0, 8, 0, 0
ATT, 0.00, 0.87, 0.00, 1.81, 0.00, 60.34, 60.34
CTUN, 0, 0.00, 0.23, 0.000000, 0.00, 0, 8, 0, 0
ATT, 0.00, 0.86, 0.00, 1.80, 0.00, 60.36, 60.36
GPS, 3, 368494600, 10, 1.64, -33.7840605, 151.0681998, 0.48, 89.87, 0.02, 0.00
CTUN, 0, 0.00, 0.25, 0.000000, 0.00, 0, 8, 0, 0
DU32, 7, 8793
CURR, 0, 0, 1222, 66, 4712, 1.806110
ATT, 0.00, 0.85, 0.00, 1.80, 0.00, 60.37, 60.37
CTUN, 0, 0.00, 0.24, 0.000000, 0.00, 0, 8, 0, 0
ATT, 0.00, 0.85, 0.00, 1.81, 0.00, 60.39, 60.39
GPS, 3, 368494800, 10, 1.64, -33.7840605, 151.0681997, 0.47, 89.89, 0.02, 0.00
CTUN, 0, 0.00, 0.21, 0.000000, 0.00, 0, 7, 0, 0
ATT, 0.00, 0.85, 0.00, 1.80, 0.00, 60.40, 60.40
CTUN, 0, 0.00, 0.26, 0.000000, 0.00, 0, 7, 0, 0
ATT, 0.00, 0.84, 0.00, 1.80, 0.00, 60.42, 60.42
GPS, 3, 368495000, 10, 1.64, -33.7840605, 151.0681997, 0.45, 89.91, 0.01, 0.00
CTUN, 0, 0.00, 0.24, 0.000000, 0.00, 0, 7, 0, 0
ATT, 0.00, 0.85, 0.00, 1.79, 0.00, 60.43, 60.43
CTUN, 0, 0.00, 0.33, 0.000000, 0.00, 0, 6, 0, 0
ATT, 0.00, 0.86, 0.00, 1.79, 0.00, 60.44, 60.44
GPS, 3, 368495200, 10, 1.64, -33.7840605, 151.0681996, 0.45, 89.93, 0.04, 0.00
CTUN, 0, 0.00, 0.28, 0.000000, 0.00, 0, 6, 0, 0
ATT, 0.00, 0.86, 0.00, 1.80, 0.00, 60.47, 60.47
CTUN, 0, 0.00, 0.23, 0.000000, 0.00, 0, 6, 0, 0
EV, 15
ATT, 0.00, 0.85, 0.00, 1.81, 0.00, 60.48, 60.48
EV, 28
GPS, 3, 368495400, 9, 1.79, -33.7840605, 151.0681996, 0.44, 89.95, 0.01, 0.00
CTUN, 165, 0.00, 0.36, 0.000000, 0.00, 0, 6, 151, 0
ATT, 0.00, 0.87, 0.00, 1.81, 0.00, 60.46, 60.47
CTUN, 238, 0.00, 0.37, 0.000000, 0.00, 0, 6, 214, 0
ATT, 0.00, 0.90, 0.00, 1.81, 0.00, 60.44, 60.47
GPS, 3, 368495600, 9, 1.79, -33.7840605, 151.0681995, 0.44, 89.96, 0.04, 0.00
CTUN, 258, 0.00, 0.11, 0.000000, 0.00, 0, 6, 258, 0
DU32, 7, 8313
CURR, 268, 623, 1207, 437, 4752, 2.193445
ATT, 0.00, 0.92, 0.00, 1.85, 0.00, 60.40, 60.47
CTUN, 268, 0.00, 0.08, 0.000000, 0.00, 0, 5, 268, 0
GPS, 3, 368495800, 9, 1.79, -33.7840605, 151.0681995, 0.42, 89.98, 0.03, 0.00
ATT, 0.00, 0.95, 0.00, 1.84, 0.00, 60.41, 60.47
CTUN, 268, 0.00, -0.27, 0.000000, 0.00, 0, 5, 268, 0
ATT, 0.00, 0.96, 0.00, 1.86, 0.00, 60.46, 60.47
CTUN, 268, 0.00, -0.41, 0.000000, 0.00, 0, 4, 268, 0
GPS, 3, 368496000, 9, 1.79, -33.7840606, 151.0681995, 0.35, 89.99, 0.03, 0.00
CTUN, 268, 0.00, -0.36, 0.000000, 0.00, 0, 3, 268, 0
ATT, 0.00, 0.99, 0.00, 1.80, 0.00, 60.48, 60.47
CTUN, 268, 0.00, -0.19, 0.000000, 0.00, 0, 2, 268, 0
ATT, 0.00, 0.98, 0.00, 1.83, 0.00, 60.52, 60.47
GPS, 3, 368496200, 9, 1.79, -33.7840606, 151.0681995, 0.28, 90.00, 0.02, 0.00
CTUN, 268, 0.00, -0.52, 0.000000, 0.00, 0, 1, 268, 0
ATT, 0.00, 1.02, 0.00, 1.78, 0.00, 60.52, 60.47
CTUN, 268, 0.00, -0.47, 0.000000, 0.00, 0, 0, 268, 0
ATT, 0.00, 1.02, 0.00, 1.81, 0.00, 60.56, 60.47
GPS, 3, 368496400, 9, 1.79, -33.7840607, 151.0681994, 0.19, 90.01, 0.02, 0.00
CTUN, 268, 0.00, -0.30, 0.000000, 0.00, 0, 0, 268, 0
ATT, 0.00, 1.00, 0.00, 1.80, 0.00, 60.56, 60.47
CTUN, 268, 0.00, -0.11, 0.000000, 0.00, 0, 0, 268, 0
ATT, 0.00, 1.00, 0.00, 1.81, 0.00, 60.59, 60.47
GPS, 3, 368496600, 9, 1.79, -33.7840607, 151.0681994, 0.14, 90.02, 0.02, 0.00
CTUN, 321, 0.00, 0.08, 0.000000, 0.00, 0, 0, 321, 0
DU32, 7, 8313
CURR, 321, 3088, 1197, 501, 4712, 3.477964
ATT, 0.00, 1.02, 0.00, 1.78, 0.00, 60.61, 60.47
CTUN, 349, 0.00, 0.11, 0.000000, 0.00, 0, 0, 341, 0
GPS, 3, 368496800, 9, 1.79, -33.7840607, 151.0681994, 0.13, 90.03, 0.02, 0.00
ATT, 0.00, 1.10, 0.00, 1.77, 0.00, 60.61, 60.47
CTUN, 373, 0.00, 0.04, 0.000000, 0.00, 0, 0, 373, 0
ATT, 0.00, 1.11, 0.00, 1.80, 0.00, 60.60, 60.47
CTUN, 371, 0.00, -0.11, 0.000000, 0.00, 0, -1, 373, 0
GPS, 3, 368497000, 9, 1.79, -33.7840608, 151.0681994, 0.11, 90.04, 0.02, 0.00
ATT, 0.00, 1.08, 0.00, 1.85, 0.00, 60.63, 60.47
CTUN, 423, 0.00, -0.21, 0.000000, 0.00, 0, -1, 371, 0
EV, 16
ATT, 0.00, 1.12, 0.00, 1.77, 0.00, 60.59, 60.47
CTUN, 481, 0.00, -0.42, 0.000000, 0.00, 0, -2, 481, 0
GPS, 3, 368497200, 9, 1.79, -33.7840608, 151.0681994, 0.06, 90.04, 0.01, 0.00
CTUN, 547, 0.00, -0.67, 0.000000, 0.00, 0, -2, 546, 0
ATT, 0.00, 0.80, 0.00, 1.50, 0.00, 60.54, 60.47
CTUN, 551, 0.00, -0.88, 0.000000, 0.00, 0, 0, 547, 0
ATT, 0.00, 0.63, 0.00, 0.90, 0.00, 59.51, 60.47
GPS, 3, 368497400, 9, 1.79, -33.7840608, 151.0681994, -0.01, 90.05, 0.02, 0.00
CTUN, 576, 0.00, -0.54, 0.000000, 0.00, 0, 8, 571, 0
ATT, 0.00, 0.98, 0.00, 1.38, 0.00, 57.51, 60.47
CTUN, 583, 0.00, -0.55, 0.000000, 0.00, 0, 18, 583, 0
PM, 0, 0, 50, 0, 1001, 10440, 7, 4
ATT, 0.00, 0.88, 0.00, 1.84, 0.00, 55.41, 60.47
GPS, 3, 368497600, 9, 1.79, -33.7840608, 151.0681993, -0.05, 90.08, 0.05, 0.00
CTUN, 613, 0.00, -0.46, 0.000000, 0.00, 0, 32, 615, 0
ATT, 0.00, 0.84, 0.00, 2.19, 0.00, 53.13, 60.47
DU32, 7, 8569
CURR, 613, 7395, 1146, 1424, 4712, 6.125157
CTUN, 612, 0.00, 0.21, 0.000000, 0.00, 0, 48, 612, 0
ATT, 0.00, 0.73, 0.00, 2.26, 0.00, 51.04, 60.47
GPS, 3, 368497800, 9, 1.79, -33.7840610, 151.0681994, -0.02, 90.10, 0.05, 0.00
CTUN, 614, 0.00, 0.31, 0.000000, 0.00, 0, 62, 614, 0
ATT, 0.00, 0.40, 0.00, 2.04, 0.00, 49.08, 59.08
CTUN, 614, 0.00, 0.52, 0.000000, 0.00, 0, 72, 614, 0
ATT, 0.00, 0.46, -0.60, 1.55, 0.00, 47.59, 57.59
GPS, 3, 368498000, 9, 1.79, -33.7840611, 151.0681990, 0.17, 90.25, 0.13, 0.00
CTUN, 614, 0.00, 0.73, 0.000000, 0.00, 0, 79, 614, 0
ATT, 0.00, 0.32, 0.00, 0.90, 0.00, 46.04, 56.04
CTUN, 609, 0.00, 0.76, 0.000000, 0.00, 0, 87, 609, 0
ATT, 0.00, -0.06, 0.00, 0.61, 9.72, 44.98, 54.98
GPS, 3, 368498200, 9, 1.79, -33.7840614, 151.0681988, 0.40, 90.37, 0.22, 0.00
CTUN, 610, 0.00, 0.95, 0.000000, 0.00, 0, 95, 609, 0
ATT, 0.00, 0.02, 0.00, 0.61, 17.40, 45.88, 55.88
CTUN, 610, 0.00, 1.17, 0.000000, 0.00, 0, 106, 610, 0
GPS, 3, 368498400, 9, 1.79, -33.7840618, 151.0681988, 0.67, 90.55, 0.28, 0.00
ATT, 0.00, 0.13, 0.00, 0.63, 17.04, 49.39, 59.39
CTUN, 610, 0.00, 1.23, 0.000000, 0.00, 0, 115, 610, 0
ATT, 0.00, -0.58, 0.00, 0.15, 19.08, 53.40, 63.40
CTUN, 609, 0.00, 1.28, 0.000000, 0.00, 0, 122, 609, 0
GPS, 3, 368498600, 9, 1.79, -33.7840623, 151.0681986, 0.97, 90.75, 0.29, 0.00
CTUN, 611, 0.00, 1.37, 0.000000, 0.00, 0, 128, 611, 0
ATT, 0.00, -1.30, 0.00, -0.60, 11.52, 59.27, 69.27
DU32, 7, 8569
CURR, 610, 12898, 1129, 1585, 4732, 10.37927
CTUN, 609, 0.00, 1.53, 0.000000, 0.00, 0, 132, 607, 0
ATT, 0.00, -1.81, 0.00, -0.95, 7.92, 63.52, 73.36
GPS, 3, 368498800, 9, 1.79, -33.7840625, 151.0681983, 1.24, 90.98, 0.13, 0.00
CTUN, 609, 0.00, 1.60, 0.000000, 0.00, 0, 135, 609, 0
ATT, 0.00, -1.64, -1.21, -1.24, 3.96, 67.27, 76.42
CTUN, 609, 0.00, 1.80, 0.000000, 0.00, 0, 137, 609, 0
ATT, 0.00, -1.67, -1.45, -1.49, 0.00, 69.68, 77.38
GPS, 3, 368499000, 9, 1.79, -33.7840626, 151.0681975, 1.55, 91.23, 0.27, 0.00
CTUN, 609, 0.00, 1.95, 0.000000, 0.00, 0, 140, 609, 0
ATT, 0.00, -1.51, -1.81, -1.73, 0.00, 70.74, 77.38
CTUN, 605, 0.00, 2.11, 0.000000, 0.00, 0, 142, 609, 0
ATT, 0.00, -1.20, -1.57, -1.75, 0.00, 70.68, 77.38
GPS, 3, 368499200, 9, 1.79, -33.7840626, 151.0681969, 1.90, 91.53, 0.16, 0.00
CTUN, 596, 0.00, 2.18, 0.000000, 0.00, 0, 145, 606, 0
ATT, 0.00, -0.89, -1.57, -1.85, 0.00, 70.07, 77.38
CTUN, 575, 0.00, 2.36, 0.000000, 0.00, 0, 147, 575, 0
ATT, 0.00, -0.37, -1.45, -1.62, 0.00, 69.17, 77.38
GPS, 3, 368499400, 9, 1.79, -33.7840623, 151.0681964, 2.22, 91.87, 0.23, 0.00
CTUN, 545, 0.00, 2.52, 0.000000, 0.00, 0, 145, 546, 0
ATT, 0.00, 0.59, -3.51, -1.36, 0.00, 68.27, 77.38
CTUN, 536, 0.00, 2.63, 0.000000, 0.00, 0, 139, 536, 0
GPS, 3, 368499600, 9, 1.79, -33.7840618, 151.0681960, 2.53, 92.16, 0.29, 0.00
ATT, 0.00, 0.90, -4.00, -2.44, 0.00, 67.60, 77.38
CTUN, 536, 0.00, 2.86, 0.000000, 0.00, 0, 131, 536, 0
DU32, 7, 8569
CURR, 530, 18742, 1153, 1233, 4693, 14.62615
ATT, 0.00, 0.57, -4.00, -3.65, 0.00, 67.16, 77.16
CTUN, 529, 0.00, 3.01, 0.000000, 0.00, 0, 123, 529, 0
GPS, 3, 368499800, 9, 1.79, -33.7840613, 151.0681958, 2.81, 92.47, 0.30, 351.43
ATT, 0.00, 0.79, -3.15, -3.78, 0.00, 66.86, 76.86
CTUN, 529, 0.00, 3.11, 0.000000, 0.00, 0, 114, 529, 0
ATT, 0.00, 1.05, -1.81, -3.16, 0.00, 66.71, 76.71
CTUN, 530, 0.00, 3.14, 0.000000, 0.00, 0, 106, 529, 0
GPS, 3, 368500000, 9, 1.79, -33.7840608, 151.0681957, 3.06, 92.70, 0.30, 351.43
ATT, 0.00, 1.27, -2.06, -2.05, 0.00, 66.65, 76.65
CTUN, 525, 0.00, 3.30, 0.000000, 0.00, 0, 96, 526, 0
ATT, 0.00, 1.40, -3.15, -1.41, 0.00, 66.68, 76.65
CTUN, 513, 0.00, 3.32, 0.000000, 0.00, 0, 86, 518, 0
GPS, 3, 368500200, 9, 1.79, -33.7840599, 151.0681962, 3.25, 92.88, 0.48, 13.83
ATT, 0.00, 1.21, -5.45, -1.56, 0.00, 66.72, 76.65
CTUN, 497, 0.00, 3.48, 0.000000, 0.00, 0, 77, 511, 0
ATT, 0.00, 0.72, -6.30, -2.67, 0.00, 66.79, 76.65
CTUN, 458, 0.00, 3.48, 0.000000, 0.00, 0, 64, 458, 0
GPS, 3, 368500400, 9, 1.79, -33.7840592, 151.0681967, 3.41, 93.07, 0.44, 21.05
ATT, 0.00, 0.31, -5.21, -4.30, 0.00, 66.90, 76.65
CTUN, 457, 0.00, 3.69, 0.000000, 0.00, 0, 44, 457, 0
ATT, 0.00, 0.10, -5.21, -4.78, 0.00, 67.23, 76.65
CTUN, 455, 0.00, 3.73, 0.000000, 0.00, 1, 25, 457, 0
GPS, 3, 368500600, 9, 1.79, -33.7840584, 151.0681973, 3.50, 93.18, 0.49, 24.22
ATT, 0.00, 0.64, -5.45, -4.34, 0.00, 67.62, 76.65
CTUN, 457, 0.00, 3.77, 0.000000, 0.00, 0, 5, 457, 0
DU32, 7, 8569
CURR, 470, 23678, 1162, 966, 4712, 17.69188
ATT, 0.00, 0.96, -6.42, -4.09, 0.00, 68.07, 76.65
CTUN, 480, 0.00, 3.76, 0.000000, 0.00, 0, -15, 480, 0
GPS, 3, 368500800, 9, 1.79, -33.7840574, 151.0681981, 3.51, 93.14, 0.53, 25.64
ATT, 0.00, 0.41, -5.45, -4.59, 0.00, 68.60, 76.65
CTUN, 558, 0.00, 3.69, 0.000000, 0.00, 1, -33, 552, 0
ATT, 0.00, -0.08, -4.12, -4.75, 0.00, 69.11, 76.65
CTUN, 560, 0.00, 3.62, 0.000000, 0.00, 1, -40, 561, 0
GPS, 3, 368501000, 9, 1.79, -33.7840565, 151.0681992, 3.46, 93.07, 0.63, 34.09
ATT, 0.00, -0.10, -1.45, -3.29, 0.00, 69.25, 76.65
CTUN, 560, 0.00, 3.55, 0.000000, 0.00, 0, -39, 560, 0
ATT, 0.00, 0.18, 0.00, -1.20, 0.00, 69.11, 76.65
CTUN, 561, 0.00, 3.58, 0.000000, 0.00, 0, -37, 561, 0
GPS, 3, 368501200, 9, 1.79, -33.7840558, 151.0682005, 3.40, 92.93, 0.60, 41.66
ATT, 0.00, -0.05, 0.00, 0.50, 0.00, 68.86, 76.65
CTUN, 566, 0.00, 3.42, 0.000000, 0.00, 0, -36, 566, 0
ATT, 0.00, -0.19, 0.00, 1.21, 0.00, 68.62, 76.65
CTUN, 567, 0.00, 3.37, 0.000000, 0.00, 0, -35, 566, 0
GPS, 3, 368501400, 9, 1.79, -33.7840546, 151.0682018, 3.33, 92.85, 0.86, 45.07
CTUN, 561, 0.00, 3.44, 0.000000, 0.00, 0, -34, 566, 0
ATT, 0.00, -0.32, 0.00, 1.47, 0.00, 68.36, 76.65
CTUN, 557, 0.00, 3.25, 0.000000, 0.00, 0, -33, 557, 0
ATT, 0.00, -0.35, 0.00, 1.42, 0.00, 68.18, 76.65
GPS, 3, 368501600, 9, 1.79, -33.7840537, 151.0682028, 3.28, 92.78, 0.72, 43.45
CTUN, 555, 0.00, 3.32, 0.000000, 0.00, 0, -32, 555, 0
ATT, 0.00, -0.28, 0.00, 1.31, 0.00, 68.11, 76.65
DU32, 7, 8569
CURR, 557, 29208, 1140, 1299, 4732, 21.40956
CTUN, 557, 0.00, 3.16, 0.000000, 0.00, 0, -32, 557, 0
ATT, 0.00, 0.09, 0.00, 1.35, 0.00, 68.01, 76.65
GPS, 3, 368501800, 9, 1.79, -33.7840526, 151.0682035, 3.21, 92.77, 0.71, 37.60
CTUN, 557, 0.00, 3.18, 0.000000, 0.00, 0, -32, 557, 0
ATT, 0.00, 0.15, -0.60, 1.34, 0.00, 67.97, 76.65
CTUN, 557, 0.00, 3.09, 0.000000, 0.00, 0, -33, 557, 0
ATT, 0.00, 0.33, 0.00, 0.96, 0.00, 67.97, 76.65
GPS, 3, 368502000, 9, 1.79, -33.7840517, 151.0682042, 3.13, 92.73, 0.59, 38.78
CTUN, 557, 0.00, 3.11, 0.000000, 0.00, 0, -33, 557, 0
ATT, 0.00, 0.47, 0.00, 0.96, 0.00, 68.06, 76.65
CTUN, 557, 0.00, 3.02, 0.000000, 0.00, 0, -34, 557, 0
GPS, 3, 368502200, 9, 1.79, -33.7840507, 151.0682047, 3.06, 92.69, 0.63, 36.82
ATT, 0.00, 0.71, 0.00, 1.05, 0.00, 68.21, 76.65
CTUN, 557, 0.00, 2.99, 0.000000, 0.00, 0, -35, 557, 0
ATT, 0.00, 0.76, 0.00, 0.84, 0.00, 68.38, 76.65
CTUN, 557, 0.00, 3.04, 0.000000, 0.00, 0, -36, 557, 0
GPS, 3, 368502400, 9, 1.79, -33.7840497, 151.0682052, 2.99, 92.62, 0.58, 31.47
ATT, 0.00, 0.81, -0.72, 0.76, 0.00, 68.52, 76.65
CTUN, 557, 0.00, 2.93, 0.000000, 0.00, 0, -38, 557, 0
ATT, 0.00, 1.15, -1.45, 0.53, 0.00, 68.57, 76.65
CTUN, 557, 0.00, 2.93, 0.000000, 0.00, 0, -39, 557, 0
GPS, 3, 368502600, 9, 1.79, -33.7840489, 151.0682054, 2.91, 92.54, 0.45, 29.10
ATT, 0.00, 0.97, -1.94, -0.14, 0.00, 68.59, 76.65
CTUN, 556, 0.00, 2.79, 0.000000, 0.00, 0, -41, 556, 0
ATT, 0.00, 1.10, -3.39, -0.63, 0.00, 68.57, 76.65
DU32, 7, 8569
CURR, 558, 34221, 1146, 1297, 4732, 24.83820
CTUN, 558, 0.00, 2.82, 0.000000, 0.00, 0, -43, 558, 0
GPS, 3, 368502800, 9, 1.79, -33.7840482, 151.0682056, 2.81, 92.50, 0.38, 27.82
ATT, 0.00, 1.14, -3.39, -1.44, 0.00, 68.54, 76.65
CTUN, 559, 0.00, 2.69, 0.000000, 0.00, 0, -44, 559, 0
ATT, 0.00, 1.07, -2.78, -2.16, 0.00, 68.58, 76.65
CTUN, 558, 0.00, 2.70, 0.000000, 0.00, 0, -45, 558, 0
GPS, 3, 368503000, 9, 1.79, -33.7840474, 151.0682060, 2.72, 92.42, 0.49, 29.16
ATT, 0.00, 1.38, -2.06, -2.11, 0.00, 68.67, 76.65
CTUN, 558, 0.00, 2.66, 0.000000, 0.00, 0, -46, 558, 0
ATT, 0.00, 1.50, -2.06, -1.50, 0.00, 68.75, 76.65
CTUN, 558, 0.00, 2.52, 0.000000, 0.00, 0, -49, 559, 0
GPS, 3, 368503200, 9, 1.79, -33.7840471, 151.0682063, 2.61, 92.32, 0.24, 29.16
ATT, 0.00, 1.60, -1.81, -1.31, 0.00, 68.76, 76.65
CTUN, 558, 0.00, 2.62, 0.000000, 0.00, 0, -50, 558, 0
ATT, 0.00, 1.35, -1.94, -1.40, 0.00, 68.81, 76.65
CTUN, 580, 0.00, 2.65, 0.000000, 0.00, 0, -52, 569, 0
GPS, 3, 368503400, 9, 1.79, -33.7840468, 151.0682066, 2.51, 92.22, 0.30, 32.09
ATT, 0.00, 0.84, -1.69, -1.45, 0.00, 68.90, 76.65
CTUN, 585, 0.00, 2.33, 0.000000, 0.00, 0, -52, 583, 0
ATT, 0.00, 0.31, -1.21, -1.26, 0.00, 68.90, 76.65
CTUN, 591, 0.00, 2.37, 0.000000, 0.00, 0, -51, 591, 0
GPS, 3, 368503600, 10, 1.64, -33.7840461, 151.0682073, 2.40, 92.04, 0.48, 38.34
CTUN, 598, 0.00, 2.23, 0.000000, 0.00, 0, -47, 599, 0
ATT, 0.00, 0.02, -0.84, -1.34, 0.00, 68.74, 76.65
DU32, 7, 8569
CURR, 600, 39934, 1133, 1458, 4673, 28.67918
CTUN, 600, 0.00, 2.26, 0.000000, 0.00, 0, -42, 600, 0
ATT, 0.00, -0.09, -0.24, -1.29, 0.00, 68.61, 76.65
GPS, 3, 368503800, 9, 1.79, -33.7840457, 151.0682079, 2.31, 91.96, 0.41, 46.20
CTUN, 601, 0.00, 2.20, 0.000000, 0.00, 0, -35, 601, 0
ATT, 0.00, 0.83, 0.00, -0.71, 0.00, 68.33, 76.65
CTUN, 602, 0.00, 2.21, 0.000000, 0.00, 0, -29, 602, 0
ATT, 0.00, 1.58, 0.00, -0.35, 0.00, 68.17, 76.65
GPS, 3, 368504000, 9, 1.79, -33.7840454, 151.0682085, 2.23, 91.92, 0.29, 46.20
CTUN, 599, 0.00, 2.25, 0.000000, 0.00, 0, -25, 602, 0
ATT, 0.00, 1.34, 0.00, 0.39, 0.00, 68.39, 76.65
CTUN, 602, 0.00, 2.17, 0.000000, 0.00, 0, -20, 601, 0
ATT, 0.00, 1.51, 0.00, 1.04, 0.00, 68.78, 76.65
GPS, 3, 368504200, 9, 1.79, -33.7840448, 151.0682093, 2.19, 91.89, 0.45, 51.31
CTUN, 602, 0.00, 2.26, 0.000000, 0.00, 0, -13, 602, 0
ATT, 0.00, 1.41, 0.00, 1.30, 0.00, 69.02, 76.65
CTUN, 602, 0.00, 2.17, 0.000000, 0.00, 0, -7, 602, 0
GPS, 3, 368504400, 9, 1.79, -33.7840450, 151.0682099, 2.17, 91.85, 0.28, 51.31
ATT, 0.00, 1.11, 0.00, 1.17, 0.00, 69.05, 76.65
CTUN, 602, 0.00, 2.05, 0.000000, 0.00, 0, -1, 602, 0
ATT, 0.00, 0.98, 0.00, 1.23, 0.00, 69.04, 76.65
CTUN, 602, 0.00, 2.23, 0.000000, 0.00, 0, 3, 601, 0
GPS, 3, 368504600, 9, 1.79, -33.7840453, 151.0682105, 2.17, 91.82, 0.26, 51.31
CTUN, 602, 0.00, 2.15, 0.000000, 0.00, 0, 12, 602, 0
ATT, 0.00, 0.75, 0.00, 1.18, 0.00, 69.08, 76.65
DU32, 7, 8569
CURR, 600, 45347, 1132, 1472, 4712, 32.75247
CTUN, 600, 0.00, 2.13, 0.000000, 0.00, 0, 19, 600, 0
ATT, 0.00, 0.15, 0.00, 1.01, 0.00, 69.34, 76.65
GPS, 3, 368504800, 9, 1.79, -33.7840455, 151.0682107, 2.21, 91.84, 0.16, 51.31
CTUN, 600, 0.00, 2.22, 0.000000, 0.00, 0, 26, 600, 0
ATT, 0.00, -0.76, 0.00, 0.97, 0.00, 70.11, 76.65
CTUN, 599, 0.00, 2.15, 0.000000, 0.00, 0, 29, 600, 0
ATT, 0.00, -1.29, 0.00, 0.73, 0.00, 71.06, 76.65
GPS, 3, 368505000, 9, 1.79, -33.7840457, 151.0682108, 2.26, 91.92, 0.15, 51.31
CTUN, 600, 0.00, 2.21, 0.000000, 0.00, 0, 32, 600, 0
ATT, 0.00, -1.89, 0.00, 0.58, 0.00, 72.23, 76.65
CTUN, 599, 0.00, 2.23, 0.000000, 0.00, 0, 37, 601, 0
ATT, 0.00, -1.89, 0.00, 0.35, 0.00, 73.15, 76.65
GPS, 3, 368505200, 9, 1.79, -33.7840461, 151.0682107, 2.32, 91.98, 0.23, 51.31
CTUN, 600, 0.00, 2.30, 0.000000, 0.00, 0, 42, 600, 0
ATT, 0.00, -2.42, 0.00, -0.02, 0.00, 73.90, 76.65
CTUN, 600, 0.00, 2.40, 0.000000, 0.00, 0, 44, 600, 0
GPS, 3, 368505400, 9, 1.79, -33.7840463, 151.0682108, 2.41, 92.05, 0.13, 51.31
ATT, 0.00, -1.83, 0.00, -0.30, 0.00, 74.15, 76.65
CTUN, 600, 0.00, 2.34, 0.000000, 0.00, 0, 48, 600, 0
ATT, 0.00, -1.09, 0.00, -0.59, 0.00, 73.59, 76.65
CTUN, 600, 0.00, 2.49, 0.000000, 0.00, 0, 53, 600, 0
GPS, 3, 368505600, 9, 1.79, -33.7840462, 151.0682105, 2.51, 92.11, 0.17, 51.31
CTUN, 576, 0.00, 2.57, 0.000000, 0.00, 0, 57, 600, 0
ATT, 0.00, 0.16, 0.00, -1.09, 0.00, 72.29, 76.65
DU32, 7, 8569
CURR, 540, 50702, 1131, 1439, 4712, 36.75901
CTUN, 540, 0.00, 2.58, 0.000000, 0.00, 0, 60, 540, 0
ATT, 0.00, 1.05, 0.00, -0.80, 0.00, 71.08, 76.65
GPS, 3, 368505800, 9, 1.79, -33.7840462, 151.0682104, 2.62, 92.24, 0.03, 51.31
CTUN, 541, 0.00, 2.50, 0.000000, 0.00, 0, 56, 541, 0
ATT, 0.00, 1.81, 0.00, 0.10, 0.00, 69.74, 76.65
CTUN, 541, 0.00, 2.70, 0.000000, 0.00, 0, 51, 541, 0
ATT, 0.00, 2.09, 0.00, 0.38, 0.00, 68.95, 76.65
GPS, 3, 368506000, 9, 1.79, -33.7840464, 151.0682103, 2.71, 92.34, 0.12, 51.31
CTUN, 542, 0.00, 2.77, 0.000000, 0.00, 0, 46, 542, 0
ATT, 0.00, 1.28, 0.00, 0.54, 0.00, 68.60, 76.65
CTUN, 541, 0.00, 2.84, 0.000000, 0.00, 0, 40, 541, 0
ATT, 0.00, 0.88, 0.00, 0.76, 0.00, 68.53, 76.65
GPS, 3, 368506200, 9, 1.79, -33.7840464, 151.0682103, 2.80, 92.44, 0.07, 51.31
CTUN, 543, 0.00, 2.76, 0.000000, 0.00, 0, 34, 542, 0
ATT, 0.00, 0.63, 0.00, 1.08, 0.00, 68.79, 76.65
CTUN, 542, 0.00, 2.84, 0.000000, 0.00, 0, 28, 542, 0
ATT, 0.00, 0.69, 0.00, 0.82, 0.00, 69.34, 76.65
GPS, 3, 368506400, 9, 1.79, -33.7840465, 151.0682099, 2.86, 92.52, 0.13, 51.31
CTUN, 542, 0.00, 2.98, 0.000000, 0.00, 0, 24, 542, 0
ATT, 0.00, -0.05, 0.00, 0.06, 0.00, 70.18, 76.65
CTUN, 542, 0.00, 3.03, 0.000000, 0.00, 0, 18, 543, 0
ATT, 0.00, -0.74, 0.00, -0.60, 0.00, 71.26, 76.65
GPS, 3, 368506600, 9, 1.79, -33.7840467, 151.0682094, 2.91, 92.56, 0.29, 108.83
CTUN, 543, 0.00, 2.87, 0.000000, 0.00, 0, 12, 542, 0
ATT, 0.00, -0.90, 0.00, -0.75, 0.00, 72.34, 76.65
DU32, 7, 8569
CURR, 542, 56122, 1140, 1225, 4712, 40.26157
CTUN, 542, 0.00, 2.98, 0.000000, 0.00, 0, 6, 542, 0
ATT, 0.00, -0.76, 0.00, -0.89, 0.00, 73.19, 76.65
GPS, 3, 368506800, 9, 1.79, -33.7840472, 151.0682089, 2.94, 92.61, 0.31, 158.22
CTUN, 542, 0.00, 3.03, 0.000000, 0.00, 0, 2, 542, 0
ATT, 0.00, -0.67, 0.00, -0.65, 0.00, 73.66, 76.65
CTUN, 542, 0.00, 2.91, 0.000000, 0.00, 0, -2, 542, 0
ATT, 0.00, -0.16, 0.00, -0.46, 0.00, 73.72, 76.65
GPS, 3, 368507000, 9, 1.79, -33.7840474, 151.0682084, 2.94, 92.62, 0.29, 158.22
CTUN, 541, 0.00, 2.84, 0.000000, 0.00, 0, -8, 542, 0
ATT, 0.00, 0.16, 0.00, -0.46, 0.00, 73.46, 76.65
CTUN, 542, 0.00, 2.90, 0.000000, 0.00, 0, -14, 542, 0
ATT, 0.00, 0.11, 0.00, -0.29, 0.00, 72.93, 76.65
GPS, 3, 368507200, 9, 1.79, -33.7840477, 151.0682081, 2.91, 92.56, 0.31, 186.77
CTUN, 560, 0.00, 2.81, 0.000000, 0.00, 0, -19, 560, 0
ATT, 0.00, 0.22, 0.00, -0.19, 0.00, 72.30, 76.65
CTUN, 567, 0.00, 2.85, 0.000000, 0.00, 0, -23, 567, 0
ATT, 0.00, 0.34, 0.00, -0.22, 0.00, 71.67, 76.65
GPS, 3, 368507400, 9, 1.79, -33.7840478, 151.0682079, 2.87, 92.50, 0.18, 186.77
CTUN, 566, 0.00, 2.94, 0.000000, 0.00, 0, -24, 566, 0
ATT, 0.00, 0.33, 0.00, -0.32, 0.00, 71.00, 76.65
CTUN, 568, 0.00, 2.93, 0.000000, 0.00, 0, -26, 568, 0
PM, 0, 0, 50, 0, 1000, 10404, 10, 4
ATT, 0.00, 0.45, 0.00, -0.43, 0.00, 70.37, 76.65
GPS, 3, 368507600, 9, 1.79, -33.7840482, 151.0682076, 2.82, 92.43, 0.29, 200.40
CTUN, 574, 0.00, 2.83, 0.000000, 0.00, 0, -26, 574, 0
ATT, 0.00, 0.99, 0.00, -0.75, 0.00, 69.76, 76.65
DU32, 7, 8569
CURR, 574, 61681, 1131, 1374, 4712, 43.86383
CTUN, 574, 0.00, 2.87, 0.000000, 0.00, 0, -26, 574, 0
ATT, 0.00, 1.06, 0.00, -1.11, 0.00, 69.37, 76.65
GPS, 3, 368507800, 9, 1.79, -33.7840485, 151.0682072, 2.77, 92.38, 0.24, 200.40
CTUN, 576, 0.00, 2.69, 0.000000, 0.00, 0, -26, 576, 0
ATT, 0.00, 1.37, 0.00, -1.36, 0.00, 69.14, 76.65
CTUN, 574, 0.00, 2.71, 0.000000, 0.00, 0, -24, 574, 0
ATT, 0.00, 1.29, 0.00, -1.37, 0.00, 69.14, 76.65
GPS, 3, 368508000, 9, 1.79, -33.7840491, 151.0682069, 2.72, 92.34, 0.35, 201.82
CTUN, 576, 0.00, 2.75, 0.000000, 0.00, 0, -22, 576, 0
ATT, 0.00, 0.61, 0.00, -1.56, 0.00, 69.33, 76.65
CTUN, 575, 0.00, 2.68, 0.000000, 0.00, 0, -21, 575, 0
ATT, 0.00, 0.35, 0.00, -1.18, 0.00, 69.49, 76.65
GPS, 3, 368508200, 9, 1.79, -33.7840499, 151.0682067, 2.67, 92.29, 0.42, 196.83
CTUN, 575, 0.00, 2.71, 0.000000, 0.00, 0, -19, 575, 0
ATT, 0.00, 0.66, 0.00, -0.58, 0.00, 69.29, 76.65
CTUN, 575, 0.00, 2.63, 0.000000, 0.00, 0, -18, 575, 0
GPS, 3, 368508400, 9, 1.79, -33.7840505, 151.0682062, 2.64, 92.24, 0.48, 202.29
ATT, 0.00, 1.10, 0.00, -0.12, 0.00, 68.79, 76.65
CTUN, 574, 0.00, 2.73, 0.000000, 0.00, 0, -18, 575, 0
ATT, 0.00, 1.50, 0.00, -0.07, 0.00, 68.19, 76.65
CTUN, 575, 0.00, 2.79, 0.000000, 0.00, 0, -17, 575, 0
GPS, 3, 368508600, 9, 1.79, -33.7840512, 151.0682061, 2.62, 92.24, 0.42, 194.89
CTUN, 575, 0.00, 2.63, 0.000000, 0.00, 0, -17, 575, 0
ATT, 0.00, 1.46, 0.00, -0.45, 0.00, 67.60, 76.65
DU32, 7, 8569
CURR, 575, 66857, 1127, 1379, 4712, 47.66889
CTUN, 575, 0.00, 2.56, 0.000000, 0.00, 0, -15, 575, 0
ATT, 0.00, 1.41, 0.00, -0.29, 0.00, 67.43, 76.65
GPS, 3, 368508800, 9, 1.79, -33.7840519, 151.0682061, 2.59, 92.25, 0.40, 185.59
CTUN, 575, 0.00, 2.46, 0.000000, 0.00, 0, -16, 575, 0
ATT, 0.00, 1.52, 0.00, -0.38, 0.00, 67.62, 76.65
CTUN, 575, 0.00, 2.35, 0.000000, 0.00, 0, -17, 575, 0
ATT, -1.51, 0.52, 0.00, -0.63, 0.00, 68.25, 76.65
GPS, 3, 368509000, 9, 1.79, -33.7840526, 151.0682061, 2.54, 92.19, 0.36, 180.60
CTUN, 575, 0.00, 2.36, 0.000000, 0.00, 0, -17, 575, 0
ATT, -3.02, -0.52, 0.00, -0.82, 0.00, 69.15, 76.65
CTUN, 575, 0.00, 2.38, 0.000000, 0.00, 0, -16, 575, 0
GPS, 3, 368509200, 9, 1.79, -33.7840537, 151.0682062, 2.49, 92.14, 0.60, 176.89
ATT, -3.02, -2.28, 0.00, -0.78, 0.00, 70.37, 76.65
CTUN, 575, 0.00, 2.25, 0.000000, 0.00, 0, -17, 575, 0
ATT, -2.44, -3.33, 0.00, -0.72, 0.00, 71.41, 76.65
CTUN, 575, 0.00, 2.39, 0.000000, 0.00, 0, -16, 575, 0
GPS, 3, 368509400, 9, 1.79, -33.7840547, 151.0682059, 2.43, 92.10, 0.62, 183.69
ATT, -2.20, -3.80, 0.00, -0.58, 0.00, 72.19, 76.65
CTUN, 575, 0.00, 2.30, 0.000000, 0.00, 1, -16, 576, 0
ATT, -1.86, -3.51, 0.00, -0.22, 0.00, 72.20, 76.65
CTUN, 575, 0.00, 2.38, 0.000000, 0.00, 0, -15, 575, 0
GPS, 3, 368509600, 9, 1.79, -33.7840555, 151.0682058, 2.40, 92.03, 0.45, 183.35
CTUN, 575, 0.00, 2.28, 0.000000, 0.00, 0, -14, 575, 0
ATT, -1.27, -2.79, 0.00, -0.16, 0.00, 71.75, 76.65
DU32, 7, 8569
CURR, 575, 72033, 1129, 1368, 4673, 51.43086
CTUN, 575, 0.00, 2.26, 0.000000, 0.00, 0, -11, 575, 0
ATT, -0.23, -1.75, 0.00, 0.42, 0.00, 71.18, 76.65
GPS, 3, 368509800, 9, 1.79, -33.7840563, 151.0682057, 2.36, 91.98, 0.43, 183.18
CTUN, 575, 0.00, 2.30, 0.000000, 0.00, 0, -9, 575, 0
ATT, -0.81, -0.48, 0.00, 1.64, 0.00, 70.56, 76.65
CTUN, 575, 0.00, 2.27, 0.000000, 0.00, 0, -10, 575, 0
ATT, -1.16, -0.09, -0.24, 2.10, 0.00, 70.24, 76.65
GPS, 3, 368510000, 9, 1.79, -33.7840568, 151.0682055, 2.33, 91.95, 0.31, 189.70
CTUN, 575, 0.00, 2.26, 0.000000, 0.00, 0, -10, 575, 0
ATT, -1.51, -0.75, -0.12, 1.70, 0.00, 70.10, 76.65
CTUN, 575, 0.00, 2.32, 0.000000, 0.00, 0, -12, 575, 0
GPS, 3, 368510200, 9, 1.79, -33.7840575, 151.0682052, 2.30, 91.94, 0.29, 194.73
ATT, -2.32, -1.25, -0.24, 1.47, 0.00, 70.35, 76.65
CTUN, 573, 0.00, 2.26, 0.000000, 0.00, 0, -13, 574, 0
ATT, -3.83, -1.79, -0.24, 1.48, 0.00, 70.74, 76.65
CTUN, 575, 0.00, 2.28, 0.000000, 0.00, 0, -15, 575, 0
GPS, 3, 368510400, 9, 1.79, -33.7840583, 151.0682044, 2.27, 91.94, 0.46, 214.79
ATT, -5.34, -3.28, -0.48, 0.96, 0.00, 71.30, 76.65
CTUN, 574, 0.00, 2.21, 0.000000, 0.00, 0, -17, 576, 0
ATT, -6.16, -4.12, -1.33, 0.00, 0.00, 71.79, 76.65
CTUN, 575, 0.00, 2.15, 0.000000, 0.00, 1, -20, 576, 0
GPS, 3, 368510600, 9, 1.79, -33.7840587, 151.0682040, 2.23, 91.91, 0.31, 214.79
CTUN, 575, 0.00, 2.20, 0.000000, 0.00, 1, -21, 576, 0
ATT, -8.60, -5.73, -1.69, -0.93, 0.00, 72.35, 76.65
DU32, 7, 8569
CURR, 575, 77209, 1127, 1353, 4673, 55.19222
CTUN, 575, 0.00, 2.29, 0.000000, 0.00, 4, -20, 579, 0
ATT, -7.20, -7.72, -2.06, -1.47, 0.00, 72.72, 76.65
GPS, 3, 368510800, 9, 1.79, -33.7840591, 151.0682027, 2.19, 91.86, 0.60, 231.06
CTUN, 575, 0.00, 2.17, 0.000000, 0.00, 3, -19, 578, 0
ATT, -6.86, -6.14, -2.66, -1.63, 0.00, 72.45, 76.65
CTUN, 575, 0.00, 2.09, 0.000000, 0.00, 2, -22, 576, 0
ATT, -5.81, -5.21, -3.15, -3.45, 0.00, 72.31, 76.65
GPS, 3, 368511000, 9, 1.79, -33.7840591, 151.0682018, 2.15, 91.83, 0.41, 245.93
CTUN, 575, 0.00, 2.10, 0.000000, 0.00, 2, -23, 577, 0
ATT, -5.81, -5.33, -3.15, -3.41, 0.00, 72.26, 76.65
CTUN, 575, 0.00, 2.15, 0.000000, 0.00, 2, -25, 577, 0
GPS, 3, 368511200, 9, 1.79, -33.7840590, 151.0682004, 2.09, 91.82, 0.64, 265.32
ATT, -5.23, -5.23, -3.51, -3.07, 0.00, 72.16, 76.65
CTUN, 575, 0.00, 2.18, 0.000000, 0.00, 2, -29, 577, 0
ATT, -4.65, -4.68, -3.39, -4.26, 0.00, 71.98, 76.65
CTUN, 575, 0.00, 2.15, 0.000000, 0.00, 2, -30, 577, 0
GPS, 3, 368511400, 9, 1.79, -33.7840585, 151.0681997, 2.04, 91.72, 0.44, 275.81
ATT, -2.90, -4.59, -4.00, -5.04, 0.00, 71.36, 76.65
CTUN, 574, 0.00, 2.26, 0.000000, 0.00, 3, -32, 577, 0
ATT, -1.74, -2.48, -4.60, -4.82, 0.00, 69.60, 76.65
CTUN, 575, 0.00, 2.53, 0.000000, 0.00, 2, -30, 577, 0
GPS, 3, 368511600, 9, 1.79, -33.7840579, 151.0681984, 2.01, 91.67, 0.64, 291.48
CTUN, 575, 0.00, 2.47, 0.000000, 0.00, 1, -25, 576, 0
ATT, -1.27, -0.35, -5.45, -4.04, 0.00, 67.02, 76.65
DU32, 7, 8569
CURR, 575, 82401, 1122, 1459, 4693, 59.00160
CTUN, 574, 0.00, 2.18, 0.000000, 0.00, 0, -17, 574, 0
ATT, 0.00, 0.93, -5.82, -2.78, 0.00, 65.22, 75.22
GPS, 3, 368511800, 9, 1.79, -33.7840568, 151.0681978, 2.02, 91.63, 0.66, 315.39
CTUN, 576, 0.00, 2.20, 0.000000, 0.00, 0, -12, 575, 0
ATT, 0.00, 1.96, -5.09, -1.76, 0.00, 63.24, 73.24
CTUN, 575, 0.00, 1.95, 0.000000, 0.00, 0, -6, 576, 0
ATT, 0.00, 1.53, -4.97, -0.96, 0.00, 62.07, 72.07
GPS, 3, 368512000, 9, 1.79, -33.7840559, 151.0681971, 2.02, 91.61, 0.58, 323.46
CTUN, 574, 0.00, 2.02, 0.000000, 0.00, 0, -1, 575, 0
ATT, 0.00, 0.77, -5.33, -0.52, 0.00, 61.83, 71.79
CTUN, 575, 0.00, 2.06, 0.000000, 0.00, 0, 2, 575, 0
GPS, 3, 368512200, 9, 1.79, -33.7840552, 151.0681967, 2.02, 91.58, 0.45, 328.04
ATT, 0.00, -0.05, -5.82, -0.30, 0.00, 62.50, 71.79
CTUN, 572, 0.00, 2.19, 0.000000, 0.00, 0, 1, 572, 0
ATT, 0.00, -0.64, -6.42, -1.71, 0.00, 63.69, 71.79
CTUN, 576, 0.00, 2.03, 0.000000, 0.00, 0, 2, 577, 0
GPS, 3, 368512400, 9, 1.79, -33.7840550, 151.0681957, 2.03, 91.61, 0.43, 315.52
ATT, 0.00, -1.09, -7.27, -2.82, 0.00, 65.18, 71.79
CTUN, 576, 0.00, 2.10, 0.000000, 0.00, 0, 3, 576, 0
ATT, 0.00, -1.28, -7.39, -4.00, 0.00, 66.10, 71.79
CTUN, 575, 0.00, 2.10, 0.000000, 0.00, 1, 4, 576, 0
GPS, 3, 368512600, 9, 1.79, -33.7840545, 151.0681951, 2.05, 91.58, 0.37, 315.52
CTUN, 575, 0.00, 1.89, 0.000000, 0.00, 2, 6, 577, 0
ATT, 0.00, -2.31, -7.39, -5.63, 0.00, 66.81, 71.79
DU32, 7, 8569
CURR, 575, 87577, 1123, 1359, 4732, 62.86394
CTUN, 575, 0.00, 2.03, 0.000000, 0.00, 2, 7, 577, 0
ATT, 0.00, -2.01, -7.76, -5.39, 0.00, 67.07, 71.79
GPS, 3, 368512800, 9, 1.79, -33.7840538, 151.0681945, 2.05, 91.58, 0.41, 314.38
CTUN, 576, 0.00, 2.17, 0.000000, 0.00, 2, 8, 577, 0
ATT, 0.00, -1.58, -7.76, -5.12, 0.00, 67.09, 71.79
CTUN, 575, 0.00, 2.21, 0.000000, 0.00, 2, 10, 577, 0
ATT, 0.00, -2.07, -7.39, -5.27, 0.00, 67.20, 71.79
GPS, 3, 368513000, 9, 1.79, -33.7840532, 151.0681937, 2.08, 91.66, 0.47, 316.71
CTUN, 575, 0.00, 2.24, 0.000000, 0.00, 2, 9, 577, 0
ATT, 0.00, -1.29, -7.39, -4.82, 0.00, 67.33, 71.79
CTUN, 575, 0.00, 2.17, 0.000000, 0.00, 1, 8, 576, 0
GPS, 3, 368513200, 9, 1.79, -33.7840520, 151.0681934, 2.11, 91.69, 0.62, 336.99
ATT, 0.00, -0.56, -7.76, -4.09, 0.00, 67.38, 71.79
CTUN, 574, 0.00, 2.28, 0.000000, 0.00, 1, 7, 576, 0
ATT, 0.00, -0.44, -7.76, -4.17, 0.00, 67.41, 71.79
CTUN, 573, 0.00, 2.24, 0.000000, 0.00, 1, 6, 575, 0
GPS, 3, 368513400, 9, 1.79, -33.7840510, 151.0681933, 2.14, 91.70, 0.56, 345.50
ATT, 0.00, 0.06, -7.76, -4.10, 0.00, 67.69, 71.79
CTUN, 572, 0.00, 2.20, 0.000000, 0.00, 1, 8, 576, 0
ATT, 0.00, 0.34, -7.39, -4.01, 0.00, 68.32, 71.79
CTUN, 574, 0.00, 2.34, 0.000000, 0.00, 1, 10, 576, 0
GPS, 3, 368513600, 9, 1.79, -33.7840502, 151.0681934, 2.17, 91.72, 0.48, 352.88
CTUN, 575, 0.00, 2.39, 0.000000, 0.00, 1, 6, 576, 0
ATT, 0.00, 0.56, -7.52, -4.60, 0.00, 69.42, 71.79
DU32, 7, 8569
CURR, 575, 92757, 1124, 1297, 4712, 66.60377
CTUN, 574, 0.00, 2.31, 0.000000, 0.00, 1, 2, 576, 0
ATT, 0.00, 0.69, -7.52, -3.82, 0.00, 70.26, 71.79
GPS, 3, 368513800, 9, 1.79, -33.7840491, 151.0681937, 2.20, 91.69, 0.58, 2.24
CTUN, 574, 0.00, 2.38, 0.000000, 0.00, 1, -1, 575, 0
ATT, 0.00, 1.73, -7.39, -3.83, 0.00, 71.11, 71.79
CTUN, 576, 0.00, 2.43, 0.000000, 0.00, 1, -5, 577, 0
ATT, 0.00, 1.19, -7.27, -4.49, 0.00, 72.02, 71.79
GPS, 3, 368514000, 9, 1.79, -33.7840480, 151.0681941, 2.21, 91.68, 0.63, 7.65
CTUN, 575, 0.00, 2.37, 0.000000, 0.00, 1, -7, 574, 0
ATT, 0.00, 0.92, -7.39, -5.12, 0.00, 72.78, 71.79
CTUN, 575, 0.00, 2.33, 0.000000, 0.00, 1, -13, 576, 0
GPS, 3, 368514200, 9, 1.79, -33.7840470, 151.0681946, 2.21, 91.77, 0.65, 17.30
ATT, 0.00, 0.81, -6.79, -5.63, 0.00, 73.56, 71.79
CTUN, 575, 0.00, 2.40, 0.000000, 0.00, 2, -15, 577, 0
ATT, 0.00, 0.66, -6.42, -5.42, 0.00, 74.36, 71.79
CTUN, 575, 0.00, 2.31, 0.000000, 0.00, 2, -18, 577, 0
GPS, 3, 368514400, 9, 1.79, -33.7840462, 151.0681956, 2.19, 91.75, 0.64, 28.39
ATT, 0.00, 0.82, -5.45, -5.42, 0.00, 75.26, 71.79
CTUN, 573, 0.00, 2.27, 0.000000, 0.00, 2, -21, 575, 0
ATT, 0.00, 0.75, -5.09, -4.99, 0.00, 75.85, 71.79
CTUN, 581, 0.00, 2.27, 0.000000, 0.00, 1, -24, 576, 0
GPS, 3, 368514600, 9, 1.79, -33.7840455, 151.0681970, 2.16, 91.75, 0.80, 46.71
CTUN, 592, 0.00, 2.33, 0.000000, 0.00, 1, -28, 593, 0
ATT, 0.00, 0.95, -3.63, -3.82, 0.00, 76.05, 71.79
DU32, 7, 8569
CURR, 598, 97964, 1124, 1334, 4712, 70.21135
CTUN, 600, 0.00, 2.40, 0.000000, 0.00, 0, -30, 598, 0
ATT, 0.00, 0.69, -1.45, -2.02, 0.00, 75.51, 71.79
GPS, 3, 368514800, 9, 1.79, -33.7840444, 151.0681984, 2.12, 91.75, 0.92, 47.75
CTUN, 609, 0.00, 2.55, 0.000000, 0.00, 0, -25, 606, 0
ATT, 0.00, -0.13, 0.00, 1.01, 0.00, 73.81, 71.79
CTUN, 615, 0.00, 2.26, 0.000000, 0.00, 0, -15, 613, 0
ATT, 0.00, -0.42, 0.00, 2.79, 0.00, 71.85, 71.79
GPS, 3, 368515000, 9, 1.79, -33.7840440, 151.0682001, 2.12, 91.70, 0.84, 53.90
CTUN, 617, 0.00, 2.20, 0.000000, 0.00, 0, -8, 617, 0
ATT, 0.00, -0.65, 0.00, 4.26, 0.00, 69.80, 71.79
CTUN, 616, 0.00, 2.29, 0.000000, 0.00, 1, 0, 617, 0
GPS, 3, 368515200, 9, 1.79, -33.7840437, 151.0682014, 2.13, 91.72, 0.69, 60.58
ATT, 0.00, -0.34, -0.12, 4.74, 0.00, 68.16, 71.79
CTUN, 616, 0.00, 2.33, 0.000000, 0.00, 1, 7, 617, 0
ATT, 0.00, -0.18, -1.33, 3.81, 0.00, 67.32, 71.79
CTUN, 616, 0.00, 2.16, 0.000000, 0.00, 0, 13, 616, 0
GPS, 3, 368515400, 9, 1.79, -33.7840431, 151.0682022, 2.17, 91.79, 0.50, 55.69
ATT, 0.00, -0.40, -1.45, 2.15, 0.00, 66.77, 71.79
CTUN, 616, 0.00, 2.26, 0.000000, 0.00, 0, 22, 616, 0
ATT, 0.00, -0.46, -0.97, 1.41, 0.00, 66.77, 71.79
CTUN, 616, 0.00, 2.21, 0.000000, 0.00, 0, 27, 616, 0
GPS, 3, 368515600, 9, 1.79, -33.7840427, 151.0682031, 2.22, 91.81, 0.49, 58.05
CTUN, 616, 0.00, 2.15, 0.000000, 0.00, 0, 30, 616, 0
ATT, 0.00, -0.69, -0.97, 0.55, 0.00, 67.37, 71.79
DU32, 7, 8569
CURR, 613, 103488, 1115, 1470, 4732, 74.30560
CTUN, 616, 0.00, 2.12, 0.000000, 0.00, 0, 33, 617, 0
ATT, 0.00, -1.39, -0.84, -0.65, 0.00, 68.36, 71.79
GPS, 3, 368515800, 9, 1.79, -33.7840424, 151.0682035, 2.28, 91.92, 0.22, 58.05
CTUN, 617, 0.00, 2.30, 0.000000, 0.00, 0, 36, 616, 0
ATT, 0.00, -1.61, 0.00, -0.75, 0.00, 69.46, 71.79
CTUN, 616, 0.00, 2.28, 0.000000, 0.00, 0, 37, 616, 0
ATT, 0.00, -1.14, 0.00, -0.39, 0.00, 70.05, 71.79
GPS, 3, 368516000, 9, 1.79, -33.7840421, 151.0682040, 2.34, 92.00, 0.27, 55.23
CTUN, 614, 0.00, 2.38, 0.000000, 0.00, 0, 40, 616, 0
ATT, 0.00, -1.47, 0.00, -0.72, 0.00, 70.43, 71.79
CTUN, 614, 0.00, 2.33, 0.000000, 0.00, 0, 43, 614, 0
GPS, 3, 368516200, 9, 1.79, -33.7840417, 151.0682043, 2.43, 92.05, 0.25, 55.23
ATT, 0.00, -1.39, 0.00, -0.85, 0.00, 70.45, 71.79
CTUN, 613, 0.00, 2.36, 0.000000, 0.00, 0, 45, 613, 0
ATT, 0.00, -1.50, 0.00, -1.35, 0.00, 70.31, 71.79
CTUN, 614, 0.00, 2.50, 0.000000, 0.00, 0, 47, 614, 0
GPS, 3, 368516400, 9, 1.79, -33.7840415, 151.0682046, 2.51, 92.18, 0.19, 55.23
ATT, 0.00, -2.02, 0.00, -1.71, 0.00, 70.03, 71.79
CTUN, 614, 0.00, 2.42, 0.000000, 0.00, 0, 50, 614, 0
ATT, 0.00, -1.13, 0.00, -2.22, 0.00, 69.51, 71.79
CTUN, 611, 0.00, 2.51, 0.000000, 0.00, 0, 53, 612, 0
GPS, 3, 368516600, 9, 1.79, -33.7840408, 151.0682050, 2.59, 92.28, 0.39, 41.70
CTUN, 588, 0.00, 2.45, 0.000000, 0.00, 0, 57, 588, 0
ATT, 0.00, -0.38, 0.00, -1.69, 0.00, 68.70, 71.79
DU32, 7, 8569
CURR, 588, 108984, 1119, 1412, 4712, 78.34483
CTUN, 587, 0.00, 2.60, 0.000000, 0.00, 0, 54, 588, 0
ATT, 0.00, 0.60, 0.00, -1.74, 0.00, 67.91, 71.79
GPS, 3, 368516800, 9, 1.79, -33.7840405, 151.0682054, 2.70, 92.39, 0.23, 41.70
CTUN, 588, 0.00, 2.57, 0.000000, 0.00, 0, 52, 588, 0
ATT, 0.00, 0.59, 0.00, -0.77, 0.00, 67.48, 71.79
CTUN, 588, 0.00, 2.85, 0.000000, 0.00, 0, 48, 588, 0
ATT, 0.00, 0.71, 0.00, -0.88, 0.00, 67.16, 71.79
GPS, 3, 368517000, 9, 1.79, -33.7840400, 151.0682059, 2.79, 92.50, 0.42, 37.94
CTUN, 588, 0.00, 2.87, 0.000000, 0.00, 0, 46, 588, 0
ATT, 0.00, 1.23, 0.00, -1.79, 0.00, 66.75, 71.79
CTUN, 588, 0.00, 2.90, 0.000000, 0.00, 0, 44, 588, 0
ATT, 0.00, 0.46, 0.00, -1.70, 0.00, 66.40, 71.79
GPS, 3, 368517200, 9, 1.79, -33.7840394, 151.0682066, 2.89, 92.59, 0.49, 44.77
CTUN, 583, 0.00, 2.90, 0.000000, 0.00, 0, 42, 586, 0
ATT, 0.00, 1.49, 0.00, -1.75, 0.00, 65.74, 71.79
CTUN, 581, 0.00, 3.04, 0.000000, 0.00, 0, 43, 584, 0
GPS, 3, 368517400, 9, 1.79, -33.7840390, 151.0682072, 2.98, 92.61, 0.47, 46.20
ATT, 0.00, 2.22, 0.00, -0.35, 0.00, 65.22, 71.79
CTUN, 581, 0.00, 2.97, 0.000000, 0.00, 0, 41, 585, 0
ATT, 0.00, 2.28, 0.00, 0.72, 0.00, 65.17, 71.79
PM, 0, 0, 50, 0, 1000, 10468, 10, 4
CTUN, 584, 0.00, 2.94, 0.000000, 0.00, 0, 39, 581, 0
GPS, 3, 368517600, 9, 1.79, -33.7840387, 151.0682083, 3.05, 92.74, 0.48, 57.80
ATT, 0.00, 0.89, 0.00, 0.95, 0.00, 65.64, 71.79
CTUN, 585, 0.00, 3.10, 0.000000, 0.00, 0, 36, 585, 0
DU32, 7, 8569
CURR, 581, 114256, 1123, 1364, 4693, 82.10728
ATT, 0.00, -0.44, 0.00, 0.43, 0.00, 66.29, 71.79
CTUN, 585, 0.00, 3.01, 0.000000, 0.00, 0, 33, 581, 0
GPS, 3, 368517800, 9, 1.79, -33.7840384, 151.0682095, 3.11, 92.81, 0.58, 67.91
CTUN, 581, 0.00, 3.04, 0.000000, 0.00, 0, 30, 581, 0
ATT, 0.00, -0.94, 0.00, -0.18, 0.00, 67.06, 71.79
CTUN, 581, 0.00, 3.18, 0.000000, 0.00, 0, 29, 581, 0
ATT, 0.00, -1.89, 0.00, -0.18, 0.00, 67.50, 71.79
GPS, 3, 368518000, 9, 1.79, -33.7840384, 151.0682103, 3.17, 92.85, 0.40, 70.62
CTUN, 584, 0.00, 3.04, 0.000000, 0.00, 0, 25, 581, 0
ATT, 0.00, -2.13, 0.00, 0.28, 0.00, 67.57, 71.79
CTUN, 581, 0.00, 3.20, 0.000000, 0.00, 0, 23, 581, 0
ATT, 0.00, -2.22, 0.00, 1.15, 0.00, 67.32, 71.79
GPS, 3, 368518200, 9, 1.79, -33.7840383, 151.0682113, 3.21, 92.88, 0.47, 80.18
CTUN, 581, 0.00, 3.40, 0.000000, 0.00, 0, 22, 581, 0
ATT, 0.00, -2.97, 0.00, 0.14, 0.00, 66.47, 71.79
CTUN, 581, 0.00, 3.25, 0.000000, 0.00, 0, 21, 581, 0
ATT, 0.00, -3.26, 0.00, -0.25, 0.00, 65.29, 71.79
GPS, 3, 368518400, 9, 1.79, -33.7840378, 151.0682121, 3.27, 92.94, 0.43, 67.78
CTUN, 581, 0.00, 3.09, 0.000000, 0.00, 0, 22, 581, 0
ATT, 0.00, -1.00, 0.00, -0.37, 0.00, 63.74, 71.79
CTUN, 581, 0.00, 3.32, 0.000000, 0.00, 0, 24, 581, 0
ATT, 0.00, 1.25, 0.35, 0.03, 0.00, 62.23, 71.79
GPS, 3, 368518600, 9, 1.79, -33.7840375, 151.0682131, 3.30, 93.01, 0.46, 68.02
CTUN, 581, 0.00, 3.30, 0.000000, 0.00, 0, 24, 585, 0
ATT, 0.00, 3.53, 0.93, 2.11, 0.00, 60.82, 70.82
DU32, 7, 8569
CURR, 582, 119497, 1113, 1466, 4693, 85.81940
CTUN, 581, 0.00, 3.34, 0.000000, 0.00, 1, 27, 583, 0
GPS, 3, 368518800, 9, 1.79, -33.7840370, 151.0682140, 3.35, 93.04, 0.45, 65.51
ATT, 0.00, 4.22, 0.70, 3.54, 0.00, 59.72, 69.72
CTUN, 581, 0.00, 3.36, 0.000000, 0.00, 2, 23, 583, 0
ATT, 0.00, 4.21, 0.70, 2.17, 0.00, 59.41, 69.41
CTUN, 581, 0.00, 3.38, 0.000000, 0.00, 1, 22, 583, 0
GPS, 3, 368519000, 8, 1.93, -33.7840371, 151.0682145, 3.40, 93.08, 0.25, 65.51
ATT, 0.00, 3.17, 0.82, 0.82, 0.00, 59.82, 69.41
CTUN, 584, 0.00, 3.27, 0.000000, 0.00, 0, 18, 584, 0
ATT, 0.00, 2.84, 0.58, -0.96, 0.00, 61.10, 69.41
CTUN, 584, 0.00, 3.37, 0.000000, 0.00, 0, 16, 584, 0
GPS, 3, 368519200, 8, 1.93, -33.7840377, 151.0682156, 3.42, 93.21, 0.51, 96.59
ATT, 0.00, 0.84, 0.00, -3.06, 0.00, 63.19, 69.41
CTUN, 582, 0.00, 3.24, 0.000000, 0.00, 0, 11, 582, 0
ATT, 0.00, 0.62, 0.00, -2.56, 0.00, 64.52, 69.41
CTUN, 583, 0.00, 3.35, 0.000000, 0.00, 0, 8, 583, 0
GPS, 3, 368519400, 8, 1.93, -33.7840383, 151.0682163, 3.42, 93.19, 0.46, 108.22
CTUN, 582, 0.00, 3.46, 0.000000, 0.00, 0, 6, 582, 0
ATT, 0.00, 0.81, 0.00, -1.13, 0.00, 65.10, 69.41
CTUN, 582, 0.00, 3.34, 0.000000, 0.00, 0, 4, 582, 0
ATT, -0.11, -0.26, 0.11, -0.22, 0.00, 65.10, 69.41
GPS, 3, 368519600, 8, 1.93, -33.7840390, 151.0682174, 3.43, 93.18, 0.65, 123.03
CTUN, 582, 0.00, 3.38, 0.000000, 0.00, 0, 3, 582, 0
ATT, -0.81, -1.30, 0.93, -0.54, 0.00, 64.75, 69.41
DU32, 7, 8569
CURR, 582, 125323, 1117, 1350, 4752, 89.91349
CTUN, 582, 0.00, 3.24, 0.000000, 0.00, 0, 2, 582, 0
ATT, -1.27, -0.81, 1.75, 0.57, 0.00, 64.26, 69.41
GPS, 3, 368519800, 8, 1.93, -33.7840399, 151.0682184, 3.43, 93.15, 0.65, 126.87
CTUN, 582, 0.00, 3.23, 0.000000, 0.00, 0, 2, 582, 0
ATT, -0.69, -1.62, 1.52, 2.53, 0.00, 64.08, 69.41
CTUN, 582, 0.00, 3.19, 0.000000, 0.00, 0, 0, 582, 0
ATT, -0.58, -2.00, 1.75, 2.26, 0.00, 64.09, 69.41
GPS, 3, 368520000, 9, 1.79, -33.7840408, 151.0682194, 3.40, 93.19, 0.66, 130.32
CTUN, 582, 0.00, 3.42, 0.000000, 0.00, 0, -1, 582, 0
ATT, -0.81, -2.99, 2.34, 2.87, 0.00, 63.95, 69.41
CTUN, 582, 0.00, 3.25, 0.000000, 0.00, 1, -3, 583, 0
GPS, 3, 368520200, 9, 1.79, -33.7840415, 151.0682202, 3.39, 93.17, 0.59, 133.70
ATT, -2.79, -2.41, 2.81, 3.51, 0.00, 63.53, 69.41
CTUN, 584, 0.00, 3.23, 0.000000, 0.00, 1, -2, 583, 0
ATT, -3.02, -4.07, 2.34, 3.58, 0.00, 63.45, 69.41
CTUN, 583, 0.00, 3.20, 0.000000, 0.00, 2, -4, 585, 0
GPS, 3, 368520400, 9, 1.79, -33.7840423, 151.0682207, 3.37, 93.18, 0.49, 139.07
ATT, -3.13, -3.23, 2.34, 3.32, 0.00, 63.05, 69.41
CTUN, 584, 0.00, 3.28, 0.000000, 0.00, 1, -4, 585, 0
ATT, -3.60, -2.54, 2.22, 3.05, 0.00, 62.76, 69.41
CTUN, 585, 0.00, 3.20, 0.000000, 0.00, 1, -2, 586, 0
GPS, 3, 368520600, 8, 1.93, -33.7840433, 151.0682207, 3.35, 93.15, 0.44, 150.38
CTUN, 584, 0.00, 3.18, 0.000000, 0.00, 1, -2, 585, 0
ATT, -3.95, -3.14, 2.34, 2.23, 0.00, 62.68, 69.41
DU32, 7, 8569
CURR, 584, 130574, 1117, 1392, 4732, 93.67707
CTUN, 583, 0.00, 3.23, 0.000000, 0.00, 1, -2, 585, 0
ATT, -3.83, -4.03, 2.34, 1.83, 0.00, 62.52, 69.41
GPS, 3, 368520800, 8, 1.93, -33.7840441, 151.0682204, 3.32, 93.18, 0.38, 171.25
CTUN, 585, 0.00, 3.11, 0.000000, 0.00, 1, -3, 584, 0
ATT, -3.83, -3.98, 2.34, 1.35, 0.00, 62.21, 69.41
CTUN, 583, 0.00, 3.30, 0.000000, 0.00, 1, -3, 583, 0
ATT, -3.83, -3.05, 2.22, 1.92, 0.00, 61.51, 69.41
GPS, 3, 368521000, 8, 1.93, -33.7840447, 151.0682200, 3.30, 93.16, 0.31, 186.91
CTUN, 582, 0.00, 3.15, 0.000000, 0.00, 0, -3, 582, 0
ATT, -3.95, -2.47, 2.34, 0.61, 0.00, 61.21, 69.41
CTUN, 581, 0.00, 3.10, 0.000000, 0.00, 0, -4, 582, 0
ATT, -4.18, -3.86, 2.22, -1.29, 0.00, 61.59, 69.41
GPS, 3, 368521200, 8, 1.93, -33.7840451, 151.0682195, 3.28, 93.13, 0.34, 204.04
CTUN, 582, 0.00, 3.24, 0.000000, 0.00, 1, -3, 585, 0
ATT, -4.30, -3.75, 2.34, -1.77, 0.00, 61.86, 69.41
CTUN, 580, 0.00, 3.24, 0.000000, 0.00, 1, -5, 583, 0
GPS, 3, 368521400, 8, 1.93, -33.7840454, 151.0682189, 3.26, 93.13, 0.30, 218.90
ATT, -4.53, -2.30, 2.34, -1.78, 0.00, 61.82, 69.41
CTUN, 580, 0.00, 3.16, 0.000000, 0.00, 0, -5, 580, 0
ATT, -4.30, -2.30, 2.34, -0.65, 0.00, 62.05, 69.41
CTUN, 580, 0.00, 3.28, 0.000000, 0.00, 0, -5, 580, 0
GPS, 3, 368521600, 9, 1.79, -33.7840457, 151.0682185, 3.24, 93.13, 0.30, 221.19
ATT, -4.30, -3.76, 2.81, -1.60, 0.00, 63.22, 69.41
CTUN, 580, 0.00, 3.31, 0.000000, 0.00, 1, -5, 581, 0
ATT, -4.53, -4.51, 2.69, -2.13, 0.00, 64.28, 69.41
CTUN, 582, 0.00, 3.47, 0.000000, 0.00, 1, -5, 582, 0
DU32, 7, 8569
CURR, 582, 135815, 1117, 1337, 4732, 97.42495
GPS, 3, 368521800, 9, 1.79, -33.7840456, 151.0682183, 3.24, 93.13, 0.11, 221.19
CTUN, 582, 0.00, 3.42, 0.000000, 0.00, 0, -1, 582, 0
ATT, -4.65, -3.02, 3.04, -0.52, 0.00, 64.56, 69.41
CTUN, 581, 0.00, 3.32, 0.000000, 0.00, 0, 0, 581, 0
ATT, -5.34, -2.14, 3.04, 0.51, 0.00, 64.07, 69.41
GPS, 3, 368522000, 9, 1.79, -33.7840454, 151.0682181, 3.26, 93.13, 0.09, 221.19
CTUN, 581, 0.00, 3.12, 0.000000, 0.00, 0, 0, 581, 0
ATT, -4.65, -3.74, 2.92, 0.45, 0.00, 63.65, 69.41
CTUN, 581, 0.00, 2.92, 0.000000, 0.00, 1, -1, 582, 0
ATT, -4.30, -3.65, 3.16, 2.15, 0.00, 63.31, 69.41
GPS, 3, 368522200, 9, 1.79, -33.7840450, 151.0682181, 3.25, 93.14, 0.13, 221.19
CTUN, 580, 0.00, 3.06, 0.000000, 0.00, 1, -1, 582, 0
ATT, -3.60, -3.29, 3.04, 2.62, 0.00, 63.12, 69.41
CTUN, 582, 0.00, 3.08, 0.000000, 0.00, 1, 0, 582, 0
GPS, 3, 368522400, 9, 1.79, -33.7840446, 151.0682183, 3.22, 93.13, 0.10, 221.19
ATT, -2.44, -4.21, 3.04, 1.19, 0.00, 63.50, 69.41
CTUN, 581, 0.00, 3.16, 0.000000, 0.00, 1, 0, 582, 0
ATT, -2.09, -4.23, 3.04, 0.43, 0.00, 63.75, 69.41
CTUN, 581, 0.00, 3.24, 0.000000, 0.00, 1, 0, 581, 0
GPS, 3, 368522600, 8, 1.93, -33.7840442, 151.0682182, 3.21, 93.13, 0.14, 221.19
ATT, -1.62, -2.91, 3.16, 0.61, 0.00, 63.83, 69.41
CTUN, 581, 0.00, 3.23, 0.000000, 0.00, 0, 2, 581, 0
ATT, -0.81, -1.64, 2.46, 0.51, 0.00, 63.75, 69.41
CTUN, 581, 0.00, 3.30, 0.000000, 0.00, 0, 4, 582, 0
GPS, 3, 368522800, 8, 1.93, -33.7840437, 151.0682180, 3.22, 93.13, 0.21, 221.19
DU32, 7, 8569
CURR, 581, 141631, 1115, 1364, 4732, 101.5745
CTUN, 581, 0.00, 3.12, 0.000000, 0.00, 0, 5, 581, 0
ATT, -0.34, -2.03, 2.57, 0.09, 0.00, 63.99, 69.41
CTUN, 581, 0.00, 2.89, 0.000000, 0.00, 0, 4, 581, 0
ATT, 0.00, -1.30, 2.92, 0.61, 0.00, 63.96, 69.41
GPS, 3, 368523000, 8, 1.93, -33.7840432, 151.0682180, 3.22, 93.15, 0.24, 291.68
CTUN, 581, 0.00, 3.01, 0.000000, 0.00, 0, 3, 581, 0
ATT, 0.00, 0.06, 2.22, 3.07, 0.00, 63.64, 69.41
CTUN, 580, 0.00, 3.17, 0.000000, 0.00, 0, 2, 581, 0
ATT, 0.00, 0.52, 2.46, 3.81, 0.00, 63.60, 69.41
GPS, 3, 368523200, 9, 1.79, -33.7840427, 151.0682180, 3.20, 93.12, 0.26, 331.83
CTUN, 581, 0.00, 3.14, 0.000000, 0.00, 0, 1, 581, 0
ATT, 0.00, -0.28, 2.34, 2.87, 0.00, 64.02, 69.41
CTUN, 581, 0.00, 3.16, 0.000000, 0.00, 0, 0, 581, 0
ATT, 0.00, -1.44, 2.34, 1.24, 0.00, 64.69, 69.41
GPS, 3, 368523400, 9, 1.79, -33.7840424, 151.0682180, 3.20, 93.14, 0.17, 331.83
CTUN, 581, 0.00, 3.19, 0.000000, 0.00, 0, 0, 581, 0
ATT, 0.00, -1.77, 2.34, 0.66, 0.00, 65.06, 69.41
CTUN, 581, 0.00, 3.05, 0.000000, 0.00, 0, -1, 582, 0
GPS, 3, 368523600, 9, 1.79, -33.7840422, 151.0682179, 3.19, 93.14, 0.11, 331.83
ATT, 0.00, -0.54, 2.22, 0.69, 0.00, 65.21, 69.41
CTUN, 581, 0.00, 3.12, 0.000000, 0.00, 0, -1, 581, 0
ATT, 0.00, -0.76, 2.34, 0.71, 0.00, 65.51, 69.41
CTUN, 580, 0.00, 3.03, 0.000000, 0.00, 0, -1, 580, 0
GPS, 3, 368523800, 9, 1.79, -33.7840420, 151.0682179, 3.17, 93.13, 0.09, 331.83
ATT, -0.23, -1.54, 2.34, 0.30, 0.00, 65.63, 69.41
DU32, 7, 8569
CURR, 581, 146859, 1119, 1335, 4712, 105.1928
CTUN, 581, 0.00, 3.16, 0.000000, 0.00, 0, -3, 581, 0
ATT, -0.23, -0.59, 2.34, 1.00, 0.00, 65.21, 69.41
CTUN, 581, 0.00, 3.18, 0.000000, 0.00, 0, -4, 581, 0
GPS, 3, 368524000, 9, 1.79, -33.7840417, 151.0682179, 3.16, 93.14, 0.12, 331.83
ATT, -0.23, -0.34, 2.22, 2.92, 0.00, 64.17, 69.41
CTUN, 581, 0.00, 3.13, 0.000000, 0.00, 0, -6, 581, 0
ATT, -0.23, -1.05, 2.34, 3.28, 0.00, 63.16, 69.41
CTUN, 581, 0.00, 3.14, 0.000000, 0.00, 0, -7, 581, 0
GPS, 3, 368524200, 9, 1.79, -33.7840415, 151.0682180, 3.15, 93.13, 0.10, 331.83
