dump 1

ArduCopter V3.1-rc2
Free RAM: 1349
APM 2
FMT, 128, 89, FMT, BBnNZ, Type,Length,Name,Format
FMT, 129, 23, PARM, Nf, Name,Value
FMT, 130, 35, GPS, BIBcLLeeEe, Status,Time,NSats,HDop,Lat,Lng,RelAlt,Alt,Spd,GCrs
FMT, 131, 27, IMU, ffffff, GyrX,GyrY,GyrZ,AccX,AccY,AccZ
FMT, 132, 67, MSG, Z, Message
FMT, 9, 19, CURR, hIhhhf, Thr,ThrInt,Volt,Curr,Vcc,CurrTot
FMT, 11, 11, MOT, hhhh, Mot1,Mot2,Mot3,Mot4
FMT, 12, 28, OF, hhBccffee, Dx,Dy,SQual,X,Y,Lat,Lng,Roll,Pitch
FMT, 5, 49, NTUN, Ecffffffffee, WPDst,WPBrg,PErX,PErY,DVelX,DVelY,VelX,VelY,DAcX,DAcY,DRol,DPit
FMT, 4, 25, CTUN, hcefchhhh, ThrIn,SonAlt,BarAlt,WPAlt,DesSonAlt,AngBst,CRate,ThrOut,DCRate
FMT, 15, 21, MAG, hhhhhhhhh, MagX,MagY,MagZ,OfsX,OfsY,OfsZ,MOfsX,MOfsY,MOfsZ
FMT, 6, 17, PM, BBBHHIhB, RenCnt,RenBlw,FixCnt,NLon,NLoop,MaxT,PMT,I2CErr
FMT, 8, 20, CMD, BBBBBeLL, CTot,CNum,CId,COpt,Prm1,Alt,Lat,Lng
FMT, 1, 17, ATT, cccccCC, RollIn,Roll,PitchIn,Pitch,YawIn,Yaw,NavYaw
FMT, 17, 37, INAV, cccfffiiff, BAlt,IAlt,IClb,ACorrX,ACorrY,ACorrZ,GLat,GLng,ILat,ILng
FMT, 3, 6, MODE, Mh, Mode,ThrCrs
FMT, 10, 3, STRT, , 
FMT, 13, 4, EV, B, Id
FMT, 20, 6, D16, Bh, Id,Value
FMT, 21, 6, DU16, BH, Id,Value
FMT, 22, 8, D32, Bi, Id,Value
FMT, 23, 8, DU32, BI, Id,Value
FMT, 24, 8, DFLT, Bf, Id,Value
FMT, 14, 28, PID, Biiiiif, Id,Error,P,I,D,Out,Gain
FMT, 16, 15, DMP, ccccCC, DCMRoll,DMPRoll,DCMPtch,DMPPtch,DCMYaw,DMPYaw
FMT, 18, 25, CAM, ILLeccC, GPSTime,Lat,Lng,Alt,Roll,Pitch,Yaw
FMT, 19, 5, ERR, BB, Subsys,ECode
D32, 9, 24085
EV, 10
ERR, 7, 1
CTUN, 0, 0.00, 0.16, 0.000000, 0.00, 0, 6, 0, 0
ATT, 0.00, 0.69, 0.00, -2.05, 0.00, 240.85, 240.85
CTUN, 0, 0.00, 0.42, 0.000000, 0.00, 0, 4, 0, 0
ATT, 0.00, 0.69, 0.00, -2.04, 0.00, 240.85, 240.85
CTUN, 0, 0.00, 0.53, 0.000000, 0.00, 0, 2, 0, 0
ATT, 0.00, 0.69, 0.00, -2.04, 0.00, 240.85, 240.85
CTUN, 0, 0.00, 0.61, 0.000000, 0.00, 0, 0, 0, 0
ATT, 0.00, 0.69, 0.00, -2.04, 0.00, 240.85, 240.85
DU32, 7, 99416
CURR, 0, 0, 1102, 0, 4434, 0.000000
CTUN, 0, 0.00, 0.77, 0.000000, 0.00, 0, 0, 0, 0
ATT, 0.00, 0.69, 0.00, -2.04, 0.00, 240.84, 240.84
CTUN, 0, 0.00, 0.85, 0.000000, 0.00, 0, -2, 0, 0
ATT, 0.00, 0.69, 0.00, -2.04, 0.00, 240.84, 240.84
CTUN, 0, 0.00, 0.80, 0.000000, 0.00, 0, -3, 0, 0
ATT, 0.00, 0.69, 0.00, -2.04, 0.00, 240.84, 240.84
CTUN, 0, 0.00, 1.02, 0.000000, 0.00, 0, -4, 0, 0
ATT, 0.00, 0.69, 0.00, -2.04, 0.00, 240.84, 240.84
CTUN, 0, 0.00, 1.18, 0.000000, 0.00, 0, -4, 0, 0
ATT, 0.00, 0.69, 0.00, -2.04, 0.00, 240.84, 240.84
CTUN, 0, 0.00, 1.27, 0.000000, 0.00, 0, -5, 0, 0
ATT, 0.00, 0.69, 0.00, -2.04, 0.00, 240.84, 240.84
CTUN, 0, 0.00, 1.38, 0.000000, 0.00, 0, -5, 0, 0
ATT, 0.00, 0.69, 0.00, -2.04, 0.00, 240.84, 240.84
CTUN, 0, 0.00, 1.60, 0.000000, 0.00, 0, -5, 0, 0
ATT, 0.00, 0.69, 0.00, -2.04, 0.00, 240.84, 240.84
CTUN, 0, 0.00, 1.66, 0.000000, 0.00, 0, -5, 0, 0
ATT, 0.00, 0.69, 0.00, -2.04, 0.00, 240.84, 240.84
CTUN, 0, 0.00, 1.89, 0.000000, 0.00, 0, -5, 0, 0
ATT, 0.00, 0.69, 0.00, -2.04, 0.00, 240.84, 240.84
DU32, 7, 99416
CURR, 0, 0, 1102, 0, 4487, 0.000000
CTUN, 0, 0.00, 2.00, 0.000000, 0.00, 0, -5, 0, 0
ATT, 0.00, 0.69, 0.00, -2.04, 0.00, 240.83, 240.83
CTUN, 0, 0.00, 2.04, 0.000000, 0.00, 0, -4, 0, 0
ATT, 0.00, 0.69, 0.00, -2.04, 0.00, 240.83, 240.83
CTUN, 0, 0.00, 2.25, 0.000000, 0.00, 0, -3, 0, 0
ATT, 0.00, 0.69, 0.00, -2.04, 0.00, 240.82, 240.82
CTUN, 0, 0.00, 2.33, 0.000000, 0.00, 0, -3, 0, 0
ATT, 0.00, 0.69, 0.00, -2.04, 0.00, 240.81, 240.81
CTUN, 0, 0.00, 2.50, 0.000000, 0.00, 0, -2, 0, 0
ATT, 0.00, 0.69, 0.00, -2.04, 0.00, 240.81, 240.81
CTUN, 0, 0.00, 2.62, 0.000000, 0.00, 0, -1, 0, 0
ATT, 0.00, 0.69, 0.00, -2.04, 0.00, 240.80, 240.80
CTUN, 0, 0.00, 2.72, 0.000000, 0.00, 0, 0, 0, 0
ATT, 0.00, 0.69, 0.00, -2.04, 0.00, 240.80, 240.80
CTUN, 0, 0.00, 2.91, 0.000000, 0.00, 0, 1, 0, 0
ATT, 0.00, 0.69, 0.00, -2.04, 0.00, 240.79, 240.79
CTUN, 0, 0.00, 3.00, 0.000000, 0.00, 0, 2, 0, 0
ATT, 0.00, 0.69, 0.00, -2.04, 0.00, 240.79, 240.79
CTUN, 0, 0.00, 3.15, 0.000000, 0.00, 0, 4, 0, 0
ATT, 0.00, 0.69, 0.00, -2.04, 0.00, 240.78, 240.78
DU32, 7, 99416
CURR, 0, 0, 1102, 0, 4469, 0.000000
CTUN, 0, 0.00, 3.24, 0.000000, 0.00, 0, 5, 0, 0
ATT, 0.00, 0.69, 0.00, -2.05, 0.00, 240.79, 240.79
CTUN, 0, 0.00, 3.35, 0.000000, 0.00, 0, 7, 0, 0
ATT, 0.00, 0.69, 0.00, -2.05, 0.00, 240.78, 240.78
CTUN, 0, 0.00, 3.43, 0.000000, 0.00, 0, 8, 0, 0
ATT, 0.00, 0.69, 0.00, -2.05, 0.00, 240.78, 240.78
CTUN, 0, 0.00, 3.56, 0.000000, 0.00, 0, 10, 0, 0
ATT, 0.00, 0.69, 0.00, -2.05, 0.00, 240.78, 240.78
CTUN, 0, 0.00, 3.49, 0.000000, 0.00, 0, 12, 0, 0
ATT, 0.00, 0.69, 0.00, -2.05, -18.25, 240.78, 240.78
CTUN, 0, 0.00, 3.50, 0.000000, 0.00, 0, 13, 0, 0
ATT, 0.00, 0.69, 0.00, -2.05, -42.67, 240.77, 240.77
CTUN, 0, 0.00, 3.52, 0.000000, 0.00, 0, 15, 0, 0
ATT, 0.00, 0.69, 0.00, -2.05, -44.18, 240.77, 240.77
CTUN, 0, 0.00, 3.48, 0.000000, 0.00, 0, 16, 0, 0
ATT, 0.00, 0.69, 0.00, -2.05, -44.41, 240.77, 240.77
CTUN, 0, 0.00, 3.51, 0.000000, 0.00, 0, 17, 0, 0
ATT, 0.00, 0.69, 0.00, -2.05, -44.41, 240.77, 240.77
CTUN, 0, 0.00, 3.36, 0.000000, 0.00, 0, 18, 0, 0
ATT, 0.00, 0.69, 0.00, -2.05, -44.30, 240.77, 240.77
DU32, 7, 99416
CURR, 0, 0, 1102, 0, 4452, 0.000000
PM, 0, 0, 0, 1, 1000, 7347100, 0, 4
CTUN, 0, 0.00, 3.44, 0.000000, 0.00, 0, 19, 0, 0
EV, 28
ATT, 0.00, 0.69, 0.00, -2.05, -44.41, 240.77, 240.77
CTUN, 0, 0.00, 3.40, 0.000000, 0.00, 0, 20, 0, 0
ATT, 0.00, 0.69, 0.00, -2.04, -44.41, 240.76, 240.76
CTUN, 0, 0.00, 3.19, 0.000000, 0.00, 0, 21, 0, 0
ATT, 0.00, 0.69, 0.00, -2.04, -44.53, 240.75, 240.75
CTUN, 0, 0.00, 3.27, 0.000000, 0.00, 0, 22, 0, 0
ATT, 0.00, 0.69, 0.00, -2.05, -44.41, 240.74, 240.74
CTUN, 0, 0.00, 3.22, 0.000000, 0.00, 0, 22, 0, 0
ATT, 0.00, 0.69, 0.00, -2.05, -44.41, 240.74, 240.74
CTUN, 0, 0.00, 3.19, 0.000000, 0.00, 0, 23, 0, 0
ATT, 0.00, 0.70, 0.00, -2.05, -44.41, 240.73, 240.73
CTUN, 0, 0.00, 3.09, 0.000000, 0.00, 0, 23, 0, 0
ATT, 0.00, 0.70, 0.00, -2.05, -44.41, 240.72, 240.72
CTUN, 0, 0.00, 3.10, 0.000000, 0.00, 0, 24, 0, 0
ATT, 0.00, 0.70, 0.00, -2.05, -44.30, 240.72, 240.72
CTUN, 0, 0.00, 2.99, 0.000000, 0.00, 0, 24, 0, 0
ATT, 0.00, 0.70, 0.00, -2.05, -44.41, 240.71, 240.71
CTUN, 0, 0.00, 2.90, 0.000000, 0.00, 0, 24, 0, 0
ATT, 0.00, 0.70, 0.00, -2.05, -44.41, 240.70, 240.70
DU32, 7, 66648
CURR, 0, 0, 1102, 0, 4505, 0.000000
CTUN, 0, 0.00, 2.77, 0.000000, 0.00, 0, 24, 0, 0
ATT, 0.00, 0.70, 0.00, -2.05, -44.41, 240.70, 240.70
CTUN, 0, 0.00, 2.69, 0.000000, 0.00, 0, 24, 0, 0
ATT, 0.00, 0.70, 0.00, -2.05, -44.53, 240.69, 240.69
CTUN, 0, 0.00, 2.69, 0.000000, 0.00, 0, 23, 0, 0
ATT, 0.00, 0.70, 0.00, -2.05, -44.41, 240.69, 240.69
CTUN, 0, 0.00, 2.51, 0.000000, 0.00, 0, 23, 0, 0
ATT, 0.00, 0.70, 0.00, -2.05, -44.53, 240.69, 240.69
CTUN, 0, 0.00, 2.53, 0.000000, 0.00, 0, 23, 0, 0
ATT, 0.00, 0.70, 0.00, -2.05, -44.41, 240.68, 240.68
EV, 11
DU32, 7, 66648
EV, 18
DU32, 7, 99416
DU32, 7, 99416
DU32, 7, 99416
DU32, 7, 99416
DU32, 7, 99416
DU32, 7, 99416
DU32, 7, 99416
DU32, 7, 99416
PM, 0, 0, 0, 1, 1000, 108584, 0, 4
DU32, 7, 99416
DU32, 7, 99416
DU32, 7, 99416
EV, 28
DU32, 7, 66648
DU32, 7, 66648
DU32, 7, 66648
EV, 18
DU32, 7, 99416
EV, 28
DU32, 7, 66648
DU32, 7, 66648
DU32, 7, 66648
PM, 0, 0, 0, 1, 1000, 24948, 8, 4
DU32, 7, 66648
DU32, 7, 66648
DU32, 7, 66648
DU32, 7, 66648
DU32, 7, 66648
EV, 18
EV, 28
DU32, 7, 66648
DU32, 7, 66648
DU32, 7, 66648
DU32, 7, 66648
DU32, 7, 66648
PM, 0, 0, 0, 0, 1000, 10412, 10, 4
EV, 18
DU32, 7, 99416
DU32, 7, 99416
DU32, 7, 99416
DU32, 7, 99416
DU32, 7, 99416
DU32, 7, 99416
DU32, 7, 99416
DU32, 7, 99416
DU32, 7, 99416
PM, 0, 0, 0, 0, 1000, 10424, 10, 4
DU32, 7, 99416
DU32, 7, 99416
DU32, 7, 99416
DU32, 7, 99416
DU32, 7, 99416
DU32, 7, 99416
DU32, 7, 99416
DU32, 7, 99416
DU32, 7, 99416
DU32, 7, 99416
PM, 0, 0, 0, 0, 1000, 10420, 10, 4
DU32, 7, 99416
DU32, 7, 99416
DU32, 7, 99416
DU32, 7, 99416
DU32, 7, 99416
DU32, 7, 99416
DU32, 7, 99416
DU32, 7, 99416
DU32, 7, 99416
DU32, 7, 99416
PM, 0, 0, 0, 0, 1000, 10420, 10, 4
DU32, 7, 99416
DU32, 7, 99416
DU32, 7, 99416
DU32, 7, 99416
DU32, 7, 99416
DU32, 7, 99416
DU32, 7, 99416
DU32, 7, 99416
DU32, 7, 99416
DU32, 7, 99416
PM, 0, 0, 0, 1, 1002, 10752, 10, 4
DU32, 7, 99416
DU32, 7, 99416
DU32, 7, 99416
DU32, 7, 99416
DU32, 7, 99416
DU32, 7, 99416
DU32, 7, 99416
DU32, 7, 99416
DU32, 7, 99416
DU32, 7, 99416
PM, 0, 0, 0, 0, 1001, 10428, 10, 4
DU32, 7, 99416
DU32, 7, 99416
DU32, 7, 99416
DU32, 7, 99416
DU32, 7, 99416
EV, 28
DU32, 7, 66648
DU32, 7, 66648
DU32, 7, 66648
DU32, 7, 66648
DU32, 7, 66648
PM, 0, 0, 0, 0, 1000, 10440, 10, 4
DU32, 7, 66648
DU32, 7, 66648
DU32, 7, 66648
DU32, 7, 66648
DU32, 7, 66648
EV, 18
DU32, 7, 99416
DU32, 7, 99416
DU32, 7, 99416
DU32, 7, 99416
DU32, 7, 99416
PM, 0, 0, 0, 0, 1000, 10416, 10, 4
DU32, 7, 99416
DU32, 7, 99416
DU32, 7, 99416
DU32, 7, 99416
DU32, 7, 99416
DU32, 7, 99416
DU32, 7, 99416
DU32, 7, 99416
DU32, 7, 99416
EV, 28
DU32, 7, 66648
PM, 0, 0, 0, 0, 1000, 10428, 10, 4
DU32, 7, 66648
DU32, 7, 66648
DU32, 7, 66648
DU32, 7, 66648
EV, 18
DU32, 7, 99416
DU32, 7, 99416
DU32, 7, 99416
DU32, 7, 99416
DU32, 7, 99416
DU32, 7, 99416
PM, 0, 0, 0, 0, 1000, 10420, 10, 4
DU32, 7, 99416
DU32, 7, 99416
EV, 28
DU32, 7, 66648
DU32, 7, 66648
DU32, 7, 66648
DU32, 7, 66648
DU32, 7, 66648
DU32, 7, 66648
EV, 18
DU32, 7, 99416
DU32, 7, 99416
PM, 0, 0, 0, 1, 1000, 10744, 10, 4
DU32, 7, 99416
EV, 28
DU32, 7, 66648
DU32, 7, 66648
DU32, 7, 66648
DU32, 7, 66648
DU32, 7, 66648
DU32, 7, 66648
DU32, 7, 66648
DU32, 7, 66648
EV, 18
DU32, 7, 99416
PM, 0, 0, 0, 0, 1000, 10420, 10, 4
DU32, 7, 99416
DU32, 7, 99416
DU32, 7, 99416
DU32, 7, 99416
DU32, 7, 99416
DU32, 7, 99416
DU32, 7, 99416
EV, 28
DU32, 7, 66648
DU32, 7, 66648
DU32, 7, 66648
PM, 0, 0, 0, 1, 1000, 10848, 10, 4
DU32, 7, 66648
DU32, 7, 66648
DU32, 7, 66648
DU32, 7, 66648
EV, 18
DU32, 7, 99416
DU32, 7, 99416
DU32, 7, 99416
DU32, 7, 99416
DU32, 7, 99416
DU32, 7, 99416
PM, 0, 0, 0, 0, 1000, 10416, 10, 4
DU32, 7, 99416
DU32, 7, 99416
DU32, 7, 99416
EV, 28
DU32, 7, 66648
DU32, 7, 66648
EV, 18
DU32, 7, 99416
DU32, 7, 99416
DU32, 7, 99416
DU32, 7, 99416
DU32, 7, 99416
PM, 0, 0, 0, 0, 1000, 10428, 10, 4
DU32, 7, 99416
DU32, 7, 99416
DU32, 7, 99416
DU32, 7, 99416
DU32, 7, 99416
DU32, 7, 99416
DU32, 7, 99416
DU32, 7, 99416
DU32, 7, 99416
DU32, 7, 99416
PM, 0, 0, 0, 1, 1000, 10512, 10, 4
DU32, 7, 99416
ERR, 7, 0
DU32, 7, 98392
DU32, 7, 98392
EV, 25
CMD, 6, 0, 16, 0, 0, 0.00, -33.7840080, 151.0681482
DU32, 7, 98393
DU32, 7, 98393
DU32, 7, 98393
DU32, 7, 98393
DU32, 7, 98393
DU32, 7, 98393
DU32, 7, 98393
PM, 0, 0, 45, 1, 1000, 23044, 10, 4
DU32, 7, 98393
DU32, 7, 98393
DU32, 7, 98393
DU32, 7, 98393
DU32, 7, 98393
DU32, 7, 98393
DU32, 7, 98393
DU32, 7, 98393
DU32, 7, 98393
DU32, 7, 98393
PM, 0, 0, 50, 1, 1000, 10568, 10, 4
DU32, 7, 98393
DU32, 7, 98393
DU32, 7, 98393
DU32, 7, 98393
DU32, 7, 98393
DU32, 7, 98393
DU32, 7, 98393
DU32, 7, 98393
DU32, 7, 98393
DU32, 7, 98393
PM, 0, 0, 50, 1, 1000, 10716, 10, 4
DU32, 7, 98393
DU32, 7, 98393
DU32, 7, 98393
DU32, 7, 98393
DU32, 7, 98393
DU32, 7, 98393
DU32, 7, 98393
DU32, 7, 98393
DU32, 7, 98393
DU32, 7, 98393
PM, 0, 0, 50, 2, 1002, 10692, 10, 4
DU32, 7, 98393
DU32, 7, 98393
DU32, 7, 98393
DU32, 7, 98393
DU32, 7, 98393
DU32, 7, 98393
DU32, 7, 98393
DU32, 7, 98393
DU32, 7, 98393
DU32, 7, 98393
PM, 0, 0, 50, 0, 1000, 10472, 10, 4
DU32, 7, 98393
DU32, 7, 98393
DU32, 7, 98393
DU32, 7, 98393
DU32, 7, 98393
DU32, 7, 98393
DU32, 7, 98393
DU32, 7, 98393
DU32, 7, 98393
DU32, 7, 98393
PM, 0, 0, 50, 1, 1000, 10740, 10, 4
DU32, 7, 98393
DU32, 7, 98393
DU32, 7, 98393
DU32, 7, 98393
DU32, 7, 98393
DU32, 7, 98393
DU32, 7, 98393
DU32, 7, 98393
DU32, 7, 98393
DU32, 7, 98393
PM, 0, 0, 50, 0, 1000, 10436, 10, 4
DU32, 7, 98393
DU32, 7, 98393
DU32, 7, 98393
DU32, 7, 98393
DU32, 7, 98393
DU32, 7, 98393
DU32, 7, 98393
DU32, 7, 98393
DU32, 7, 98393
DU32, 7, 98393
PM, 0, 0, 50, 2, 1000, 10784, 10, 4
DU32, 7, 98393
DU32, 7, 98393
DU32, 7, 98393
DU32, 7, 98393
DU32, 7, 98393
DU32, 7, 98393
DU32, 7, 98393
DU32, 7, 98393
DU32, 7, 98393
DU32, 7, 98393
PM, 0, 0, 50, 1, 1000, 10548, 9, 4
DU32, 7, 98393
DU32, 7, 98393
DU32, 7, 98393
DU32, 7, 98393
DU32, 7, 98393
DU32, 7, 98393
DU32, 7, 98393
DU32, 7, 98393
DU32, 7, 98393
DU32, 7, 98393
PM, 0, 0, 50, 2, 1000, 10724, 10, 4
DU32, 7, 98393
DU32, 7, 98393
DU32, 7, 98393
DU32, 7, 98393
DU32, 7, 98393
DU32, 7, 98393
DU32, 7, 98393
DU32, 7, 98393
DU32, 7, 98393
DU32, 7, 98393
PM, 0, 0, 50, 0, 1000, 10408, 10, 4
DU32, 7, 98393
DU32, 7, 98393
DU32, 7, 98393
DU32, 7, 98393
DU32, 7, 98393
DU32, 7, 98393
DU32, 7, 98393
DU32, 7, 98393
DU32, 7, 98393
DU32, 7, 98393
PM, 0, 0, 50, 0, 1001, 10412, 10, 4
DU32, 7, 98393
EV, 28
DU32, 7, 65625
DU32, 7, 65625
DU32, 7, 65625
DU32, 7, 65625
DU32, 7, 65625
DU32, 7, 65625
EV, 18
DU32, 7, 98393
DU32, 7, 98393
DU32, 7, 98393
PM, 0, 0, 50, 1, 1000, 10852, 10, 4
DU32, 7, 98393
DU32, 7, 98393
DU32, 7, 98393
EV, 28
DU32, 7, 65625
DU32, 7, 65625
DU32, 7, 65625
DU32, 7, 65625
DU32, 7, 65625
DU32, 7, 65625
DU32, 7, 65625
PM, 0, 0, 50, 0, 1000, 10416, 10, 4
DU32, 7, 65625
EV, 18
DU32, 7, 98393
DU32, 7, 98393
DU32, 7, 98393
DU32, 7, 98393
DU32, 7, 98393
DU32, 7, 98393
DU32, 7, 98393
DU32, 7, 98393
DU32, 7, 98393
PM, 0, 0, 50, 0, 1000, 10412, 10, 4
DU32, 7, 98393
DU32, 7, 98393
DU32, 7, 98393
DU32, 7, 98393
DU32, 7, 98393
DU32, 7, 98393
DU32, 7, 98393
DU32, 7, 98393
DU32, 7, 98393
DU32, 7, 98393
PM, 0, 0, 50, 1, 1001, 10744, 10, 4
DU32, 7, 98393
DU32, 7, 98393
DU32, 7, 98393
DU32, 7, 98393
DU32, 7, 98393
DU32, 7, 98393
DU32, 7, 98393
DU32, 7, 98393
DU32, 7, 98393
DU32, 7, 98393
PM, 0, 0, 50, 0, 1001, 10420, 10, 4
DU32, 7, 98393
DU32, 7, 98393
DU32, 7, 98393
DU32, 7, 98393
DU32, 7, 98393
DU32, 7, 98393
DU32, 7, 98393
DU32, 7, 98393
DU32, 7, 98393
DU32, 7, 98393
PM, 0, 0, 50, 0, 1000, 10432, 10, 4
DU32, 7, 98393
DU32, 7, 98393
DU32, 7, 98393
DU32, 7, 98393
DU32, 7, 98393
DU32, 7, 98393
DU32, 7, 98393
DU32, 7, 98393
DU32, 7, 98393
DU32, 7, 98393
PM, 0, 0, 50, 1, 1000, 10776, 10, 4
D32, 9, 24041
CMD, 6, 0, 16, 0, 0, 0.00, -33.7840577, 151.0682867
EV, 10
GPS, 3, 193001400, 10, 2.33, -33.7840577, 151.0682858, 0.82, 81.01, 0.54, 103.87
CTUN, 0, 0.00, -0.09, 0.000000, 0.00, 0, -8, 0, 0
ATT, 0.00, 0.95, 0.00, -2.16, 0.00, 240.39, 240.39
CTUN, 0, 0.00, -0.18, 0.000000, 0.00, 0, -9, 0, 0
GPS, 3, 193003400, 10, 2.33, -33.7840549, 151.0682863, 0.74, 82.83, 0.40, 103.87
ATT, 0.00, 1.31, 0.00, -2.37, 0.00, 240.38, 240.38
CTUN, 0, 0.00, -0.09, 0.000000, 0.00, 0, -11, 0, 0
DU32, 7, 98393
CURR, 0, 0, 1102, 0, 4505, 0.000000
ATT, 0.00, 1.10, 0.00, -2.41, 0.00, 240.40, 240.40
GPS, 3, 193003600, 9, 2.67, -33.7840549, 151.0682856, 0.63, 82.63, 0.33, 103.87
CTUN, 0, 0.00, -0.22, 0.000000, 0.00, 0, -12, 0, 0
ATT, 0.00, 0.94, 0.00, -2.46, 0.00, 240.42, 240.42
CTUN, 0, 0.00, -0.27, 0.000000, 0.00, 0, -13, 0, 0
ATT, 0.00, 0.95, 0.00, -2.46, 0.00, 240.42, 240.42
GPS, 3, 193003800, 9, 2.67, -33.7840549, 151.0682850, 0.49, 82.67, 0.26, 103.87
CTUN, 0, 0.00, -0.38, 0.000000, 0.00, 0, -14, 0, 0
ATT, 0.00, 0.97, 0.00, -2.47, 0.00, 240.43, 240.43
CTUN, 0, 0.00, -0.49, 0.000000, 0.00, 0, -15, 0, 0
ATT, 0.00, 0.99, 0.00, -2.47, 0.00, 240.43, 240.43
GPS, 3, 193004000, 9, 2.67, -33.7840556, 151.0682845, 0.35, 82.78, 0.28, 103.87
CTUN, 0, 0.00, -0.64, 0.000000, 0.00, 0, -16, 0, 0
ATT, 0.00, 1.01, 0.00, -2.46, 0.00, 240.44, 240.44
CTUN, 0, 0.00, -0.68, 0.000000, 0.00, 0, -17, 0, 0
ATT, 0.00, 1.01, 0.00, -2.44, 0.00, 240.44, 240.44
GPS, 3, 193004200, 9, 2.67, -33.7840562, 151.0682836, 0.20, 82.72, 0.33, 103.87
CTUN, 0, 0.00, -0.66, 0.000000, 0.00, 0, -19, 0, 0
ATT, 0.00, 1.01, 0.00, -2.42, 0.00, 240.45, 240.45
EV, 28
CTUN, 0, 0.00, -0.54, 0.000000, 0.00, 0, -20, 0, 0
ATT, 0.00, 1.04, 0.00, -2.38, 0.00, 240.46, 240.46
GPS, 3, 193004400, 9, 2.67, -33.7840564, 151.0682834, 0.07, 82.72, 0.38, 103.87
CTUN, 0, 0.00, -0.36, 0.000000, 0.00, 0, -21, 0, 0
ATT, 0.00, 1.05, 0.00, -2.35, 0.00, 240.47, 240.47
CTUN, 0, 0.00, -0.30, 0.000000, 0.00, 0, -22, 0, 0
DU32, 7, 65625
CURR, 0, 0, 1102, 0, 4452, 0.000000
ATT, 0.00, 1.04, 0.00, -2.33, 0.00, 240.47, 240.47
GPS, 3, 193004600, 9, 2.67, -33.7840551, 151.0682829, -0.02, 82.54, 0.36, 103.87
CTUN, 0, 0.00, -0.33, 0.000000, 0.00, 0, -22, 0, 0
ATT, 0.00, 1.04, 0.00, -2.31, 0.00, 240.48, 240.48
CTUN, 0, 0.00, -0.07, 0.000000, 0.00, 0, -22, 0, 0
ATT, 0.00, 1.09, 0.00, -2.31, 0.00, 240.49, 240.49
GPS, 3, 193004800, 9, 2.67, -33.7840565, 151.0682835, -0.08, 82.78, 0.45, 103.87
CTUN, 0, 0.00, 0.11, 0.000000, 0.00, 0, -23, 0, 0
ATT, 0.00, 1.11, 0.00, -2.31, 0.00, 240.49, 240.49
CTUN, 0, 0.00, 0.03, 0.000000, 0.00, 0, -22, 0, 0
ATT, 0.00, 1.04, 0.00, -2.29, 0.00, 240.50, 240.50
GPS, 3, 193005000, 9, 2.67, -33.7840564, 151.0682843, -0.11, 82.82, 0.63, 103.87
CTUN, 0, 0.00, 0.05, 0.000000, 0.00, 0, -22, 0, 0
ATT, 0.00, 0.98, 0.00, -2.27, 0.00, 240.50, 240.50
CTUN, 0, 0.00, 0.19, 0.000000, 0.00, 0, -22, 0, 0
ATT, 0.00, 0.97, 0.00, -2.21, 0.00, 240.50, 240.50
GPS, 3, 193005200, 9, 2.67, -33.7840541, 151.0682833, -0.13, 82.63, 0.63, 103.87
CTUN, 0, 0.00, 0.35, 0.000000, 0.00, 0, -22, 0, 0
ATT, 0.00, 0.99, 0.00, -2.17, 0.00, 240.50, 240.50
CTUN, 0, 0.00, 0.44, 0.000000, 0.00, 0, -22, 0, 0
ATT, 0.00, 1.12, 0.00, -2.16, 0.00, 240.50, 240.50
GPS, 3, 193005400, 9, 2.67, -33.7840548, 151.0682828, -0.11, 82.75, 0.58, 103.87
CTUN, 0, 0.00, 0.49, 0.000000, 0.00, 0, -21, 0, 0
ATT, 0.00, 1.23, 0.00, -2.16, 0.00, 240.49, 240.49
CTUN, 0, 0.00, 0.76, 0.000000, 0.00, 0, -20, 0, 0
DU32, 7, 65625
CURR, 0, 0, 1102, 0, 4469, 0.000000
ATT, 0.00, 1.22, 0.00, -2.18, 0.00, 240.49, 240.49
GPS, 3, 193005600, 9, 2.67, -33.7840564, 151.0682827, -0.07, 83.02, 0.48, 103.87
CTUN, 0, 0.00, 0.86, 0.000000, 0.00, 0, -20, 0, 0
ATT, 0.00, 1.20, 0.00, -2.19, 0.00, 240.50, 240.50
CTUN, 0, 0.00, 1.03, 0.000000, 0.00, 0, -18, 0, 0
ATT, 0.00, 1.15, 0.00, -2.21, 0.00, 240.51, 240.51
GPS, 3, 193005800, 9, 2.67, -33.7840555, 151.0682825, 0.00, 83.01, 0.35, 103.87
CTUN, 0, 0.00, 1.10, 0.000000, 0.00, 0, -17, 0, 0
ATT, 0.00, 1.11, 0.00, -2.23, 0.00, 240.51, 240.51
CTUN, 0, 0.00, 1.15, 0.000000, 0.00, 0, -16, 0, 0
ATT, 0.00, 1.13, 0.00, -2.27, 0.00, 240.52, 240.52
GPS, 3, 193006000, 9, 2.67, -33.7840501, 151.0682823, 0.10, 82.67, 0.51, 103.87
CTUN, 0, 0.00, 1.40, 0.000000, 0.00, 0, -15, 0, 0
ATT, 0.00, 1.16, 0.00, -2.30, 0.00, 240.52, 240.52
CTUN, 0, 0.00, 1.49, 0.000000, 0.00, 0, -13, 0, 0
ATT, 0.00, 1.26, 0.00, -2.33, 0.00, 240.53, 240.53
GPS, 3, 193006200, 9, 2.67, -33.7840420, 151.0682815, 0.22, 82.02, 0.98, 103.87
CTUN, 0, 0.00, 1.64, 0.000000, 0.00, 0, -12, 0, 0
ATT, 0.00, 1.36, 0.00, -2.35, 0.00, 240.53, 240.53
CTUN, 0, 0.00, 1.61, 0.000000, 0.00, 0, -10, 0, 0
ATT, 0.00, 1.51, 0.00, -2.35, 0.00, 240.53, 240.53
GPS, 3, 193006400, 9, 2.67, -33.7840357, 151.0682799, 0.36, 81.50, 1.33, 34.15
CTUN, 0, 0.00, 1.61, 0.000000, 0.00, 0, -9, 0, 0
ATT, 0.00, 1.64, 0.00, -2.36, 0.00, 240.53, 240.53
CTUN, 0, 0.00, 1.62, 0.000000, 0.00, 0, -7, 0, 0
DU32, 7, 65625
CURR, 0, 0, 1102, 0, 4487, 0.000000
ATT, 0.00, 1.75, 0.00, -2.38, -5.46, 240.54, 240.54
GPS, 3, 193006600, 9, 2.67, -33.7840352, 151.0682785, 0.50, 81.53, 1.11, 34.15
CTUN, 0, 0.00, 1.64, 0.000000, 0.00, 0, -6, 0, 0
ATT, 0.00, 1.82, 0.00, -2.40, -33.13, 240.54, 240.54
CTUN, 0, 0.00, 1.66, 0.000000, 0.00, 0, -4, 0, 0
EV, 18
ATT, 0.00, 1.75, 0.00, -2.39, -43.83, 240.56, 240.56
GPS, 3, 193006800, 9, 2.67, -33.7840349, 151.0682783, 0.61, 81.72, 0.76, 34.15
CTUN, 0, 0.00, 1.64, 0.000000, 0.00, 0, -3, 0, 0
ATT, 0.00, 1.66, 0.00, -2.39, -44.53, 240.57, 240.57
CTUN, 0, 0.00, 1.70, 0.000000, 0.00, 0, -2, 0, 0
ATT, 0.00, 1.55, 0.00, -2.38, -44.53, 240.59, 240.59
GPS, 3, 193007000, 9, 2.67, -33.7840347, 151.0682779, 0.74, 81.93, 0.53, 34.15
CTUN, 0, 0.00, 1.67, 0.000000, 0.00, 0, -1, 0, 0
ATT, 0.00, 1.45, 0.00, -2.38, -44.88, 240.61, 240.61
CTUN, 0, 0.00, 1.58, 0.000000, 0.00, 0, 0, 0, 0
ATT, 0.00, 1.38, 0.00, -2.41, -44.88, 240.62, 240.62
GPS, 3, 193007200, 9, 2.67, -33.7840336, 151.0682786, 0.84, 82.00, 0.26, 34.15
CTUN, 0, 0.00, 1.58, 0.000000, 0.00, 0, 1, 0, 0
ATT, 0.00, 1.31, 0.00, -2.43, -44.88, 240.63, 240.63
CTUN, 0, 0.00, 1.60, 0.000000, 0.00, 0, 2, 0, 0
ATT, 0.00, 1.22, 0.00, -2.42, -45.23, 240.64, 240.64
GPS, 3, 193007400, 10, 2.33, -33.7840410, 151.0682739, 0.93, 82.77, 0.42, 34.15
CTUN, 0, 0.00, 1.56, 0.000000, 0.00, 0, 3, 0, 0
ATT, 0.00, 1.14, 0.00, -2.43, -45.00, 240.65, 240.65
CTUN, 0, 0.00, 1.46, 0.000000, 0.00, 0, 4, 0, 0
DU32, 7, 98393
CURR, 0, 0, 1102, 0, 4452, 0.000000
ATT, 0.00, 1.10, 0.00, -2.56, -45.00, 240.66, 240.66
GPS, 3, 193007600, 10, 2.33, -33.7840476, 151.0682697, 1.01, 83.30, 0.68, 34.15
CTUN, 0, 0.00, 1.46, 0.000000, 0.00, 0, 4, 0, 0
ATT, 0.00, 1.05, 0.00, -2.69, -45.00, 240.67, 240.67
CTUN, 0, 0.00, 1.46, 0.000000, 0.00, 0, 5, 0, 0
ATT, 0.00, 0.96, 0.00, -2.75, -28.13, 240.69, 240.69
GPS, 3, 193007800, 10, 2.33, -33.7840548, 151.0682656, 1.07, 84.03, 0.95, 34.15
CTUN, 0, 0.00, 1.41, 0.000000, 0.00, 0, 5, 0, 0
ATT, 0.00, 0.88, 0.00, -2.82, -1.86, 240.70, 240.70
CTUN, 0, 0.00, 1.34, 0.000000, 0.00, 0, 6, 0, 0
ATT, 0.00, 0.81, 0.00, -2.88, 0.00, 240.72, 240.72
GPS, 3, 193008000, 10, 2.33, -33.7840616, 151.0682615, 1.12, 84.74, 1.15, 34.15
CTUN, 0, 0.00, 1.30, 0.000000, 0.00, 0, 6, 0, 0
ATT, 0.00, 0.75, 0.00, -2.93, 0.00, 240.73, 240.73
CTUN, 0, 0.00, 1.26, 0.000000, 0.00, 0, 7, 0, 0
ATT, 0.00, 0.71, 0.00, -2.96, 0.00, 240.75, 240.75
GPS, 3, 193008200, 10, 2.33, -33.7840674, 151.0682570, 1.16, 85.34, 1.19, 34.15
CTUN, 0, 0.00, 1.33, 0.000000, 0.00, 0, 7, 0, 0
ATT, 0.00, 0.69, 0.00, -2.98, 0.00, 240.75, 240.75
CTUN, 0, 0.00, 1.21, 0.000000, 0.00, 0, 7, 0, 0
ATT, 0.00, 0.71, 0.00, -3.00, 0.00, 240.76, 240.76
GPS, 3, 193008400, 10, 2.33, -33.7840741, 151.0682520, 1.18, 85.96, 1.36, 34.15
CTUN, 0, 0.00, 1.22, 0.000000, 0.00, 0, 7, 0, 0
ATT, 0.00, 0.72, 0.00, -3.02, 0.00, 240.78, 240.78
CTUN, 0, 0.00, 1.24, 0.000000, 0.00, 0, 7, 0, 0
DU32, 7, 98393
CURR, 0, 0, 1102, 0, 4469, 0.000000
ATT, 0.00, 0.70, 0.00, -3.06, 0.00, 240.79, 240.79
GPS, 3, 193008600, 10, 2.33, -33.7840847, 151.0682472, 1.20, 86.84, 1.82, 137.36
CTUN, 0, 0.00, 1.30, 0.000000, 0.00, 0, 8, 0, 0
ATT, 0.00, 0.64, 0.00, -3.11, 0.00, 240.81, 240.81
CTUN, 0, 0.00, 1.10, 0.000000, 0.00, 0, 8, 0, 0
ATT, 0.00, 0.48, 0.00, -3.17, 0.00, 240.83, 240.83
GPS, 3, 193008800, 9, 2.67, -33.7840849, 151.0682462, 1.22, 86.93, 1.43, 162.62
CTUN, 0, 0.00, 1.17, 0.000000, 0.00, 0, 8, 0, 0
ATT, 0.00, 0.41, 0.00, -3.16, 0.00, 240.84, 240.84
CTUN, 0, 0.00, 1.24, 0.000000, 0.00, 0, 7, 0, 0
ATT, 0.00, 0.46, 0.00, -3.04, 0.00, 240.85, 240.85
GPS, 3, 193009000, 9, 2.67, -33.7840858, 151.0682459, 1.23, 87.28, 1.14, 162.62
CTUN, 0, 0.00, 1.21, 0.000000, 0.00, 0, 8, 0, 0
ATT, 0.00, 0.49, 0.00, -2.93, 0.00, 240.86, 240.86
CTUN, 0, 0.00, 1.19, 0.000000, 0.00, 0, 8, 0, 0
ATT, 0.00, 0.51, 0.00, -2.84, 0.00, 240.87, 240.87
GPS, 3, 193009200, 9, 2.67, -33.7840860, 151.0682442, 1.24, 87.26, 0.97, 162.62
CTUN, 0, 0.00, 1.26, 0.000000, 0.00, 0, 8, 0, 0
ATT, 0.00, 0.55, 0.00, -2.79, 0.00, 240.88, 240.88
CTUN, 0, 0.00, 1.23, 0.000000, 0.00, 0, 8, 0, 0
ATT, 0.00, 0.60, 0.00, -2.77, 0.00, 240.88, 240.88
GPS, 3, 193009400, 9, 2.67, -33.7840875, 151.0682429, 1.26, 87.47, 0.84, 162.62
CTUN, 0, 0.00, 1.25, 0.000000, 0.00, 0, 8, 0, 0
ATT, 0.00, 0.63, 0.00, -2.74, 0.00, 240.88, 240.88
CTUN, 0, 0.00, 1.22, 0.000000, 0.00, 0, 8, 0, 0
DU32, 7, 98393
CURR, 0, 0, 1102, 0, 4452, 0.000000
ATT, 0.00, 0.65, 0.00, -2.70, 0.00, 240.89, 240.89
GPS, 3, 193009600, 9, 2.67, -33.7840898, 151.0682427, 1.27, 87.79, 0.82, 162.62
CTUN, 0, 0.00, 1.18, 0.000000, 0.00, 0, 8, 0, 0
ATT, 0.00, 0.62, 0.00, -2.65, -28.48, 240.89, 240.89
CTUN, 0, 0.00, 1.31, 0.000000, 0.00, 0, 8, 0, 0
ATT, 0.00, 0.57, 0.00, -2.58, -44.53, 240.90, 240.90
GPS, 3, 193009800, 9, 2.67, -33.7840894, 151.0682425, 1.29, 87.93, 0.62, 162.62
CTUN, 0, 0.00, 1.37, 0.000000, 0.00, 0, 8, 0, 0
ATT, 0.00, 0.58, 0.00, -2.53, -44.76, 240.90, 240.90
CTUN, 0, 0.00, 1.39, 0.000000, 0.00, 0, 8, 0, 0
ATT, 0.00, 0.62, 0.00, -2.48, -45.11, 240.91, 240.91
GPS, 3, 193010000, 9, 2.67, -33.7840908, 151.0682420, 1.31, 88.20, 0.67, 162.62
CTUN, 0, 0.00, 1.43, 0.000000, 0.00, 0, 8, 0, 0
ATT, 0.00, 0.62, 0.00, -2.47, -45.11, 240.91, 240.91
CTUN, 0, 0.00, 1.42, 0.000000, 0.00, 0, 9, 0, 0
ATT, 0.00, 0.60, 0.00, -2.48, -45.11, 240.92, 240.92
GPS, 3, 193010200, 9, 2.67, -33.7840897, 151.0682426, 1.34, 88.45, 0.49, 162.62
CTUN, 0, 0.00, 1.41, 0.000000, 0.00, 0, 9, 0, 0
ATT, 0.00, 0.62, 0.00, -2.44, -45.11, 240.93, 240.93
CTUN, 0, 0.00, 1.48, 0.000000, 0.00, 0, 9, 0, 0
ATT, 0.00, 0.65, 0.00, -2.40, -45.11, 240.93, 240.93
GPS, 3, 193010400, 9, 2.67, -33.7840901, 151.0682414, 1.37, 88.68, 0.57, 162.62
CTUN, 0, 0.00, 1.46, 0.000000, 0.00, 0, 9, 0, 0
ATT, 0.00, 0.68, 0.00, -2.45, -45.11, 240.94, 240.94
CTUN, 0, 0.00, 1.37, 0.000000, 0.00, 0, 10, 0, 0
DU32, 7, 98393
CURR, 0, 0, 1102, 0, 4469, 0.000000
ATT, 0.00, 0.70, 0.00, -2.53, -45.00, 240.94, 240.94
GPS, 3, 193010600, 9, 2.67, -33.7840883, 151.0682389, 1.40, 88.70, 0.61, 162.62
CTUN, 0, 0.00, 1.46, 0.000000, 0.00, 0, 10, 0, 0
ATT, 0.00, 0.79, 0.00, -2.59, -45.23, 240.94, 240.94
CTUN, 0, 0.00, 1.34, 0.000000, 0.00, 0, 10, 0, 0
ATT, 0.00, 0.89, 0.00, -2.64, -45.11, 240.94, 240.94
GPS, 3, 193010800, 9, 2.67, -33.7840868, 151.0682374, 1.42, 88.64, 0.58, 162.62
CTUN, 0, 0.00, 1.31, 0.000000, 0.00, 0, 10, 0, 0
ATT, 0.00, 0.92, 0.00, -2.65, -45.11, 240.94, 240.94
CTUN, 0, 0.00, 1.38, 0.000000, 0.00, 0, 10, 0, 0
ATT, 0.00, 0.93, 0.00, -2.64, -45.11, 240.94, 240.94
GPS, 3, 193011000, 9, 2.67, -33.7840871, 151.0682366, 1.43, 88.82, 0.63, 162.62
CTUN, 0, 0.00, 1.36, 0.000000, 0.00, 0, 10, 0, 0
ATT, 0.00, 0.88, 0.00, -2.64, -45.11, 240.95, 240.95
CTUN, 0, 0.00, 1.34, 0.000000, 0.00, 0, 10, 0, 0
ATT, 0.00, 0.82, 0.00, -2.65, -45.00, 240.96, 240.96
GPS, 3, 193011200, 9, 2.66, -33.7840914, 151.0682345, 1.44, 89.23, 1.05, 162.62
CTUN, 0, 0.00, 1.56, 0.000000, 0.00, 0, 10, 0, 0
ATT, 0.00, 0.74, 0.00, -2.73, -45.11, 240.97, 240.97
CTUN, 0, 0.00, 1.71, 0.000000, 0.00, 0, 10, 0, 0
ATT, 0.00, 0.65, 0.00, -2.82, -45.11, 240.98, 240.98
GPS, 3, 193011400, 9, 2.66, -33.7840937, 151.0682313, 1.48, 89.49, 1.31, 162.62
CTUN, 0, 0.00, 1.74, 0.000000, 0.00, 0, 11, 0, 0
ATT, 0.00, 0.64, 0.00, -2.91, -45.11, 240.99, 240.99
CTUN, 0, 0.00, 1.86, 0.000000, 0.00, 0, 11, 0, 0
DU32, 7, 98393
CURR, 0, 0, 1102, 0, 4487, 0.000000
ATT, 0.00, 0.65, 0.00, -3.00, -45.00, 241.00, 241.00
GPS, 3, 193011600, 9, 2.66, -33.7840958, 151.0682286, 1.54, 89.76, 1.52, 162.62
CTUN, 0, 0.00, 1.90, 0.000000, 0.00, 0, 11, 0, 0
ATT, 0.00, 0.64, 0.00, -3.06, -45.11, 241.01, 241.01
EV, 11
DU32, 7, 98393
PM, 0, 0, 50, 2, 1000, 2070508, 12, 4
DU32, 7, 98393
DU32, 7, 98393
DU32, 7, 98393
DU32, 7, 98393
DU32, 7, 98393
DU32, 7, 98393
DU32, 7, 98393
DU32, 7, 98393
DU32, 7, 98393
DU32, 7, 98393
PM, 0, 0, 50, 0, 1000, 10420, 10, 4
DU32, 7, 98393
DU32, 7, 98393
DU32, 7, 98393
DU32, 7, 98393
DU32, 7, 98393
DU32, 7, 98393
DU32, 7, 98393
DU32, 7, 98393
DU32, 7, 98393
DU32, 7, 98393
PM, 0, 0, 50, 0, 1000, 10424, 10, 4
DU32, 7, 98393
DU32, 7, 98393
DU32, 7, 98393
DU32, 7, 98393
DU32, 7, 98393
EV, 28
DU32, 7, 65625
DU32, 7, 65625
DU32, 7, 65625
DU32, 7, 65625
DU32, 7, 65625
PM, 0, 0, 50, 0, 1000, 10412, 10, 4
EV, 18
DU32, 7, 98393
MODE, ALT_HOLD, 620
DU32, 7, 98393
MODE, LOITER, 620
DU32, 7, 98393
DU32, 7, 98393
MODE, CIRCLE, 620
DU32, 7, 98393
DU32, 7, 98393
DU32, 7, 98393
MODE, STABILIZE, 620
DU32, 7, 98393
MODE, STABILIZE, 620
DU32, 7, 98393
MODE, STABILIZE, 620
DU32, 7, 98393
PM, 0, 0, 50, 0, 1000, 10404, 10, 4
DU32, 7, 98393
DU32, 7, 98393
DU32, 7, 98393
DU32, 7, 98393
DU32, 7, 98393
DU32, 7, 98393
DU32, 7, 98393
DU32, 7, 98393
DU32, 7, 98393
DU32, 7, 98393
PM, 0, 0, 50, 0, 1000, 10432, 10, 4
DU32, 7, 98393
DU32, 7, 98393
DU32, 7, 98393
DU32, 7, 98393
DU32, 7, 98393
EV, 28
DU32, 7, 98397
EV, 27
EV, 28
DU32, 7, 65625
DU32, 7, 65625
DU32, 7, 65625
DU32, 7, 65625
EV, 18
PM, 0, 0, 50, 0, 1000, 10424, 10, 4
DU32, 7, 98393
DU32, 7, 98393
DU32, 7, 98393
DU32, 7, 98393
DU32, 7, 98393
DU32, 7, 98393
DU32, 7, 98393
DU32, 7, 98393
EV, 28
DU32, 7, 65625
DU32, 7, 65625
PM, 0, 0, 50, 0, 1000, 10416, 10, 4
DU32, 7, 65625
EV, 18
DU32, 7, 98393
DU32, 7, 98393
DU32, 7, 98393
DU32, 7, 98393
DU32, 7, 98393
DU32, 7, 98393
DU32, 7, 98393
DU32, 7, 98393
DU32, 7, 98393
PM, 0, 0, 50, 1, 1000, 10532, 10, 4
DU32, 7, 98393
DU32, 7, 98393
DU32, 7, 98393
DU32, 7, 98393
DU32, 7, 98393
DU32, 7, 98393
DU32, 7, 98393
DU32, 7, 98393
DU32, 7, 98393
DU32, 7, 98393
PM, 0, 0, 34, 1, 1001, 14984, 10, 4
DU32, 7, 98393
DU32, 7, 98393
DU32, 7, 98393
DU32, 7, 98393
DU32, 7, 98393
DU32, 7, 98393
DU32, 7, 98393
DU32, 7, 98393
DU32, 7, 98393
DU32, 7, 98393
PM, 0, 0, 50, 19, 1000, 15840, 10, 4
DU32, 7, 98393
DU32, 7, 98393
DU32, 7, 98393
DU32, 7, 98393
DU32, 7, 98393
DU32, 7, 98393
DU32, 7, 98393
DU32, 7, 98393
EV, 28
DU32, 7, 65625
DU32, 7, 65625
PM, 0, 0, 50, 0, 1000, 10424, 10, 4
DU32, 7, 65625
DU32, 7, 65625
DU32, 7, 65625
EV, 18
DU32, 7, 98393
DU32, 7, 98393
DU32, 7, 98393
DU32, 7, 98393
DU32, 7, 98393
DU32, 7, 98393
DU32, 7, 98393
PM, 0, 0, 49, 0, 1000, 10416, 10, 4
DU32, 7, 98393
DU32, 7, 98393
DU32, 7, 98393
DU32, 7, 98393
DU32, 7, 98393
DU32, 7, 98393
DU32, 7, 98393
DU32, 7, 98393
DU32, 7, 98393
DU32, 7, 98393
PM, 0, 0, 50, 0, 1000, 10420, 10, 4
DU32, 7, 98393
DU32, 7, 98393
DU32, 7, 98393
DU32, 7, 98393
DU32, 7, 98393
DU32, 7, 98393
DU32, 7, 98393
DU32, 7, 98393
DU32, 7, 98393
DU32, 7, 98393
PM, 0, 0, 50, 1, 1000, 10560, 9, 4
DU32, 7, 98393
DU32, 7, 98393
DU32, 7, 98393
DU32, 7, 98393
DU32, 7, 98393
DU32, 7, 98393
DU32, 7, 98393
DU32, 7, 98393
DU32, 7, 98393
DU32, 7, 98393
EV, 28
PM, 0, 0, 50, 0, 1000, 10424, 11, 4
DU32, 7, 65625
DU32, 7, 65625
EV, 18
DU32, 7, 98393
DU32, 7, 98393
DU32, 7, 98393
DU32, 7, 98393
DU32, 7, 98393
DU32, 7, 98393
DU32, 7, 98393
DU32, 7, 98393
PM, 0, 0, 50, 0, 1000, 10440, 9, 4
DU32, 7, 98393
DU32, 7, 98393
DU32, 7, 98393
DU32, 7, 98393
DU32, 7, 98393
DU32, 7, 98393
DU32, 7, 98393
DU32, 7, 98393
DU32, 7, 98393
DU32, 7, 98393
PM, 0, 0, 50, 0, 1000, 10408, 11, 4
DU32, 7, 98393
DU32, 7, 98393
DU32, 7, 98393
DU32, 7, 98393
DU32, 7, 98393
DU32, 7, 98393
DU32, 7, 98393
DU32, 7, 98393
DU32, 7, 98393
DU32, 7, 98393
PM, 0, 0, 50, 0, 1000, 10408, 9, 4
DU32, 7, 98393
DU32, 7, 98393
DU32, 7, 98393
DU32, 7, 98393
DU32, 7, 98393
DU32, 7, 98393
DU32, 7, 98393
DU32, 7, 98393
DU32, 7, 98393
DU32, 7, 98393
PM, 0, 0, 50, 0, 1000, 10420, 10, 4
DU32, 7, 98393
DU32, 7, 98393
DU32, 7, 98393
DU32, 7, 98393
DU32, 7, 98393
DU32, 7, 98393
DU32, 7, 98393
EV, 28
DU32, 7, 65625
DU32, 7, 65625
DU32, 7, 65625
PM, 0, 0, 50, 0, 1000, 10404, 10, 4
DU32, 7, 65625
DU32, 7, 65625
EV, 18
DU32, 7, 98393
DU32, 7, 98393
DU32, 7, 98393
DU32, 7, 98393
DU32, 7, 98393
DU32, 7, 98393
DU32, 7, 98393
DU32, 7, 98393
PM, 0, 0, 50, 0, 1000, 10424, 10, 4
DU32, 7, 98393
DU32, 7, 98393
DU32, 7, 98393
DU32, 7, 98393
DU32, 7, 98393
DU32, 7, 98393
DU32, 7, 98393
DU32, 7, 98393
DU32, 7, 98393
DU32, 7, 98393
PM, 0, 0, 50, 0, 1000, 10416, 10, 4
DU32, 7, 98393
DU32, 7, 98393
DU32, 7, 98393
DU32, 7, 98393
DU32, 7, 98393
DU32, 7, 98393
DU32, 7, 98393
DU32, 7, 98393
DU32, 7, 98393
DU32, 7, 98393
PM, 0, 0, 50, 1, 1001, 17088, 10, 4
DU32, 7, 98393
DU32, 7, 98393
DU32, 7, 98393
DU32, 7, 98393
DU32, 7, 98393
DU32, 7, 98393
DU32, 7, 98393
DU32, 7, 98393
D32, 9, 24100
CMD, 6, 0, 16, 0, 0, 0.00, -33.7839169, 151.0682133
EV, 10
GPS, 3, 193251800, 10, 2.30, -33.7839166, 151.0682127, 3.00, 71.87, 0.75, 358.29
CTUN, 0, 0.00, -0.05, 0.000000, 0.00, 0, 4, 0, 0
DU32, 7, 98393
CURR, 0, 0, 1102, 0, 4487, 0.000000
ATT, 0.00, 0.82, 0.00, -2.26, 0.00, 240.97, 240.97
GPS, 3, 193253800, 10, 2.30, -33.7839346, 151.0682099, 2.83, 72.87, 1.53, 140.60
CTUN, 0, 0.00, -0.04, 0.000000, 0.00, 0, 1, 0, 0
ATT, 0.00, 0.81, 0.00, -2.58, 0.00, 240.95, 240.95
CTUN, 0, 0.00, 0.04, 0.000000, 0.00, 0, -2, 0, 0
ATT, 0.00, 0.36, 0.00, -2.75, 0.00, 240.98, 240.98
GPS, 3, 193254000, 10, 2.30, -33.7839363, 151.0682110, 2.50, 72.39, 1.77, 152.16
CTUN, 0, 0.00, -0.20, 0.000000, 0.00, 0, -5, 0, 0
ATT, 0.00, 0.07, 0.00, -2.84, 0.00, 240.98, 240.98
CTUN, 0, 0.00, -0.33, 0.000000, 0.00, 0, -8, 0, 0
ATT, 0.00, 0.00, 0.00, -2.81, 0.00, 240.98, 240.98
GPS, 3, 193254200, 10, 2.30, -33.7839357, 151.0682099, 2.17, 71.95, 1.23, 154.92
CTUN, 0, 0.00, -0.34, 0.000000, 0.00, 0, -10, 0, 0
ATT, 0.00, 0.02, 0.00, -2.76, 0.00, 240.96, 240.96
CTUN, 0, 0.00, -0.39, 0.000000, 0.00, 0, -13, 0, 0
ATT, 0.00, 0.18, 0.00, -2.71, 0.00, 240.95, 240.95
GPS, 3, 193254400, 10, 2.30, -33.7839339, 151.0682100, 1.84, 71.55, 0.92, 154.92
CTUN, 0, 0.00, -0.47, 0.000000, 0.00, 0, -16, 0, 0
ATT, 0.00, 0.35, 0.00, -2.59, 0.00, 240.93, 240.93
CTUN, 0, 0.00, -0.54, 0.000000, 0.00, 0, -19, 0, 0
EV, 28
ATT, 0.00, 0.51, 0.00, -2.33, 0.00, 240.93, 240.93
GPS, 3, 193254600, 9, 2.37, -33.7839310, 151.0682104, 1.53, 71.15, 2.37, 101.81
CTUN, 0, 0.00, -0.49, 0.000000, 0.00, 0, -22, 0, 0
ATT, 0.00, 0.70, 0.00, -2.00, 0.00, 240.92, 240.92
CTUN, 0, 0.00, -0.43, 0.000000, 0.00, 0, -24, 0, 0
DU32, 7, 65625
CURR, 0, 0, 1102, 0, 4487, 0.000000
ATT, 0.00, 1.00, 0.00, -1.62, 0.00, 240.89, 240.89
GPS, 3, 193254800, 9, 2.37, -33.7839307, 151.0682103, 1.25, 70.90, 3.61, 46.53
CTUN, 0, 0.00, -0.53, 0.000000, 0.00, 0, -26, 0, 0
ATT, 0.00, 1.32, 0.00, -1.31, 0.00, 240.87, 240.87
CTUN, 0, 0.00, -0.35, 0.000000, 0.00, 0, -29, 0, 0
ATT, 0.00, 1.69, 0.00, -1.10, 0.00, 240.84, 240.84
PM, 0, 0, 51, 1, 1000, 2075780, 13, 4
GPS, 3, 193255000, 9, 2.37, -33.7839254, 151.0682121, 1.00, 69.98, 5.05, 32.43
CTUN, 0, 0.00, -0.39, 0.000000, 0.00, 0, -31, 0, 0
ATT, 0.00, 2.07, 0.00, -0.79, 0.00, 240.82, 240.82
CTUN, 0, 0.00, -0.52, 0.000000, 0.00, 0, -33, 0, 0
ATT, 0.00, 2.33, 0.00, -0.50, 0.00, 240.81, 240.81
GPS, 3, 193255200, 9, 2.37, -33.7839231, 151.0682167, 0.74, 69.76, 6.24, 29.86
CTUN, 0, 0.00, -0.59, 0.000000, 0.00, 0, -36, 0, 0
ATT, 0.00, 2.51, 0.00, -0.22, 0.00, 240.80, 240.80
CTUN, 0, 0.00, -0.57, 0.000000, 0.00, 0, -38, 0, 0
ATT, 0.00, 2.64, 0.00, 0.04, 0.00, 240.79, 240.79
GPS, 3, 193255400, 9, 2.37, -33.7839164, 151.0682240, 0.53, 69.59, 7.49, 30.03
CTUN, 0, 0.00, -0.66, 0.000000, 0.00, 0, -39, 0, 0
ATT, 0.00, 2.75, 0.00, 0.36, 0.00, 240.77, 240.77
CTUN, 0, 0.00, -0.62, 0.000000, 0.00, 0, -41, 0, 0
ATT, 0.00, 2.85, 0.00, 0.69, 0.00, 240.76, 240.76
GPS, 3, 193255600, 9, 2.37, -33.7839041, 151.0682265, 0.32, 69.26, 7.74, 21.68
CTUN, 0, 0.00, -0.63, 0.000000, 0.00, 0, -42, 0, 0
ATT, 0.00, 3.04, 0.00, 0.73, 0.00, 240.73, 240.73
DU32, 7, 65625
CURR, 0, 0, 1102, 0, 4505, 0.000000
CTUN, 0, 0.00, -0.71, 0.000000, 0.00, 0, -43, 0, 0
ATT, 0.00, 3.32, 0.00, 0.57, 0.00, 240.73, 240.73
GPS, 3, 193255800, 9, 2.37, -33.7838958, 151.0682294, 0.12, 69.78, 7.59, 19.03
CTUN, 0, 0.00, -0.56, 0.000000, 0.00, 0, -45, 0, 0
ATT, 0.00, 3.47, 0.00, 0.44, -25.10, 240.72, 240.72
CTUN, 0, 0.00, -0.60, 0.000000, 0.00, 0, -47, 0, 0
ATT, 0.00, 3.55, 0.00, 0.31, -44.07, 240.70, 240.70
GPS, 3, 193256000, 9, 2.37, -33.7838875, 151.0682306, -0.05, 69.94, 7.23, 15.20
CTUN, 0, 0.00, -0.74, 0.000000, 0.00, 0, -48, 0, 0
ATT, 0.00, 3.61, 0.00, 0.12, -44.76, 240.69, 240.69
CTUN, 0, 0.00, -0.77, 0.000000, 0.00, 0, -48, 0, 0
ATT, 0.00, 3.65, 0.00, -0.09, -44.88, 240.69, 240.69
GPS, 3, 193256200, 9, 2.37, -33.7838833, 151.0682367, -0.22, 70.33, 6.79, 15.99
CTUN, 0, 0.00, -0.77, 0.000000, 0.00, 0, -49, 0, 0
ATT, 0.00, 3.51, 0.00, -0.17, -44.76, 240.67, 240.67
CTUN, 0, 0.00, -0.65, 0.000000, 0.00, 0, -51, 0, 0
ATT, 0.00, 3.28, 0.00, -0.14, -44.88, 240.66, 240.66
GPS, 3, 193256400, 9, 2.37, -33.7838779, 151.0682411, -0.38, 70.77, 6.39, 16.64
CTUN, 0, 0.00, -0.68, 0.000000, 0.00, 0, -51, 0, 0
ATT, 0.00, 3.13, 0.00, -0.18, -45.00, 240.66, 240.66
CTUN, 0, 0.00, -0.78, 0.000000, 0.00, 0, -52, 0, 0
ATT, 0.00, 3.05, 0.00, -0.26, -44.88, 240.70, 240.70
GPS, 3, 193256600, 9, 2.37, -33.7838714, 151.0682485, -0.52, 71.27, 6.45, 19.45
CTUN, 0, 0.00, -0.78, 0.000000, 0.00, 0, -53, 0, 0
ATT, 0.00, 2.93, 0.00, -0.23, -44.88, 240.73, 240.73
DU32, 7, 65625
CURR, 0, 0, 1102, 0, 4469, 0.000000
CTUN, 0, 0.00, -0.73, 0.000000, 0.00, 0, -53, 0, 0
ATT, 0.00, 2.79, 0.00, -0.12, -44.88, 240.71, 240.71
GPS, 3, 193256800, 9, 2.37, -33.7838609, 151.0682536, -0.65, 71.36, 6.60, 20.71
CTUN, 0, 0.00, -0.96, 0.000000, 0.00, 0, -54, 0, 0
ATT, 0.00, 2.76, 0.00, -0.08, -44.88, 240.71, 240.71
CTUN, 0, 0.00, -0.78, 0.000000, 0.00, 0, -55, 0, 0
ATT, 0.00, 2.79, 0.00, -0.10, -44.88, 240.70, 240.70
GPS, 3, 193257000, 9, 2.37, -33.7838596, 151.0682577, -0.78, 72.45, 5.88, 20.59
CTUN, 0, 0.00, -0.84, 0.000000, 0.00, 0, -56, 0, 0
ATT, 0.00, 2.75, 0.00, -0.19, -44.88, 240.68, 240.68
CTUN, 0, 0.00, -0.88, 0.000000, 0.00, 0, -56, 0, 0
ATT, 0.00, 2.65, 0.00, -0.37, -44.88, 240.67, 240.67
GPS, 3, 193257200, 9, 2.37, -33.7838571, 151.0682645, -0.90, 73.09, 5.62, 22.87
CTUN, 0, 0.00, -1.01, 0.000000, 0.00, 0, -56, 0, 0
ATT, 0.00, 2.52, 0.00, -0.41, -44.88, 240.66, 240.66
CTUN, 0, 0.00, -1.01, 0.000000, 0.00, 0, -57, 0, 0
ATT, 0.00, 2.36, 0.00, -0.39, -44.88, 240.65, 240.65
GPS, 3, 193257400, 9, 2.37, -33.7838612, 151.0682715, -1.02, 74.16, 4.74, 26.49
CTUN, 0, 0.00, -0.86, 0.000000, 0.00, 0, -57, 0, 0
ATT, 0.00, 2.14, 0.00, -0.46, -44.88, 240.62, 240.62
CTUN, 0, 0.00, -1.03, 0.000000, 0.00, 0, -57, 0, 0
ATT, 0.00, 1.90, 0.00, -0.57, -44.88, 240.62, 240.62
GPS, 3, 193257600, 9, 2.37, -33.7838604, 151.0682802, -1.12, 75.00, 4.88, 33.04
CTUN, 0, 0.00, -1.05, 0.000000, 0.00, 0, -57, 0, 0
ATT, 0.00, 1.71, 0.00, -0.57, -44.88, 240.61, 240.61
DU32, 7, 65625
CURR, 0, 0, 1102, 0, 4487, 0.000000
CTUN, 0, 0.00, -1.03, 0.000000, 0.00, 0, -57, 0, 0
ATT, 0.00, 1.60, 0.00, -0.47, -44.88, 240.59, 240.59
GPS, 3, 193257800, 9, 2.37, -33.7838545, 151.0682925, -1.23, 75.57, 6.04, 41.34
CTUN, 0, 0.00, -1.02, 0.000000, 0.00, 0, -59, 0, 0
ATT, 0.00, 1.47, 0.00, -0.26, -44.88, 240.57, 240.57
EV, 11
DU32, 7, 65625
DU32, 7, 65625
DU32, 7, 65625
DU32, 7, 65625
DU32, 7, 65625
EV, 18
DU32, 7, 98393
DU32, 7, 98393
PM, 0, 0, 51, 1, 1000, 108708, 10, 4
DU32, 7, 98393
DU32, 7, 98393
DU32, 7, 98393
DU32, 7, 98393
DU32, 7, 98393
DU32, 7, 98393
DU32, 7, 98393
DU32, 7, 98393
DU32, 7, 98393
DU32, 7, 98393
PM, 0, 0, 50, 0, 1000, 10420, 10, 4
DU32, 7, 98393
DU32, 7, 98393
DU32, 7, 98393
DU32, 7, 98393
EV, 28
DU32, 7, 65625
DU32, 7, 65625
DU32, 7, 65625
DU32, 7, 65625
DU32, 7, 65625
EV, 18
DU32, 7, 98393
PM, 0, 0, 50, 0, 1000, 10420, 10, 4
DU32, 7, 98393
DU32, 7, 98393
DU32, 7, 98393
DU32, 7, 98393
DU32, 7, 98393
DU32, 7, 98393
DU32, 7, 98393
DU32, 7, 98393
DU32, 7, 98393
DU32, 7, 98393
PM, 0, 0, 50, 1, 1000, 16500, 10, 4
DU32, 7, 98393
DU32, 7, 98393
DU32, 7, 98393
DU32, 7, 98393
DU32, 7, 98393
DU32, 7, 98393
DU32, 7, 98393
DU32, 7, 98393
DU32, 7, 98393
DU32, 7, 98393
PM, 0, 0, 50, 0, 1000, 10424, 9, 4
DU32, 7, 98393
DU32, 7, 98393
DU32, 7, 98393
D32, 9, 23939
CMD, 6, 0, 16, 0, 0, 0.00, -33.7840699, 151.0682331
EV, 10
GPS, 3, 193308600, 9, 2.50, -33.7840703, 151.0682336, 0.28, 106.72, 0.48, 26.23
ATT, 0.00, 0.33, 0.00, -1.90, 0.00, 239.49, 239.49
GPS, 3, 193310600, 9, 2.50, -33.7840738, 151.0682350, 0.28, 106.63, 0.40, 26.23
CTUN, 0, 0.00, 0.04, 0.000000, 0.00, 0, -11, 0, 0
ATT, 0.00, 0.20, 0.00, -2.28, 0.00, 239.43, 239.43
CTUN, 0, 0.00, 0.05, 0.000000, 0.00, 0, -11, 0, 0
ATT, 0.00, 0.18, 0.00, -2.72, 0.00, 239.38, 239.38
GPS, 3, 193310800, 9, 2.50, -33.7840740, 151.0682349, 0.24, 106.57, 0.39, 26.23
CTUN, 0, 0.00, 0.12, 0.000000, 0.00, 0, -12, 0, 0
ATT, 0.00, 0.18, 0.00, -2.79, 0.00, 239.38, 239.38
DU32, 7, 98393
CURR, 0, 0, 1102, 0, 4505, 0.000000
CTUN, 0, 0.00, -0.01, 0.000000, 0.00, 0, -12, 0, 0
ATT, 0.00, 0.18, 0.00, -2.77, 0.00, 239.39, 239.39
GPS, 3, 193311000, 9, 2.50, -33.7840749, 151.0682347, 0.19, 106.23, 0.49, 26.23
CTUN, 0, 0.00, 0.03, 0.000000, 0.00, 0, -12, 0, 0
ATT, 0.00, 0.17, 0.00, -2.77, 0.00, 239.39, 239.39
CTUN, 0, 0.00, -0.13, 0.000000, 0.00, 0, -12, 0, 0
ATT, 0.00, 0.13, 0.00, -2.76, 0.00, 239.38, 239.38
GPS, 3, 193311200, 9, 2.50, -33.7840757, 151.0682339, 0.14, 106.20, 0.39, 26.23
CTUN, 0, 0.00, -0.07, 0.000000, 0.00, 0, -13, 0, 0
ATT, 0.00, 0.16, 0.00, -2.75, 0.00, 239.38, 239.38
CTUN, 0, 0.00, -0.11, 0.000000, 0.00, 0, -13, 0, 0
ATT, 0.00, 0.20, 0.00, -2.73, 0.00, 239.38, 239.38
GPS, 3, 193311400, 9, 2.50, -33.7840768, 151.0682351, 0.08, 106.45, 0.56, 26.23
CTUN, 0, 0.00, -0.06, 0.000000, 0.00, 0, -13, 0, 0
ATT, 0.00, 0.15, 0.00, -2.66, 0.00, 239.39, 239.39
CTUN, 0, 0.00, -0.18, 0.000000, 0.00, 0, -14, 0, 0
ATT, 0.00, 0.10, 0.00, -2.58, 0.00, 239.40, 239.40
GPS, 3, 193311600, 9, 2.50, -33.7840779, 151.0682373, 0.03, 106.21, 1.40, 26.23
CTUN, 0, 0.00, -0.15, 0.000000, 0.00, 0, -14, 0, 0
ATT, 0.00, 0.06, 0.00, -2.30, 0.00, 239.40, 239.40
CTUN, 0, 0.00, -0.12, 0.000000, 0.00, 0, -15, 0, 0
ATT, 0.00, 0.04, 0.00, -1.96, 0.00, 239.40, 239.40
GPS, 3, 193311800, 9, 2.50, -33.7840780, 151.0682427, -0.01, 105.84, 3.19, 61.63
CTUN, 0, 0.00, 0.00, 0.000000, 0.00, 0, -15, 0, 0
ATT, 0.00, 0.02, 0.00, -1.55, 0.00, 239.40, 239.40
DU32, 7, 98393
CURR, 0, 0, 1102, 0, 4469, 0.000000
CTUN, 0, 0.00, 0.11, 0.000000, 0.00, 0, -15, 0, 0
ATT, 0.00, 0.00, 0.00, -1.12, 0.00, 239.39, 239.39
GPS, 3, 193312000, 9, 2.50, -33.7840784, 151.0682491, -0.03, 105.26, 4.60, 66.93
CTUN, 0, 0.00, 0.06, 0.000000, 0.00, 0, -15, 0, 0
ATT, 0.00, 0.00, 0.00, -0.72, 0.00, 239.37, 239.37
CTUN, 0, 0.00, 0.02, 0.000000, 0.00, 0, -15, 0, 0
ATT, 0.00, 0.00, 0.00, -0.33, 0.00, 239.35, 239.35
GPS, 3, 193312200, 9, 2.50, -33.7840791, 151.0682526, -0.05, 104.62, 4.74, 64.89
CTUN, 0, 0.00, 0.03, 0.000000, 0.00, 0, -15, 0, 0
ATT, 0.00, 0.14, 0.00, -0.20, 0.00, 239.33, 239.33
CTUN, 0, 0.00, 0.12, 0.000000, 0.00, 0, -15, 0, 0
ATT, 0.00, 0.32, 0.00, -0.14, 0.00, 239.30, 239.30
GPS, 3, 193312400, 9, 2.50, -33.7840780, 151.0682576, -0.07, 103.62, 5.36, 61.41
CTUN, 0, 0.00, 0.14, 0.000000, 0.00, 0, -15, 0, 0
ATT, 0.00, 0.46, 0.00, 0.02, 0.00, 239.29, 239.29
CTUN, 0, 0.00, 0.08, 0.000000, 0.00, 0, -14, 0, 0
ATT, 0.00, 0.58, 0.00, 0.23, 0.00, 239.27, 239.27
GPS, 3, 193312600, 9, 2.50, -33.7840788, 151.0682639, -0.07, 102.61, 6.05, 60.77
CTUN, 0, 0.00, 0.31, 0.000000, 0.00, 0, -14, 0, 0
ATT, 0.00, 0.57, 0.00, 0.45, 0.00, 239.25, 239.25
CTUN, 0, 0.00, 0.08, 0.000000, 0.00, 0, -14, 0, 0
ATT, 0.00, 0.53, 0.00, 0.69, 0.00, 239.22, 239.22
GPS, 3, 193312800, 9, 2.50, -33.7840795, 151.0682710, -0.07, 101.45, 5.95, 61.56
CTUN, 0, 0.00, 0.21, 0.000000, 0.00, 0, -14, 0, 0
ATT, 0.00, 0.46, 0.00, 0.69, 0.00, 239.19, 239.19
DU32, 7, 98393
CURR, 0, 0, 1102, 0, 4505, 0.000000
CTUN, 0, 0.00, 0.17, 0.000000, 0.00, 0, -14, 0, 0
ATT, 0.00, 0.38, 0.00, 0.63, 0.00, 239.15, 239.15
CTUN, 0, 0.00, 0.24, 0.000000, 0.00, 0, -14, 0, 0
GPS, 3, 193313000, 9, 2.50, -33.7840800, 151.0682772, -0.07, 100.36, 5.93, 61.67
ATT, 0.00, 0.37, 0.00, 0.59, 0.00, 239.08, 239.08
CTUN, 0, 0.00, 0.34, 0.000000, 0.00, 0, -14, 0, 0
ATT, 0.00, 0.38, 0.00, 0.56, 0.00, 239.02, 239.02
GPS, 3, 193313200, 8, 2.52, -33.7840814, 151.0682807, -0.06, 98.73, 5.39, 60.76
CTUN, 0, 0.00, 0.27, 0.000000, 0.00, 0, -14, 0, 0
ATT, 0.00, 0.46, 0.00, 0.37, 0.00, 238.99, 238.99
CTUN, 0, 0.00, 0.33, 0.000000, 0.00, 0, -13, 0, 0
ATT, 0.00, 0.56, 0.00, 0.13, 0.00, 238.97, 238.97
GPS, 3, 193313400, 8, 2.52, -33.7840833, 151.0682848, -0.04, 97.38, 4.50, 61.32
CTUN, 0, 0.00, 0.29, 0.000000, 0.00, 0, -13, 0, 0
ATT, 0.00, 0.54, 0.00, -0.13, 0.00, 238.95, 238.95
CTUN, 0, 0.00, 0.24, 0.000000, 0.00, 0, -13, 0, 0
ATT, 0.00, 0.48, 0.00, -0.43, 0.00, 238.93, 238.93
GPS, 3, 193313600, 9, 2.50, -33.7840838, 151.0682919, -0.03, 96.47, 4.23, 64.09
CTUN, 0, 0.00, 0.46, 0.000000, 0.00, 0, -12, 0, 0
ATT, 0.00, 0.37, 0.00, -0.57, 0.00, 238.91, 238.91
CTUN, 0, 0.00, 0.41, 0.000000, 0.00, 0, -12, 0, 0
ATT, 0.00, 0.27, 0.00, -0.67, 0.00, 238.89, 238.89
GPS, 3, 193313800, 9, 2.50, -33.7840833, 151.0682979, 0.00, 95.45, 4.04, 65.45
CTUN, 0, 0.00, 0.30, 0.000000, 0.00, 0, -12, 0, 0
ATT, 0.00, 0.27, 0.00, -0.74, -6.36, 238.87, 238.87
DU32, 7, 98393
CURR, 0, 0, 1102, 0, 4487, 0.000000
CTUN, 0, 0.00, 0.38, 0.000000, 0.00, 0, -11, 0, 0
ATT, 0.00, 0.29, 0.00, -0.80, -30.30, 238.86, 238.86
GPS, 3, 193314000, 9, 2.50, -33.7840831, 151.0683071, 0.01, 94.33, 4.56, 69.18
CTUN, 0, 0.00, 0.53, 0.000000, 0.00, 0, -11, 0, 0
ATT, 0.00, 0.18, 0.00, -0.71, -44.53, 238.85, 238.85
CTUN, 0, 0.00, 0.59, 0.000000, 0.00, 0, -11, 0, 0
ATT, 0.00, 0.04, 0.00, -0.59, -44.76, 238.83, 238.83
GPS, 3, 193314200, 9, 2.50, -33.7840804, 151.0683179, 0.05, 93.54, 5.17, 70.21
CTUN, 0, 0.00, 0.52, 0.000000, 0.00, 0, -10, 0, 0
ATT, 0.00, 0.02, 0.00, -0.43, -44.88, 238.81, 238.81
CTUN, 0, 0.00, 0.66, 0.000000, 0.00, 0, -9, 0, 0
ATT, 0.00, 0.02, 0.00, -0.25, -44.76, 238.78, 238.78
GPS, 3, 193314400, 9, 2.50, -33.7840807, 151.0683213, 0.09, 92.94, 3.81, 69.23
CTUN, 0, 0.00, 0.55, 0.000000, 0.00, 0, -9, 0, 0
ATT, 0.00, 0.11, 0.00, -0.45, -44.88, 238.77, 238.77
CTUN, 0, 0.00, 0.50, 0.000000, 0.00, 0, -8, 0, 0
ATT, 0.00, 0.24, 0.00, -0.76, -44.88, 238.75, 238.75
GPS, 3, 193314600, 9, 2.50, -33.7840792, 151.0683277, 0.13, 92.19, 3.70, 67.87
CTUN, 0, 0.00, 0.67, 0.000000, 0.00, 0, -8, 0, 0
ATT, 0.00, 0.30, 0.00, -0.86, -44.88, 238.73, 238.73
CTUN, 0, 0.00, 0.68, 0.000000, 0.00, 0, -7, 0, 0
ATT, 0.00, 0.33, 0.00, -0.89, -44.88, 238.71, 238.71
GPS, 3, 193314800, 9, 2.49, -33.7840784, 151.0683335, 0.18, 91.62, 3.40, 67.84
CTUN, 0, 0.00, 0.70, 0.000000, 0.00, 0, -6, 0, 0
ATT, 0.00, 0.33, 0.00, -0.97, -44.88, 238.70, 238.70
DU32, 7, 98393
CURR, 0, 0, 1102, 0, 4452, 0.000000
CTUN, 0, 0.00, 0.73, 0.000000, 0.00, 0, -6, 0, 0
ATT, 0.00, 0.32, 0.00, -1.05, -44.88, 238.69, 238.69
GPS, 3, 193315000, 8, 2.77, -33.7840793, 151.0683365, 0.22, 90.59, 2.70, 68.37
CTUN, 0, 0.00, 0.77, 0.000000, 0.00, 0, -5, 0, 0
ATT, 0.00, 0.34, 0.00, -1.24, -44.88, 238.68, 238.68
CTUN, 0, 0.00, 0.67, 0.000000, 0.00, 0, -5, 0, 0
ATT, 0.00, 0.35, 0.00, -1.44, -44.88, 238.67, 238.67
CTUN, 0, 0.00, 0.94, 0.000000, 0.00, 0, -4, 0, 0
GPS, 3, 193315200, 7, 2.87, -33.7840803, 151.0683382, 0.28, 89.79, 2.08, 69.22
ATT, 0.00, 0.38, 0.00, -1.61, -44.88, 238.66, 238.66
CTUN, 0, 0.00, 0.99, 0.000000, 0.00, 0, -3, 0, 0
ATT, 0.00, 0.40, 0.00, -1.77, -44.88, 238.65, 238.65
GPS, 3, 193315400, 7, 2.87, -33.7840813, 151.0683372, 0.34, 89.33, 1.22, 69.22
CTUN, 0, 0.00, 0.94, 0.000000, 0.00, 0, -3, 0, 0
ATT, 0.00, 0.48, 0.00, -2.00, -44.88, 238.65, 238.65
CTUN, 0, 0.00, 0.90, 0.000000, 0.00, 0, -2, 0, 0
GPS, 3, 193315600, 7, 2.87, -33.7840828, 151.0683361, 0.41, 88.90, 0.63, 69.22
ATT, 0.00, 0.60, 0.00, -2.27, -44.88, 238.65, 238.65
CTUN, 0, 0.00, 0.99, 0.000000, 0.00, 0, -1, 0, 0
ATT, 0.00, 0.60, 0.00, -2.42, -44.88, 238.66, 238.66
CTUN, 0, 0.00, 1.04, 0.000000, 0.00, 0, 0, 0, 0
GPS, 3, 193315800, 7, 2.87, -33.7840834, 151.0683357, 0.47, 88.28, 0.50, 69.22
ATT, 0.00, 0.62, 0.00, -2.57, -44.88, 238.67, 238.67
CTUN, 0, 0.00, 0.94, 0.000000, 0.00, 0, 0, 0, 0
DU32, 7, 98393
CURR, 0, 0, 1102, 0, 4469, 0.000000
ATT, 0.00, 0.63, 0.00, -2.60, -44.88, 238.68, 238.68
CTUN, 0, 0.00, 1.10, 0.000000, 0.00, 0, 0, 0, 0
EV, 11
DU32, 7, 98393
PM, 0, 0, 52, 2, 1001, 2071192, 13, 4
DU32, 7, 98393
DU32, 7, 98393
DU32, 7, 98393
DU32, 7, 98393
DU32, 7, 98393
DU32, 7, 98393
DU32, 7, 98393
DU32, 7, 98393
DU32, 7, 98393
DU32, 7, 98393
PM, 0, 0, 49, 0, 1000, 10416, 10, 4
DU32, 7, 98393
DU32, 7, 98393
DU32, 7, 98393
DU32, 7, 98393
DU32, 7, 98393
DU32, 7, 98393
DU32, 7, 98393
DU32, 7, 98393
DU32, 7, 98393
DU32, 7, 98393
PM, 0, 0, 50, 0, 1000, 10416, 10, 4
DU32, 7, 98393
DU32, 7, 98393
DU32, 7, 98393
DU32, 7, 98393
EV, 28
DU32, 7, 65625
DU32, 7, 65625
DU32, 7, 65625
EV, 18
DU32, 7, 98393
DU32, 7, 98393
DU32, 7, 98393
PM, 0, 0, 50, 1, 1000, 17056, 10, 4
DU32, 7, 98393
D32, 9, 24063
CMD, 6, 0, 16, 0, 0, 0.00, -33.7840908, 151.0681503
EV, 10
GPS, 3, 193349000, 8, 2.33, -33.7840903, 151.0681505, 0.12, 110.30, 1.06, 289.23
CTUN, 0, 0.00, -0.04, 0.000000, 0.00, 0, -8, 0, 0
ATT, 0.00, 0.39, 0.00, -1.65, 0.00, 240.63, 240.63
DU32, 7, 98393
CURR, 0, 0, 1102, 0, 4487, 0.000000
CTUN, 0, 0.00, -0.01, 0.000000, 0.00, 0, -8, 0, 0
ATT, 0.00, -0.07, 0.00, -1.34, 0.00, 240.62, 240.62
GPS, 3, 193351200, 9, 2.31, -33.7840918, 151.0681528, 0.08, 112.33, 0.77, 289.23
CTUN, 0, 0.00, -0.08, 0.000000, 0.00, 0, -8, 0, 0
ATT, 0.00, -0.33, 0.00, -1.11, 0.00, 240.60, 240.60
CTUN, 0, 0.00, 0.08, 0.000000, 0.00, 0, -9, 0, 0
ATT, 0.00, -0.28, 0.00, -0.99, 0.00, 240.58, 240.58
GPS, 3, 193351400, 9, 2.31, -33.7840915, 151.0681477, 0.05, 112.98, 1.12, 289.23
CTUN, 0, 0.00, -0.14, 0.000000, 0.00, 0, -9, 0, 0
ATT, 0.00, -0.22, 0.00, -0.94, 0.00, 240.55, 240.55
CTUN, 0, 0.00, -0.09, 0.000000, 0.00, 0, -9, 0, 0
ATT, 0.00, -0.11, 0.00, -1.01, 0.00, 240.52, 240.52
GPS, 3, 193351600, 9, 2.31, -33.7840918, 151.0681419, 0.01, 113.62, 1.56, 289.23
CTUN, 0, 0.00, -0.17, 0.000000, 0.00, 0, -9, 0, 0
ATT, 0.00, -0.04, 0.00, -1.11, 0.00, 240.49, 240.49
CTUN, 0, 0.00, -0.15, 0.000000, 0.00, 0, -10, 0, 0
ATT, 0.00, 0.00, 0.00, -1.24, 0.00, 240.46, 240.46
GPS, 3, 193351800, 9, 2.31, -33.7840905, 151.0681370, -0.02, 114.27, 1.39, 289.23
CTUN, 0, 0.00, -0.16, 0.000000, 0.00, 0, -10, 0, 0
ATT, 0.00, 0.04, 0.00, -1.28, 0.00, 240.44, 240.44
CTUN, 0, 0.00, -0.11, 0.000000, 0.00, 0, -10, 0, 0
ATT, 0.00, 0.07, 0.00, -1.21, 0.00, 240.42, 240.42
GPS, 3, 193352000, 9, 2.31, -33.7840899, 151.0681355, -0.05, 114.54, 0.61, 289.23
CTUN, 0, 0.00, -0.22, 0.000000, 0.00, 0, -10, 0, 0
ATT, 0.00, 0.06, 0.00, -1.08, 0.00, 240.39, 240.39
DU32, 7, 98393
CURR, 0, 0, 1102, 0, 4469, 0.000000
CTUN, 0, 0.00, -0.17, 0.000000, 0.00, 0, -10, 0, 0
ATT, 0.00, -0.04, 0.00, -0.89, 0.00, 240.37, 240.37
GPS, 3, 193352200, 9, 2.31, -33.7840882, 151.0681340, -0.09, 114.37, 0.53, 289.23
CTUN, 0, 0.00, -0.14, 0.000000, 0.00, 0, -11, 0, 0
ATT, 0.00, -0.10, 0.00, -0.72, 0.00, 240.34, 240.34
CTUN, 0, 0.00, -0.17, 0.000000, 0.00, 0, -11, 0, 0
ATT, 0.00, -0.12, 0.00, -0.57, 0.00, 240.30, 240.30
GPS, 3, 193352400, 9, 2.31, -33.7840879, 151.0681331, -0.12, 114.76, 0.66, 289.23
CTUN, 0, 0.00, -0.19, 0.000000, 0.00, 0, -11, 0, 0
ATT, 0.00, -0.16, 0.00, -0.43, 0.00, 240.27, 240.27
CTUN, 0, 0.00, -0.15, 0.000000, 0.00, 0, -11, 0, 0
ATT, 0.00, -0.24, 0.00, -0.32, 0.00, 240.23, 240.23
GPS, 3, 193352600, 9, 2.31, -33.7840885, 151.0681322, -0.15, 115.52, 0.59, 289.23
CTUN, 0, 0.00, -0.19, 0.000000, 0.00, 0, -12, 0, 0
ATT, 0.00, -0.31, 0.00, -0.28, 0.00, 240.18, 240.18
CTUN, 0, 0.00, -0.23, 0.000000, 0.00, 0, -12, 0, 0
ATT, 0.00, -0.37, 0.00, -0.31, 0.00, 240.14, 240.14
GPS, 3, 193352800, 9, 2.31, -33.7840890, 151.0681312, -0.18, 116.29, 0.45, 289.23
CTUN, 0, 0.00, -0.10, 0.000000, 0.00, 0, -12, 0, 0
ATT, 0.00, -0.42, 0.00, -0.36, 0.00, 240.10, 240.10
CTUN, 0, 0.00, -0.15, 0.000000, 0.00, 0, -12, 0, 0
ATT, 0.00, -0.45, 0.00, -0.43, 0.00, 240.06, 240.06
GPS, 3, 193353000, 9, 2.31, -33.7840888, 151.0681307, -0.20, 117.39, 0.55, 289.23
CTUN, 0, 0.00, -0.20, 0.000000, 0.00, 0, -12, 0, 0
ATT, 0.00, -0.45, 0.00, -0.44, 0.00, 240.02, 240.02
DU32, 7, 98393
CURR, 0, 0, 1102, 0, 4487, 0.000000
CTUN, 0, 0.00, -0.23, 0.000000, 0.00, 0, -12, 0, 0
ATT, 0.00, -0.43, 0.00, -0.42, 0.00, 239.99, 239.99
GPS, 3, 193353200, 9, 2.31, -33.7840875, 151.0681321, -0.22, 118.34, 1.25, 289.23
CTUN, 0, 0.00, -0.25, 0.000000, 0.00, 0, -12, 0, 0
ATT, 0.00, -0.41, 0.00, -0.31, 0.00, 239.96, 239.96
CTUN, 0, 0.00, -0.05, 0.000000, 0.00, 0, -12, 0, 0
ATT, 0.00, -0.40, 0.00, -0.13, 0.00, 239.92, 239.92
GPS, 3, 193353400, 9, 2.31, -33.7840872, 151.0681318, -0.24, 119.02, 0.98, 289.23
CTUN, 0, 0.00, -0.17, 0.000000, 0.00, 0, -12, 0, 0
ATT, 0.00, -0.37, 0.00, -0.11, 0.00, 239.89, 239.89
CTUN, 0, 0.00, -0.13, 0.000000, 0.00, 0, -12, 0, 0
ATT, 0.00, -0.33, 0.00, -0.20, 0.00, 239.85, 239.85
GPS, 3, 193353600, 9, 2.30, -33.7840859, 151.0681353, -0.25, 119.43, 1.20, 289.23
CTUN, 0, 0.00, -0.02, 0.000000, 0.00, 0, -12, 0, 0
ATT, 0.00, -0.29, 0.00, -0.20, 0.00, 239.82, 239.82
CTUN, 0, 0.00, -0.04, 0.000000, 0.00, 0, -12, 0, 0
ATT, 0.00, -0.25, 0.00, -0.16, 0.00, 239.79, 239.79
GPS, 3, 193353800, 9, 2.30, -33.7840855, 151.0681389, -0.25, 119.59, 1.27, 289.23
CTUN, 0, 0.00, -0.08, 0.000000, 0.00, 0, -12, 0, 0
ATT, 0.00, -0.24, 0.00, -0.13, -0.34, 239.76, 239.76
CTUN, 0, 0.00, -0.17, 0.000000, 0.00, 0, -12, 0, 0
ATT, 0.00, -0.26, 0.00, -0.13, -16.54, 239.73, 239.73
GPS, 3, 193354000, 9, 2.30, -33.7840842, 151.0681416, -0.26, 119.67, 1.28, 289.23
CTUN, 0, 0.00, -0.16, 0.000000, 0.00, 0, -12, 0, 0
ATT, 0.00, -0.23, 0.00, -0.13, -39.67, 239.70, 239.70
DU32, 7, 98393
CURR, 0, 0, 1102, 0, 4487, 0.000000
CTUN, 0, 0.00, -0.11, 0.000000, 0.00, 0, -12, 0, 0
ATT, 0.00, -0.18, 0.00, -0.14, -44.30, 239.67, 239.67
GPS, 3, 193354200, 9, 2.30, -33.7840854, 151.0681426, -0.27, 119.52, 0.78, 289.23
CTUN, 0, 0.00, -0.15, 0.000000, 0.00, 0, -12, 0, 0
ATT, 0.00, -0.17, 0.00, -0.24, -44.30, 239.64, 239.64
CTUN, 0, 0.00, -0.19, 0.000000, 0.00, 0, -12, 0, 0
ATT, 0.00, -0.20, 0.00, -0.41, -44.53, 239.62, 239.62
GPS, 3, 193354400, 9, 2.30, -33.7840859, 151.0681467, -0.28, 119.37, 1.07, 289.23
CTUN, 0, 0.00, -0.10, 0.000000, 0.00, 0, -12, 0, 0
ATT, 0.00, -0.28, 0.00, -0.45, -44.53, 239.59, 239.59
CTUN, 0, 0.00, -0.27, 0.000000, 0.00, 0, -12, 0, 0
ATT, 0.00, -0.40, 0.00, -0.41, -44.53, 239.57, 239.57
GPS, 3, 193354600, 9, 2.30, -33.7840861, 151.0681506, -0.29, 119.00, 1.14, 289.23
CTUN, 0, 0.00, -0.27, 0.000000, 0.00, 0, -12, 0, 0
ATT, 0.00, -0.49, 0.00, -0.41, -44.53, 239.54, 239.54
CTUN, 0, 0.00, -0.17, 0.000000, 0.00, 0, -12, 0, 0
ATT, 0.00, -0.55, 0.00, -0.45, -44.42, 239.51, 239.51
GPS, 3, 193354800, 9, 2.30, -33.7840853, 151.0681544, -0.31, 118.84, 1.31, 289.23
CTUN, 0, 0.00, -0.30, 0.000000, 0.00, 0, -12, 0, 0
ATT, 0.00, -0.55, 0.00, -0.43, -44.53, 239.48, 239.48
CTUN, 0, 0.00, -0.33, 0.000000, 0.00, 0, -12, 0, 0
ATT, 0.00, -0.52, 0.00, -0.36, -44.53, 239.44, 239.44
GPS, 3, 193355000, 9, 2.30, -33.7840847, 151.0681560, -0.33, 119.02, 1.05, 289.23
CTUN, 0, 0.00, -0.18, 0.000000, 0.00, 0, -12, 0, 0
ATT, 0.00, -0.44, 0.00, -0.37, -44.42, 239.42, 239.42
DU32, 7, 98393
CURR, 0, 0, 1102, 0, 4505, 0.000000
CTUN, 0, 0.00, -0.27, 0.000000, 0.00, 0, -12, 0, 0
ATT, 0.00, -0.33, 0.00, -0.41, -45.00, 239.39, 239.39
GPS, 3, 193355200, 9, 2.30, -33.7840831, 151.0681601, -0.35, 119.08, 1.47, 289.23
CTUN, 0, 0.00, -0.17, 0.000000, 0.00, 0, -12, 0, 0
ATT, 0.00, -0.26, 0.00, -0.36, -45.00, 239.37, 239.37
CTUN, 0, 0.00, -0.19, 0.000000, 0.00, 0, -12, 0, 0
ATT, 0.00, -0.23, 0.00, -0.24, -45.00, 239.34, 239.34
GPS, 3, 193355400, 9, 2.29, -33.7840831, 151.0681634, -0.35, 119.08, 1.25, 289.23
CTUN, 0, 0.00, -0.23, 0.000000, 0.00, 0, -12, 0, 0
ATT, 0.00, -0.23, 0.00, -0.24, -45.00, 239.30, 239.30
CTUN, 0, 0.00, -0.16, 0.000000, 0.00, 0, -12, 0, 0
ATT, 0.00, -0.25, 0.00, -0.33, -45.00, 239.27, 239.27
GPS, 3, 193355600, 9, 2.29, -33.7840827, 151.0681657, -0.36, 118.65, 0.99, 289.23
CTUN, 0, 0.00, -0.03, 0.000000, 0.00, 0, -12, 0, 0
ATT, 0.00, -0.25, 0.00, -0.42, -45.00, 239.24, 239.24
CTUN, 0, 0.00, -0.06, 0.000000, 0.00, 0, -12, 0, 0
ATT, 0.00, -0.23, 0.00, -0.51, -44.88, 239.21, 239.21
GPS, 3, 193355800, 9, 2.29, -33.7840816, 151.0681685, -0.35, 118.53, 1.20, 289.23
CTUN, 0, 0.00, 0.02, 0.000000, 0.00, 0, -11, 0, 0
ATT, 0.00, -0.19, 0.00, -0.51, -45.00, 239.18, 239.18
CTUN, 0, 0.00, -0.09, 0.000000, 0.00, 0, -11, 0, 0
ATT, 0.00, -0.14, 0.00, -0.44, -45.00, 239.16, 239.16
EV, 11
DU32, 7, 98393
DU32, 7, 98393
DU32, 7, 98393
DU32, 7, 98393
PM, 0, 0, 51, 2, 1000, 2074092, 12, 4
DU32, 7, 98393
DU32, 7, 98393
DU32, 7, 98393
DU32, 7, 98393
DU32, 7, 98393
DU32, 7, 98393
DU32, 7, 98393
DU32, 7, 98393
DU32, 7, 98393
DU32, 7, 98393
PM, 0, 0, 50, 0, 1000, 10420, 10, 4
DU32, 7, 98393
DU32, 7, 98393
DU32, 7, 98393
DU32, 7, 98393
DU32, 7, 98393
DU32, 7, 98393
DU32, 7, 98393
DU32, 7, 98393
DU32, 7, 98393
DU32, 7, 98393
PM, 0, 0, 50, 0, 1000, 10424, 10, 4
DU32, 7, 98393
DU32, 7, 98393
DU32, 7, 98393
DU32, 7, 98393
DU32, 7, 98393
DU32, 7, 98393
DU32, 7, 98393
DU32, 7, 98393
DU32, 7, 98393
DU32, 7, 98393
PM, 0, 0, 50, 1, 1000, 16588, 10, 4
DU32, 7, 98393
DU32, 7, 98393
DU32, 7, 98393
DU32, 7, 98393
DU32, 7, 98393
DU32, 7, 98393
DU32, 7, 98393
DU32, 7, 98393
DU32, 7, 98393
DU32, 7, 98393
PM, 0, 0, 50, 0, 1000, 10432, 10, 4
DU32, 7, 98393
DU32, 7, 98393
DU32, 7, 98393
DU32, 7, 98393
DU32, 7, 98393
DU32, 7, 98393
EV, 28
DU32, 7, 65625
DU32, 7, 65625
DU32, 7, 65625
EV, 18
DU32, 7, 98393
PM, 0, 0, 50, 0, 1000, 10412, 10, 4
DU32, 7, 98393
DU32, 7, 98393
DU32, 7, 98393
DU32, 7, 98393
DU32, 7, 98393
DU32, 7, 98393
DU32, 7, 98393
DU32, 7, 98393
DU32, 7, 98393
DU32, 7, 98393
PM, 0, 0, 50, 0, 1000, 10424, 10, 4
DU32, 7, 98393
DU32, 7, 98393
DU32, 7, 98393
DU32, 7, 98393
DU32, 7, 98393
DU32, 7, 98393
DU32, 7, 98393
DU32, 7, 98393
DU32, 7, 98393
D32, 9, 23956
CMD, 6, 0, 16, 0, 0, 0.00, -33.7841035, 151.0682146
EV, 10
GPS, 3, 193428400, 10, 2.27, -33.7841025, 151.0682146, 1.66, 106.05, 0.18, 7.86
CTUN, 0, 0.00, 0.00, 0.000000, 0.00, 0, 15, 0, 0
ATT, 0.00, 0.65, 0.00, -2.03, 0.00, 239.52, 239.52
GPS, 3, 193430400, 10, 2.27, -33.7840990, 151.0682144, 1.68, 107.07, 0.27, 7.86
CTUN, 0, 0.00, 0.00, 0.000000, 0.00, 0, 13, 0, 0
ATT, 0.00, 0.51, 0.00, -2.04, 0.00, 239.54, 239.54
ATT, 0.00, 0.36, 0.00, -1.99, 0.00, 239.56, 239.56
CTUN, 0, 0.00, 0.00, 0.000000, 0.00, 0, 12, 0, 0
GPS, 3, 193430600, 10, 2.27, -33.7841000, 151.0682143, 1.50, 107.08, 0.26, 7.86
ATT, 0.00, 0.31, 0.00, -1.98, 0.00, 239.58, 239.58
CTUN, 0, 0.00, 0.00, 0.000000, 0.00, 0, 10, 0, 0
GPS, 3, 193430800, 10, 2.27, -33.7841005, 151.0682138, 1.36, 107.22, 0.11, 7.86
ATT, 0.00, 0.30, 0.00, -1.99, 0.00, 239.57, 239.57
CTUN, 0, 0.00, -0.10, 0.000000, 0.00, 0, 8, 0, 0
ATT, 0.00, 0.33, 0.00, -2.05, 0.00, 239.56, 239.56
CTUN, 0, 0.00, -0.07, 0.000000, 0.00, 0, 6, 0, 0
GPS, 3, 193431000, 10, 2.27, -33.7841021, 151.0682144, 1.21, 107.28, 0.45, 7.86
ATT, 0.00, 0.36, 0.00, -2.10, 0.00, 239.55, 239.55
CTUN, 0, 0.00, -0.09, 0.000000, 0.00, 0, 5, 0, 0
ATT, 0.00, 0.30, 0.00, -2.01, 0.00, 239.55, 239.55
CTUN, 0, 0.00, -0.08, 0.000000, 0.00, 0, 3, 0, 0
GPS, 3, 193431200, 9, 2.34, -33.7841076, 151.0682147, 1.06, 107.50, 0.61, 7.86
ATT, 0.00, 0.24, 0.00, -1.92, 0.00, 239.55, 239.55
CTUN, 0, 0.00, -0.07, 0.000000, 0.00, 0, 1, 0, 0
DU32, 7, 98393
CURR, 0, 0, 1102, 0, 4541, 0.000000
ATT, 0.00, 0.18, 0.00, -1.95, 0.00, 239.54, 239.54
CTUN, 0, 0.00, -0.10, 0.000000, 0.00, 0, 0, 0, 0
PM, 0, 0, 51, 2, 1000, 2071196, 12, 4
GPS, 3, 193431400, 9, 2.34, -33.7841100, 151.0682148, 0.93, 107.64, 0.53, 7.86
ATT, 0.00, 0.10, 0.00, -1.96, 0.00, 239.53, 239.53
CTUN, 0, 0.00, -0.11, 0.000000, 0.00, 0, 0, 0, 0
ATT, 0.00, 0.14, 0.00, -1.96, 0.00, 239.53, 239.53
CTUN, 0, 0.00, -0.17, 0.000000, 0.00, 0, -2, 0, 0
GPS, 3, 193431600, 9, 2.34, -33.7841115, 151.0682144, 0.80, 107.55, 0.36, 7.86
ATT, 0.00, 0.19, 0.00, -1.95, 0.00, 239.51, 239.51
CTUN, 0, 0.00, -0.26, 0.000000, 0.00, 0, -3, 0, 0
ATT, 0.00, 0.24, 0.00, -1.95, 0.00, 239.51, 239.51
CTUN, 0, 0.00, -0.19, 0.000000, 0.00, 0, -4, 0, 0
