dump 6

ArduCopter V3.1-rc3.1
Free RAM: 1138
APM 2
FMT, 128, 89, FMT, BBnNZ, Type,Length,Name,Format
FMT, 129, 23, PARM, Nf, Name,Value
FMT, 130, 35, GPS, BIBcLLeeEe, Status,Time,NSats,HDop,Lat,Lng,RelAlt,Alt,Spd,GCrs
FMT, 131, 27, IMU, ffffff, GyrX,GyrY,GyrZ,AccX,AccY,AccZ
FMT, 132, 67, MSG, Z, Message
FMT, 9, 19, CURR, hIhhhf, Thr,ThrInt,Volt,Curr,Vcc,CurrTot
FMT, 11, 11, MOT, hhhh, Mot1,Mot2,Mot3,Mot4
FMT, 12, 28, OF, hhBccffee, Dx,Dy,SQual,X,Y,Lat,Lng,Roll,Pitch
FMT, 5, 49, NTUN, Ecffffffffee, WPDst,WPBrg,PErX,PErY,DVelX,DVelY,VelX,VelY,DAcX,DAcY,DRol,DPit
FMT, 4, 25, CTUN, hcefchhhh, ThrIn,SonAlt,BarAlt,WPAlt,DesSonAlt,AngBst,CRate,ThrOut,DCRate
FMT, 15, 21, MAG, hhhhhhhhh, MagX,MagY,MagZ,OfsX,OfsY,OfsZ,MOfsX,MOfsY,MOfsZ
FMT, 6, 17, PM, BBBHHIhB, RenCnt,RenBlw,FixCnt,NLon,NLoop,MaxT,PMT,I2CErr
FMT, 8, 20, CMD, BBBBBeLL, CTot,CNum,CId,COpt,Prm1,Alt,Lat,Lng
FMT, 1, 17, ATT, cccccCC, RollIn,Roll,PitchIn,Pitch,YawIn,Yaw,NavYaw
FMT, 17, 37, INAV, cccfffiiff, BAlt,IAlt,IClb,ACorrX,ACorrY,ACorrZ,GLat,GLng,ILat,ILng
FMT, 3, 6, MODE, Mh, Mode,ThrCrs
FMT, 10, 3, STRT, , 
FMT, 13, 4, EV, B, Id
FMT, 20, 6, D16, Bh, Id,Value
FMT, 21, 6, DU16, BH, Id,Value
FMT, 22, 8, D32, Bi, Id,Value
FMT, 23, 8, DU32, BI, Id,Value
FMT, 24, 8, DFLT, Bf, Id,Value
FMT, 14, 28, PID, Biiiiif, Id,Error,P,I,D,Out,Gain
FMT, 18, 25, CAM, ILLeccC, GPSTime,Lat,Lng,Alt,Roll,Pitch,Yaw
FMT, 19, 5, ERR, BB, Subsys,ECode
D32, 9, 5856
CMD, 6, 0, 16, 0, 0, 0.00, -33.7840638, 151.0681687
EV, 10
GPS, 3, 277128200, 14, 1.64, -33.7840637, 151.0681687, -0.62, 96.23, 0.01, 328.92
CTUN, 0, 0.00, 0.02, 0.000000, 0.00, 0, 0, 0, 0
ATT, 0.00, 0.25, 0.00, 0.92, 0.00, 58.60, 58.60
GPS, 3, 277135600, 14, 1.64, -33.7840619, 151.0681666, -0.59, 96.66, 0.03, 328.92
ATT, 0.00, 0.11, 0.00, 0.96, 0.00, 58.59, 58.59
CTUN, 0, 0.00, -0.01, 0.000000, 0.00, 0, 0, 0, 0
ATT, 0.00, 0.13, 0.00, 0.97, 0.00, 58.57, 58.57
CTUN, 0, 0.00, -0.03, 0.000000, 0.00, 0, 1, 0, 0
GPS, 3, 277135800, 14, 1.65, -33.7840620, 151.0681665, -0.52, 96.66, 0.02, 328.92
ATT, 0.00, 0.13, 0.00, 0.98, 0.00, 58.60, 58.60
CTUN, 0, 0.00, 0.00, 0.000000, 0.00, 0, 2, 0, 0
DU32, 7, 1625
CURR, 0, 0, 1217, 89, 4732, 0.112440
ATT, 0.00, 0.14, 0.00, 1.00, 0.00, 58.56, 58.56
CTUN, 0, 0.00, -0.07, 0.000000, 0.00, 0, 3, 0, 0
GPS, 3, 277136000, 14, 1.65, -33.7840620, 151.0681665, -0.46, 96.67, 0.03, 328.92
ATT, 0.00, 0.14, 0.00, 1.02, 0.00, 58.61, 58.61
CTUN, 0, 0.00, 0.00, 0.000000, 0.00, 0, 3, 0, 0
ATT, 0.00, 0.12, 0.00, 1.05, 0.00, 58.65, 58.65
CTUN, 0, 0.00, -0.03, 0.000000, 0.00, 0, 4, 0, 0
GPS, 3, 277136200, 14, 1.65, -33.7840622, 151.0681666, -0.40, 96.66, 0.08, 328.92
ATT, 0.00, 0.14, 0.00, 1.05, 0.00, 58.67, 58.67
CTUN, 0, 0.00, -0.08, 0.000000, 0.00, 0, 4, 0, 0
ATT, 0.00, 0.15, 0.00, 1.07, 0.00, 58.71, 58.71
CTUN, 0, 0.00, -0.09, 0.000000, 0.00, 0, 4, 0, 0
GPS, 3, 277136400, 14, 1.65, -33.7840623, 151.0681666, -0.35, 96.66, 0.07, 328.92
ATT, 0.00, 0.16, 0.00, 1.08, 0.00, 58.73, 58.73
CTUN, 0, 0.00, -0.05, 0.000000, 0.00, 0, 5, 0, 0
ATT, 0.00, 0.17, 0.00, 1.08, 0.00, 58.74, 58.74
CTUN, 0, 0.00, -0.12, 0.000000, 0.00, 0, 5, 0, 0
GPS, 3, 277136600, 14, 1.65, -33.7840624, 151.0681666, -0.31, 96.66, 0.05, 328.92
ATT, 0.00, 0.15, 0.00, 1.12, 0.00, 58.78, 58.78
CTUN, 0, 0.00, -0.10, 0.000000, 0.00, 0, 6, 0, 0
ATT, 0.00, 0.15, 0.00, 1.13, 0.00, 58.79, 58.79
CTUN, 0, 0.00, -0.10, 0.000000, 0.00, 0, 6, 0, 0
GPS, 3, 277136800, 14, 1.65, -33.7840625, 151.0681666, -0.27, 96.67, 0.06, 328.92
ATT, 0.00, 0.15, 0.00, 1.15, 0.00, 58.81, 58.81
CTUN, 0, 0.00, -0.11, 0.000000, 0.00, 0, 6, 0, 0
DU32, 7, 1625
CURR, 0, 0, 1216, 73, 4693, 0.311447
ATT, 0.00, 0.16, 0.00, 1.16, 0.00, 58.84, 58.84
CTUN, 0, 0.00, -0.07, 0.000000, 0.00, 0, 6, 0, 0
GPS, 3, 277137000, 14, 1.65, -33.7840627, 151.0681666, -0.24, 96.67, 0.07, 328.92
ATT, 0.00, 0.16, 0.00, 1.17, 0.00, 58.86, 58.86
CTUN, 0, 0.00, -0.17, 0.000000, 0.00, 0, 6, 0, 0
ATT, 0.00, 0.15, 0.00, 1.19, 0.00, 58.88, 58.88
CTUN, 0, 0.00, -0.07, 0.000000, 0.00, 0, 6, 0, 0
GPS, 3, 277137200, 14, 1.65, -33.7840628, 151.0681667, -0.21, 96.67, 0.06, 328.92
ATT, 0.00, 0.16, 0.00, 1.19, 0.00, 58.89, 58.89
CTUN, 0, 0.00, -0.13, 0.000000, 0.00, 0, 7, 0, 0
ATT, 0.00, 0.16, 0.00, 1.20, 0.00, 58.91, 58.91
CTUN, 0, 0.00, -0.09, 0.000000, 0.00, 0, 7, 0, 0
ATT, 0.00, 0.16, 0.00, 1.21, 0.00, 58.93, 58.93
GPS, 3, 277137400, 14, 1.65, -33.7840629, 151.0681667, -0.18, 96.67, 0.07, 328.92
CTUN, 0, 0.00, -0.20, 0.000000, 0.00, 0, 7, 0, 0
ATT, 0.00, 0.15, 0.00, 1.23, 0.00, 58.95, 58.95
CTUN, 0, 0.00, -0.01, 0.000000, 0.00, 0, 7, 0, 0
GPS, 3, 277137600, 14, 1.65, -33.7840630, 151.0681667, -0.16, 96.68, 0.03, 328.92
ATT, 0.00, 0.15, 0.00, 1.25, 0.00, 58.98, 58.98
CTUN, 0, 0.00, -0.14, 0.000000, 0.00, 0, 7, 0, 0
ATT, 0.00, 0.14, 0.00, 1.26, 0.00, 58.99, 58.99
CTUN, 0, 0.00, -0.14, 0.000000, 0.00, 0, 7, 0, 0
ATT, 0.00, 0.14, 0.00, 1.27, 0.00, 59.00, 59.00
GPS, 3, 277137800, 14, 1.65, -33.7840631, 151.0681666, -0.14, 96.69, 0.03, 328.92
CTUN, 0, 0.00, -0.15, 0.000000, 0.00, 0, 7, 0, 0
DU32, 7, 1625
CURR, 0, 0, 1219, 68, 4732, 0.499098
ATT, 0.00, 0.13, 0.00, 1.30, 0.00, 59.03, 59.03
CTUN, 0, 0.00, -0.06, 0.000000, 0.00, 0, 8, 0, 0
ATT, 0.00, 0.13, 0.00, 1.30, 0.00, 59.05, 59.05
GPS, 3, 277138000, 14, 1.65, -33.7840631, 151.0681666, -0.12, 96.70, 0.01, 328.92
CTUN, 0, 0.00, -0.09, 0.000000, 0.00, 0, 7, 0, 0
ATT, 0.00, 0.12, 0.00, 1.31, 0.00, 59.07, 59.07
CTUN, 0, 0.00, -0.15, 0.000000, 0.00, 0, 8, 0, 0
ATT, 0.00, 0.13, 0.00, 1.32, 0.00, 59.08, 59.08
GPS, 3, 277138200, 14, 1.65, -33.7840631, 151.0681666, -0.11, 96.69, 0.05, 328.92
CTUN, 0, 0.00, -0.10, 0.000000, 0.00, 0, 8, 0, 0
ATT, 0.00, 0.14, 0.00, 1.34, 0.00, 59.10, 59.10
CTUN, 0, 0.00, -0.02, 0.000000, 0.00, 0, 8, 0, 0
ATT, 0.00, 0.15, 0.00, 1.35, 0.00, 59.13, 59.13
GPS, 3, 277138400, 14, 1.65, -33.7840632, 151.0681666, -0.09, 96.69, 0.05, 328.92
CTUN, 0, 0.00, -0.09, 0.000000, 0.00, 0, 8, 0, 0
ATT, 0.00, 0.15, 0.00, 1.36, 0.00, 59.15, 59.15
CTUN, 0, 0.00, -0.17, 0.000000, 0.00, 0, 8, 0, 0
ATT, 0.00, 0.15, 0.00, 1.37, 0.00, 59.17, 59.17
GPS, 3, 277138600, 14, 1.65, -33.7840633, 151.0681665, -0.07, 96.69, 0.03, 328.92
CTUN, 0, 0.00, -0.25, 0.000000, 0.00, 0, 8, 0, 0
ATT, 0.00, 0.14, 0.00, 1.38, 0.00, 59.19, 59.19
CTUN, 0, 0.00, -0.07, 0.000000, 0.00, 0, 8, 0, 0
ATT, 0.00, 0.14, 0.00, 1.40, 0.00, 59.21, 59.21
GPS, 3, 277138800, 14, 1.65, -33.7840634, 151.0681665, -0.07, 96.69, 0.02, 328.92
CTUN, 0, 0.00, -0.15, 0.000000, 0.00, 0, 8, 0, 0
DU32, 7, 1625
CURR, 0, 0, 1226, 66, 4712, 0.689584
ATT, 0.00, 0.12, 0.00, 1.41, 0.00, 59.23, 59.23
CTUN, 0, 0.00, -0.09, 0.000000, 0.00, 0, 8, 0, 0
ATT, 0.00, 0.12, 0.00, 1.42, 0.00, 59.24, 59.24
GPS, 3, 277139000, 14, 1.65, -33.7840634, 151.0681664, -0.06, 96.70, 0.02, 328.92
CTUN, 0, 0.00, -0.14, 0.000000, 0.00, 0, 7, 0, 0
EV, 15
ATT, 0.00, 0.12, 0.00, 1.43, 0.00, 59.27, 59.27
CTUN, 152, 0.00, -0.18, 0.000000, 0.00, 0, 7, 152, 0
EV, 28
ATT, 0.00, 0.16, 0.00, 1.45, 0.00, 59.27, 59.28
GPS, 3, 277139200, 14, 1.65, -33.7840635, 151.0681664, -0.05, 96.70, 0.01, 328.92
CTUN, 238, 0.00, -0.24, 0.000000, 0.00, 0, 7, 211, 0
ATT, 0.00, 0.20, 0.00, 1.45, 0.00, 59.25, 59.28
CTUN, 250, 0.00, -0.21, 0.000000, 0.00, 0, 7, 250, 0
GPS, 3, 277139400, 14, 1.65, -33.7840635, 151.0681664, -0.06, 96.70, 0.02, 328.92
ATT, 0.00, 0.27, 0.00, 1.43, 0.00, 59.29, 59.28
CTUN, 248, 0.00, -0.24, 0.000000, 0.00, 0, 8, 250, 0
ATT, 0.00, 0.26, 0.00, 1.46, 0.00, 59.32, 59.28
CTUN, 248, 0.00, -0.43, 0.000000, 0.00, 0, 8, 249, 0
GPS, 3, 277139600, 14, 1.65, -33.7840636, 151.0681664, -0.07, 96.70, 0.03, 328.92
CTUN, 248, 0.00, -0.46, 0.000000, 0.00, 0, 7, 249, 0
ATT, 0.00, 0.29, 0.00, 1.47, 0.00, 59.38, 59.28
CTUN, 249, 0.00, -0.59, 0.000000, 0.00, 0, 6, 249, 0
ATT, 0.00, 0.32, 0.00, 1.46, 0.00, 59.40, 59.28
GPS, 3, 277139800, 14, 1.65, -33.7840637, 151.0681664, -0.10, 96.69, 0.03, 328.92
CTUN, 249, 0.00, -0.56, 0.000000, 0.00, 0, 6, 249, 0
ATT, 0.00, 0.30, 0.00, 1.54, 0.00, 59.43, 59.28
DU32, 7, 1145
CURR, 249, 1658, 1190, 413, 4693, 1.524142
CTUN, 254, 0.00, -0.58, 0.000000, 0.00, 0, 5, 248, 0
ATT, 0.00, 0.32, 0.00, 1.53, 0.00, 59.47, 59.28
GPS, 3, 277140000, 14, 1.65, -33.7840637, 151.0681663, -0.15, 96.69, 0.02, 328.92
CTUN, 389, 0.00, -0.64, 0.000000, 0.00, 0, 4, 305, 0
ATT, 0.00, 0.34, 0.00, 1.56, 0.00, 59.47, 59.28
CTUN, 414, 0.00, -0.85, 0.000000, 0.00, 0, 4, 406, 0
ATT, 0.00, 0.27, 0.00, 1.42, 0.00, 59.48, 59.28
GPS, 3, 277140200, 14, 1.65, -33.7840638, 151.0681664, -0.20, 96.68, 0.03, 328.92
CTUN, 481, 0.00, -1.46, 0.000000, 0.00, 0, 4, 461, 0
ATT, 0.00, 0.12, 0.00, 1.16, 0.00, 59.53, 59.28
CTUN, 524, 0.00, -1.47, 0.000000, 0.00, 0, 3, 502, 0
EV, 16
GPS, 3, 277140400, 14, 1.65, -33.7840639, 151.0681664, -0.33, 96.68, 0.04, 328.92
ATT, 0.00, -0.04, 0.00, 1.22, 0.00, 59.23, 59.28
CTUN, 552, 0.00, -1.60, 0.000000, 0.00, 0, 3, 552, 0
ATT, 0.00, -0.32, 0.00, 1.56, 0.00, 57.99, 59.28
CTUN, 553, 0.00, -1.38, 0.000000, 0.00, 0, 8, 553, 0
GPS, 3, 277140600, 14, 1.65, -33.7840640, 151.0681664, -0.45, 96.68, 0.04, 328.92
CTUN, 555, 0.00, -1.39, 0.000000, 0.00, 0, 14, 553, 0
ATT, 0.00, -1.07, 0.00, 1.58, 0.00, 55.56, 59.28
CTUN, 560, 0.00, -1.19, 0.000000, 0.00, 0, 20, 560, 0
ATT, 0.00, -0.68, 0.00, 1.65, 0.00, 53.19, 59.28
GPS, 3, 277140800, 13, 1.66, -33.7840639, 151.0681663, -0.51, 96.68, 0.03, 328.92
CTUN, 588, 0.00, -0.42, 0.000000, 0.00, 0, 26, 588, 0
ATT, 0.00, -0.57, 0.00, 1.65, 0.00, 50.91, 59.28
DU32, 7, 1401
CURR, 588, 5816, 1133, 1313, 4712, 4.213354
CTUN, 588, 0.00, 0.02, 0.000000, 0.00, 0, 35, 588, 0
ATT, 0.00, -0.18, 0.00, 1.58, 0.00, 49.05, 59.05
GPS, 3, 277141000, 13, 1.66, -33.7840639, 151.0681661, -0.46, 96.69, 0.10, 328.92
CTUN, 588, 0.00, -0.06, 0.000000, 0.00, 0, 44, 588, 0
ATT, 0.00, 0.21, -0.72, 1.23, 0.00, 47.31, 57.31
CTUN, 588, 0.00, 0.02, 0.000000, 0.00, 0, 49, 588, 0
ATT, 0.00, 0.29, -1.57, 0.30, 0.00, 45.97, 55.97
GPS, 3, 277141200, 13, 1.66, -33.7840640, 151.0681659, -0.30, 96.73, 0.09, 328.92
CTUN, 589, 0.00, 0.13, 0.000000, 0.00, 0, 53, 588, 0
ATT, 0.00, 0.51, -5.70, -1.22, 0.00, 44.64, 54.64
CTUN, 588, 0.00, 0.21, 0.000000, 0.00, 0, 56, 588, 0
ATT, 0.00, 0.70, -7.64, -3.60, 3.24, 43.62, 53.62
GPS, 3, 277141400, 13, 1.66, -33.7840639, 151.0681654, -0.14, 96.84, 0.22, 328.92
CTUN, 581, 0.00, 0.24, 0.000000, 0.00, 1, 59, 582, 0
ATT, 0.00, 0.98, -8.00, -5.82, 0.72, 43.26, 53.26
CTUN, 581, 0.00, 0.30, 0.000000, 0.00, 2, 60, 583, 0
GPS, 3, 277141600, 14, 1.65, -33.7840637, 151.0681651, 0.01, 96.89, 0.17, 328.92
ATT, 0.00, 1.25, -7.64, -6.96, 0.36, 42.98, 52.98
CTUN, 581, 0.00, 0.49, 0.000000, 0.00, 3, 59, 584, 0
ATT, 0.00, 1.49, -6.79, -7.13, 0.00, 42.73, 52.73
CTUN, 581, 0.00, 0.52, 0.000000, 0.00, 3, 59, 584, 0
GPS, 3, 277141800, 14, 1.65, -33.7840632, 151.0681654, 0.18, 96.98, 0.28, 328.92
CTUN, 581, 0.00, 0.50, 0.000000, 0.00, 2, 59, 583, 0
ATT, 0.00, 1.49, -2.42, -5.92, 0.00, 42.43, 52.43
DU32, 7, 1401
CURR, 581, 11091, 1126, 1389, 4693, 7.998848
CTUN, 581, 0.00, 0.62, 0.000000, 0.00, 1, 59, 582, 0
ATT, 0.00, 1.58, 0.00, -3.50, 0.00, 42.25, 52.25
GPS, 3, 277142000, 14, 1.65, -33.7840624, 151.0681660, 0.32, 97.11, 0.50, 359.81
CTUN, 581, 0.00, 0.58, 0.000000, 0.00, 0, 59, 581, 0
ATT, 0.00, 1.39, 0.00, -0.49, 0.00, 42.12, 52.12
CTUN, 581, 0.00, 0.58, 0.000000, 0.00, 0, 58, 581, 0
ATT, 0.00, 0.86, 0.00, 0.42, 0.00, 42.12, 52.10
GPS, 3, 277142200, 14, 1.65, -33.7840615, 151.0681668, 0.48, 97.18, 0.59, 24.38
CTUN, 581, 0.00, 0.73, 0.000000, 0.00, 0, 58, 582, 0
ATT, 0.00, 0.13, 0.00, 0.93, 0.00, 42.23, 52.10
CTUN, 581, 0.00, 0.70, 0.000000, 0.00, 0, 57, 581, 0
ATT, 0.00, -0.04, 0.00, 1.17, 0.00, 42.38, 52.10
GPS, 3, 277142400, 14, 1.65, -33.7840605, 151.0681680, 0.62, 97.28, 0.76, 38.87
CTUN, 581, 0.00, 0.88, 0.000000, 0.00, 0, 57, 581, 0
ATT, 0.00, -0.28, 0.00, 1.04, 0.00, 42.57, 52.10
CTUN, 581, 0.00, 0.93, 0.000000, 0.00, 0, 56, 581, 0
ATT, 0.00, -0.47, 0.00, 0.87, 0.00, 42.76, 52.10
GPS, 3, 277142600, 14, 1.65, -33.7840594, 151.0681689, 0.76, 97.35, 0.77, 35.75
CTUN, 581, 0.00, 0.85, 0.000000, 0.00, 0, 57, 581, 0
ATT, 0.00, -0.60, 0.00, 0.85, 0.00, 42.90, 52.10
CTUN, 581, 0.00, 1.04, 0.000000, 0.00, 0, 55, 582, 0
GPS, 3, 277142800, 14, 1.65, -33.7840587, 151.0681702, 0.88, 97.43, 0.75, 43.68
ATT, 0.00, -0.70, 0.00, 0.77, 2.28, 42.97, 52.26
CTUN, 581, 0.00, 0.91, 0.000000, 0.00, 0, 56, 581, 0
DU32, 7, 1401
CURR, 581, 16904, 1117, 1374, 4673, 12.17996
ATT, 0.00, -0.54, 0.00, 0.78, 3.24, 43.22, 53.22
CTUN, 581, 0.00, 1.11, 0.000000, 0.00, 0, 57, 581, 0
GPS, 3, 277143000, 14, 1.65, -33.7840576, 151.0681712, 1.01, 97.51, 0.75, 39.61
CTUN, 581, 0.00, 1.14, 0.000000, 0.00, 0, 58, 581, 0
ATT, 0.00, -0.16, 0.00, 1.01, 2.28, 44.19, 54.19
CTUN, 582, 0.00, 1.17, 0.000000, 0.00, 0, 58, 581, 0
ATT, 0.00, -0.15, 0.00, 0.92, 1.80, 45.09, 55.06
GPS, 3, 277143200, 14, 1.65, -33.7840564, 151.0681719, 1.12, 97.64, 0.73, 35.00
CTUN, 581, 0.00, 1.19, 0.000000, 0.00, 0, 58, 581, 0
ATT, 0.00, -0.26, 0.00, 0.78, 0.00, 46.00, 55.22
CTUN, 581, 0.00, 1.36, 0.000000, 0.00, 0, 57, 581, 0
ATT, 0.00, -0.34, 0.00, 0.58, 0.00, 46.38, 55.22
GPS, 3, 277143400, 14, 1.65, -33.7840552, 151.0681728, 1.26, 97.69, 0.78, 29.36
CTUN, 581, 0.00, 1.29, 0.000000, 0.00, 0, 55, 581, 0
ATT, 0.00, -0.26, 0.00, 0.54, 0.00, 46.53, 55.22
CTUN, 581, 0.00, 1.33, 0.000000, 0.00, 0, 56, 581, 0
ATT, 0.00, 0.07, 0.00, 0.48, 0.00, 46.44, 55.22
GPS, 3, 277143600, 14, 1.65, -33.7840543, 151.0681737, 1.38, 97.80, 0.66, 32.64
CTUN, 576, 0.00, 1.59, 0.000000, 0.00, 0, 56, 576, 0
ATT, 0.00, 0.28, 0.00, 0.53, 0.00, 46.21, 55.22
CTUN, 576, 0.00, 1.46, 0.000000, 0.00, 0, 56, 576, 0
GPS, 3, 277143800, 14, 1.65, -33.7840532, 151.0681745, 1.50, 97.87, 0.72, 29.31
ATT, 0.00, 0.31, 0.00, 0.53, 0.00, 45.97, 55.22
CTUN, 576, 0.00, 1.54, 0.000000, 0.00, 0, 54, 577, 0
DU32, 7, 1401
CURR, 576, 22118, 1120, 1355, 4693, 15.96686
ATT, 0.00, 0.23, 0.00, 0.44, 0.00, 45.88, 55.22
CTUN, 576, 0.00, 1.61, 0.000000, 0.00, 0, 53, 576, 0
GPS, 3, 277144000, 14, 1.65, -33.7840522, 151.0681755, 1.61, 97.93, 0.69, 32.55
CTUN, 576, 0.00, 1.61, 0.000000, 0.00, 0, 52, 576, 0
ATT, 0.00, 0.22, 0.00, 0.39, 0.00, 45.90, 55.22
CTUN, 576, 0.00, 1.69, 0.000000, 0.00, 0, 50, 576, 0
ATT, 0.00, 0.26, 0.00, 0.44, 0.00, 46.04, 55.22
GPS, 3, 277144200, 14, 1.65, -33.7840512, 151.0681762, 1.70, 97.98, 0.65, 32.31
CTUN, 576, 0.00, 1.64, 0.000000, 0.00, 0, 49, 576, 0
ATT, 0.00, 0.16, 0.00, 0.52, 0.00, 46.24, 55.22
CTUN, 576, 0.00, 1.80, 0.000000, 0.00, 0, 46, 576, 0
ATT, 0.00, 0.19, 0.00, 0.51, 0.00, 46.42, 55.22
GPS, 3, 277144400, 14, 1.65, -33.7840501, 151.0681769, 1.79, 98.01, 0.69, 28.72
PM, 0, 0, 51, 32, 1000, 7357736, 17, 4
CTUN, 575, 0.00, 1.77, 0.000000, 0.00, 0, 46, 576, 0
ATT, 0.00, 0.31, 0.00, 0.38, 0.00, 46.61, 55.22
CTUN, 576, 0.00, 1.84, 0.000000, 0.00, 0, 43, 576, 0
ATT, 8.19, 0.33, 0.00, 0.29, 0.00, 46.81, 55.22
GPS, 3, 277144600, 14, 1.65, -33.7840493, 151.0681779, 1.89, 97.98, 0.64, 31.58
CTUN, 576, 0.00, 1.78, 0.000000, 0.00, 0, 43, 576, 0
ATT, 13.26, 4.34, 0.00, -0.07, 0.00, 46.89, 55.22
CTUN, 576, 0.00, 1.92, 0.000000, 0.00, 1, 44, 577, 0
ATT, 12.69, 8.54, 0.00, 0.51, 0.00, 47.06, 55.22
GPS, 3, 277144800, 14, 1.65, -33.7840482, 151.0681788, 1.96, 98.04, 0.77, 28.79
CTUN, 576, 0.00, 1.89, 0.000000, 0.00, 6, 41, 582, 0
ATT, 9.46, 9.72, 0.00, 0.89, 0.00, 47.43, 55.22
DU32, 7, 1401
CURR, 576, 27309, 1116, 1362, 4673, 19.63274
CTUN, 576, 0.00, 2.00, 0.000000, 0.00, 6, 38, 582, 0
GPS, 3, 277145000, 14, 1.65, -33.7840472, 151.0681800, 2.04, 98.12, 0.71, 36.53
ATT, 7.38, 8.44, 0.00, 0.77, 0.00, 47.87, 55.22
CTUN, 576, 0.00, 1.89, 0.000000, 0.00, 4, 37, 580, 0
ATT, 7.50, 6.84, 0.00, 0.85, 0.00, 48.17, 55.22
CTUN, 576, 0.00, 2.01, 0.000000, 0.00, 3, 38, 579, 0
GPS, 3, 277145200, 14, 1.65, -33.7840466, 151.0681815, 2.10, 98.15, 0.73, 50.52
ATT, 7.15, 6.17, 0.00, 1.02, 0.00, 48.32, 55.22
CTUN, 576, 0.00, 2.11, 0.000000, 0.00, 2, 38, 578, 0
ATT, 6.69, 5.85, 0.00, 1.11, 0.00, 48.32, 55.22
CTUN, 576, 0.00, 2.13, 0.000000, 0.00, 2, 38, 578, 0
GPS, 3, 277145400, 14, 1.65, -33.7840463, 151.0681829, 2.17, 98.19, 0.69, 62.60
CTUN, 576, 0.00, 2.19, 0.000000, 0.00, 2, 37, 578, 0
ATT, 7.15, 5.29, 0.00, 1.12, 0.00, 48.24, 55.22
CTUN, 576, 0.00, 2.22, 0.000000, 0.00, 1, 35, 577, 0
ATT, 6.34, 5.14, 0.00, 1.09, 0.00, 48.13, 55.22
GPS, 3, 277145600, 14, 1.65, -33.7840465, 151.0681848, 2.23, 98.19, 0.82, 79.83
CTUN, 576, 0.00, 2.22, 0.000000, 0.00, 1, 30, 577, 0
ATT, 3.11, 4.56, 0.00, 1.01, 0.00, 48.09, 55.22
CTUN, 576, 0.00, 2.33, 0.000000, 0.00, 1, 26, 578, 0
ATT, 2.30, 2.90, 0.00, 0.96, 0.00, 48.17, 55.22
GPS, 3, 277145800, 14, 1.65, -33.7840468, 151.0681872, 2.30, 98.21, 1.07, 91.77
CTUN, 576, 0.00, 2.22, 0.000000, 0.00, 0, 23, 577, 0
ATT, 0.00, 1.39, 1.40, 0.72, 0.00, 48.27, 55.22
DU32, 7, 1401
CURR, 576, 32515, 1116, 1335, 4673, 23.27174
CTUN, 577, 0.00, 2.19, 0.000000, 0.00, 0, 21, 576, 0
ATT, 0.00, -0.44, 1.64, 1.09, 0.00, 48.38, 55.22
GPS, 3, 277146000, 14, 1.65, -33.7840470, 151.0681893, 2.33, 98.20, 0.95, 93.20
CTUN, 576, 0.00, 2.24, 0.000000, 0.00, 0, 18, 576, 0
ATT, 0.00, -0.92, 0.00, 1.07, 0.00, 48.43, 55.22
CTUN, 576, 0.00, 2.25, 0.000000, 0.00, 0, 14, 576, 0
GPS, 3, 277146200, 14, 1.65, -33.7840475, 151.0681914, 2.35, 98.17, 1.01, 98.61
ATT, 0.00, -1.08, 0.00, 0.34, 0.00, 48.46, 55.22
CTUN, 576, 0.00, 2.31, 0.000000, 0.00, 0, 7, 576, 0
ATT, 0.00, -0.95, 0.00, 0.06, 0.00, 48.48, 55.22
CTUN, 576, 0.00, 2.12, 0.000000, 0.00, 0, 5, 576, 0
GPS, 3, 277146400, 14, 1.65, -33.7840479, 151.0681937, 2.35, 98.17, 0.99, 98.98
CTUN, 576, 0.00, 2.25, 0.000000, 0.00, 0, 5, 576, 0
ATT, 0.00, -0.51, 0.00, 0.17, 0.00, 48.52, 55.22
CTUN, 576, 0.00, 2.23, 0.000000, 0.00, 0, 6, 576, 0
ATT, 0.00, -0.31, 0.00, 0.21, 0.00, 48.64, 55.22
GPS, 3, 277146600, 13, 1.68, -33.7840479, 151.0681957, 2.35, 98.17, 0.91, 93.69
CTUN, 576, 0.00, 2.24, 0.000000, 0.00, 0, 8, 576, 0
ATT, 0.00, -0.43, 4.92, 0.61, 0.00, 48.90, 55.22
CTUN, 576, 0.00, 2.25, 0.000000, 0.00, 0, 8, 576, 0
ATT, 0.00, -0.60, 6.44, 2.77, 0.00, 49.08, 55.22
GPS, 3, 277146800, 13, 1.68, -33.7840481, 151.0681978, 2.35, 98.16, 0.96, 94.55
CTUN, 577, 0.00, 2.29, 0.000000, 0.00, 0, 7, 576, 0
ATT, 0.00, 0.00, 7.96, 5.09, 0.00, 49.24, 55.22
CTUN, 576, 0.00, 2.24, 0.000000, 0.00, 1, 7, 577, 0
DU32, 7, 1401
CURR, 576, 38277, 1112, 1330, 4616, 27.33039
ATT, 0.00, -0.31, 9.02, 6.50, 0.00, 49.36, 55.22
GPS, 3, 277147000, 13, 1.68, -33.7840481, 151.0681996, 2.36, 98.05, 0.80, 93.36
CTUN, 576, 0.00, 2.35, 0.000000, 0.00, 3, 5, 579, 0
ATT, 0.00, -0.18, 8.67, 7.73, 0.00, 49.28, 55.22
CTUN, 576, 0.00, 2.33, 0.000000, 0.00, 4, 2, 580, 0
GPS, 3, 277147200, 14, 1.65, -33.7840485, 151.0682012, 2.36, 97.98, 0.73, 95.97
ATT, 0.00, -0.43, 9.02, 7.95, 6.12, 49.26, 56.94
CTUN, 576, 0.00, 2.31, 0.000000, 0.00, 4, 0, 580, 0
ATT, 0.00, -0.89, 9.49, 7.94, 6.72, 50.42, 59.96
CTUN, 576, 0.00, 2.35, 0.000000, 0.00, 4, 2, 580, 0
GPS, 3, 277147400, 13, 1.68, -33.7840488, 151.0682025, 2.36, 97.97, 0.56, 98.33
CTUN, 578, 0.00, 2.29, 0.000000, 0.00, 4, 2, 582, 0
ATT, 0.00, -1.14, 9.02, 7.73, 3.12, 52.97, 62.44
CTUN, 576, 0.00, 2.20, 0.000000, 0.00, 3, 0, 579, 0
ATT, 0.00, -1.57, 9.25, 7.02, 3.72, 55.08, 63.94
GPS, 3, 277147600, 14, 1.65, -33.7840494, 151.0682035, 2.35, 97.92, 0.39, 108.12
CTUN, 577, 0.00, 2.36, 0.000000, 0.00, 3, -1, 580, 0
ATT, 0.00, -1.95, 7.50, 6.68, 0.00, 57.21, 64.29
CTUN, 578, 0.00, 2.24, 0.000000, 0.00, 3, -2, 581, 0
ATT, 0.00, -1.70, 4.80, 6.53, 0.00, 58.30, 64.29
GPS, 3, 277147800, 14, 1.65, -33.7840502, 151.0682040, 2.34, 97.83, 0.32, 140.63
CTUN, 576, 0.00, 2.30, 0.000000, 0.00, 2, -4, 578, 0
ATT, 0.00, -1.35, 1.75, 4.44, 0.00, 59.02, 64.29
CTUN, 576, 0.00, 2.28, 0.000000, 0.00, 0, -3, 576, 0
ATT, 0.00, -1.42, 0.00, 2.04, 0.00, 59.31, 64.29
GPS, 3, 277148000, 14, 1.65, -33.7840509, 151.0682040, 2.32, 97.75, 0.34, 165.74
CTUN, 576, 0.00, 2.23, 0.000000, 0.00, 0, -2, 576, 0
DU32, 7, 1401
CURR, 576, 44070, 1114, 1303, 4712, 31.44698
ATT, 0.00, -0.66, 0.00, 0.00, 0.00, 59.29, 64.29
CTUN, 578, 0.00, 2.32, 0.000000, 0.00, 0, -4, 576, 0
ATT, 0.00, -0.31, 0.00, -0.60, 0.00, 59.13, 64.29
GPS, 3, 277148200, 14, 1.65, -33.7840516, 151.0682038, 2.31, 97.67, 0.33, 184.66
CTUN, 576, 0.00, 2.26, 0.000000, 0.00, 0, -5, 576, 0
ATT, 0.00, -0.16, 0.00, -0.79, 0.00, 59.01, 64.29
CTUN, 576, 0.00, 2.20, 0.000000, 0.00, 0, -7, 576, 0
GPS, 3, 277148400, 14, 1.65, -33.7840520, 151.0682036, 2.29, 97.59, 0.25, 209.10
ATT, 0.00, -0.26, 0.00, -0.96, 0.00, 58.91, 64.29
CTUN, 576, 0.00, 2.22, 0.000000, 0.00, 0, -8, 577, 0
ATT, 0.00, -0.15, 0.00, -0.82, 0.00, 58.72, 64.29
CTUN, 576, 0.00, 2.18, 0.000000, 0.00, 0, -7, 576, 0
GPS, 3, 277148600, 14, 1.65, -33.7840521, 151.0682035, 2.26, 97.54, 0.12, 209.10
CTUN, 577, 0.00, 2.18, 0.000000, 0.00, 0, -10, 577, 0
ATT, 0.00, 0.18, 0.00, -0.61, 0.00, 58.39, 64.29
CTUN, 577, 0.00, 2.22, 0.000000, 0.00, 0, -10, 577, 0
ATT, 0.00, 0.32, 4.68, -0.23, 0.00, 58.04, 64.29
GPS, 3, 277148800, 14, 1.65, -33.7840522, 151.0682036, 2.24, 97.47, 0.09, 209.10
CTUN, 577, 0.00, 2.10, 0.000000, 0.00, 0, -10, 577, 0
ATT, 0.00, 0.16, 5.39, 2.28, 0.00, 57.52, 64.29
CTUN, 577, 0.00, 2.14, 0.000000, 0.00, 0, -11, 577, 0
ATT, 0.00, 1.02, 5.97, 4.13, 0.00, 57.06, 64.29
GPS, 3, 277149000, 14, 1.65, -33.7840520, 151.0682036, 2.20, 97.40, 0.17, 209.10
CTUN, 577, 0.00, 2.03, 0.000000, 0.00, 1, -10, 578, 0
DU32, 7, 1401
CURR, 577, 49258, 1110, 1354, 4712, 35.13585
ATT, 0.00, 0.00, 6.79, 5.30, 0.00, 56.72, 64.29
CTUN, 578, 0.00, 2.09, 0.000000, 0.00, 1, -11, 578, 0
ATT, 0.00, -0.46, 6.44, 5.68, 0.00, 56.54, 64.29
GPS, 3, 277149200, 14, 1.65, -33.7840519, 151.0682036, 2.16, 97.35, 0.18, 264.37
CTUN, 577, 0.00, 2.06, 0.000000, 0.00, 2, -10, 579, 0
ATT, 0.00, -0.44, 6.32, 6.06, 0.00, 56.47, 64.29
CTUN, 577, 0.00, 1.91, 0.000000, 0.00, 2, -9, 579, 0
GPS, 3, 277149400, 14, 1.65, -33.7840518, 151.0682034, 2.13, 97.34, 0.25, 283.31
ATT, 0.00, -0.65, 6.32, 5.82, 0.00, 56.57, 64.29
CTUN, 577, 0.00, 1.99, 0.000000, 0.00, 2, -9, 579, 0
ATT, 0.00, -0.72, 7.03, 5.40, 0.00, 56.70, 64.29
CTUN, 577, 0.00, 2.09, 0.000000, 0.00, 2, -9, 579, 0
GPS, 3, 277149600, 13, 1.85, -33.7840517, 151.0682028, 2.10, 97.28, 0.36, 287.07
CTUN, 580, 0.00, 1.99, 0.000000, 0.00, 2, -9, 582, 0
ATT, 0.00, -0.72, 6.79, 5.39, 0.00, 56.67, 64.29
CTUN, 576, 0.00, 1.99, 0.000000, 0.00, 1, -8, 577, 0
ATT, 0.00, -0.46, 5.39, 5.33, 0.00, 56.44, 64.29
GPS, 3, 277149800, 13, 1.85, -33.7840515, 151.0682019, 2.07, 97.23, 0.50, 284.02
CTUN, 577, 0.00, 2.04, 0.000000, 0.00, 1, -8, 578, 0
ATT, 0.00, -0.18, 0.11, 4.60, 0.00, 55.90, 64.29
CTUN, 576, 0.00, 2.01, 0.000000, 0.00, 0, -7, 576, 0
ATT, 0.00, 0.35, 0.00, 2.06, 0.00, 55.31, 64.29
GPS, 3, 277150000, 14, 1.65, -33.7840513, 151.0682007, 2.05, 97.21, 0.63, 280.94
CTUN, 578, 0.00, 1.93, 0.000000, 0.00, 0, -5, 576, 0
DU32, 7, 1401
CURR, 576, 54460, 1108, 1382, 4693, 38.90440
ATT, 0.00, -0.01, 0.00, 0.16, 0.00, 54.63, 64.29
CTUN, 577, 0.00, 1.92, 0.000000, 0.00, 0, -1, 577, 0
ATT, 0.00, 1.22, 0.00, 0.21, 0.00, 54.16, 64.16
GPS, 3, 277150200, 13, 1.67, -33.7840513, 151.0681995, 2.03, 97.29, 0.65, 277.68
CTUN, 576, 0.00, 2.05, 0.000000, 0.00, 0, 1, 576, 0
ATT, 0.00, 1.79, 0.00, 0.45, 0.00, 54.07, 64.06
CTUN, 576, 0.00, 1.89, 0.000000, 0.00, 0, 2, 576, 0
GPS, 3, 277150400, 13, 1.67, -33.7840513, 151.0681984, 2.03, 97.28, 0.66, 278.03
ATT, 0.00, 0.78, 0.00, 0.06, 0.00, 54.21, 64.06
CTUN, 576, 0.00, 1.90, 0.000000, 0.00, 0, 3, 576, 0
ATT, 0.00, 0.67, 0.00, 0.11, 0.00, 54.35, 64.06
CTUN, 577, 0.00, 1.88, 0.000000, 0.00, 0, 3, 578, 0
GPS, 3, 277150600, 12, 1.98, -33.7840513, 151.0681975, 2.02, 97.23, 0.54, 276.14
CTUN, 577, 0.00, 1.92, 0.000000, 0.00, 0, 5, 578, 0
ATT, 0.00, 1.13, 0.00, 0.83, 0.00, 54.54, 64.06
CTUN, 577, 0.00, 1.87, 0.000000, 0.00, 0, 7, 578, 0
ATT, 0.00, 1.12, 0.00, 1.35, 0.00, 54.74, 64.06
GPS, 3, 277150800, 13, 1.67, -33.7840512, 151.0681965, 2.02, 97.27, 0.56, 278.63
CTUN, 577, 0.00, 1.82, 0.000000, 0.00, 0, 8, 577, 0
ATT, 2.19, 1.19, 0.00, 1.39, 0.00, 55.10, 64.06
CTUN, 577, 0.00, 1.83, 0.000000, 0.00, 0, 9, 577, 0
ATT, 5.88, 1.86, 0.00, 1.28, 0.00, 55.54, 64.06
GPS, 3, 277151000, 12, 1.98, -33.7840511, 151.0681956, 2.02, 97.28, 0.52, 278.24
CTUN, 578, 0.00, 1.92, 0.000000, 0.00, 0, 10, 577, 0
ATT, 5.76, 3.99, 0.00, 0.87, 0.00, 55.99, 64.06
DU32, 7, 1401
CURR, 577, 59650, 1102, 1357, 4693, 42.71229
CTUN, 576, 0.00, 1.86, 0.000000, 0.00, 1, 12, 578, 0
ATT, 8.30, 4.97, 0.00, 1.15, 0.00, 56.41, 64.06
GPS, 3, 277151200, 13, 1.67, -33.7840511, 151.0681951, 2.02, 97.25, 0.35, 279.03
CTUN, 578, 0.00, 1.88, 0.000000, 0.00, 1, 14, 579, 0
ATT, 8.19, 6.32, 0.00, 1.51, 0.00, 56.91, 64.06
CTUN, 576, 0.00, 1.98, 0.000000, 0.00, 3, 14, 579, 0
GPS, 3, 277151400, 13, 1.67, -33.7840511, 151.0681944, 2.04, 97.26, 0.45, 277.54
ATT, 7.50, 7.10, 0.00, 1.48, 0.00, 57.68, 64.06
CTUN, 578, 0.00, 1.86, 0.000000, 0.00, 3, 14, 581, 0
ATT, 6.57, 6.63, 0.00, 0.64, 0.00, 58.39, 64.06
CTUN, 577, 0.00, 1.96, 0.000000, 0.00, 3, 13, 579, 0
GPS, 3, 277151600, 13, 1.67, -33.7840513, 151.0681939, 2.05, 97.23, 0.33, 272.28
ATT, 4.38, 5.50, 0.00, 0.11, 0.00, 59.14, 64.06
CTUN, 577, 0.00, 1.94, 0.000000, 0.00, 2, 13, 579, 0
ATT, 2.42, 4.15, 0.00, 0.27, 0.00, 59.64, 64.06
CTUN, 576, 0.00, 2.11, 0.000000, 0.00, 1, 11, 577, 0
GPS, 3, 277151800, 14, 1.65, -33.7840519, 151.0681938, 2.07, 97.26, 0.34, 231.69
CTUN, 576, 0.00, 1.97, 0.000000, 0.00, 0, 11, 576, 0
ATT, 0.00, 2.26, 0.00, 0.15, 0.00, 59.71, 64.06
CTUN, 578, 0.00, 1.97, 0.000000, 0.00, 0, 12, 576, 0
ATT, 0.00, 0.48, 0.00, 0.04, 0.00, 59.31, 64.06
GPS, 3, 277152000, 13, 1.94, -33.7840524, 151.0681938, 2.08, 97.33, 0.30, 217.73
CTUN, 576, 0.00, 2.03, 0.000000, 0.00, 0, 12, 576, 0
ATT, 0.00, -0.58, 0.00, 0.56, 0.00, 58.47, 64.06
DU32, 7, 1401
CURR, 576, 64857, 1103, 1353, 4693, 46.32558
CTUN, 576, 0.00, 2.01, 0.000000, 0.00, 0, 12, 576, 0
ATT, 0.00, -0.32, 0.00, 0.18, 0.00, 57.74, 64.06
GPS, 3, 277152200, 13, 1.94, -33.7840530, 151.0681938, 2.10, 97.33, 0.33, 199.14
CTUN, 576, 0.00, 2.05, 0.000000, 0.00, 0, 11, 576, 0
ATT, 0.00, -0.29, 0.00, -0.65, 0.00, 56.71, 64.06
CTUN, 578, 0.00, 2.11, 0.000000, 0.00, 0, 11, 576, 0
ATT, 0.00, 1.27, 0.00, -0.14, 0.00, 55.40, 64.06
GPS, 3, 277152400, 13, 1.94, -33.7840536, 151.0681938, 2.12, 97.34, 0.32, 195.56
CTUN, 578, 0.00, 2.16, 0.000000, 0.00, 0, 12, 578, 0
ATT, 0.00, 3.29, 0.00, 1.46, 0.00, 54.10, 64.06
CTUN, 576, 0.00, 2.32, 0.000000, 0.00, 0, 15, 576, 0
GPS, 3, 277152600, 14, 1.65, -33.7840540, 151.0681940, 2.16, 97.38, 0.23, 191.20
ATT, 0.00, 3.21, 0.00, 1.14, 0.00, 53.12, 63.12
CTUN, 576, 0.00, 2.19, 0.000000, 0.00, 0, 16, 576, 0
ATT, 0.00, 2.13, 0.00, -0.62, 0.00, 52.66, 62.66
CTUN, 575, 0.00, 2.22, 0.000000, 0.00, 0, 16, 576, 0
GPS, 3, 277152800, 14, 1.65, -33.7840547, 151.0681942, 2.20, 97.43, 0.30, 175.75
CTUN, 578, 0.00, 2.21, 0.000000, 0.00, 0, 16, 578, 0
ATT, 0.00, 1.59, 0.00, -1.56, 0.00, 52.58, 62.55
CTUN, 576, 0.00, 2.16, 0.000000, 0.00, 0, 14, 576, 0
ATT, 0.00, 1.91, 0.00, -0.97, 0.00, 52.93, 62.55
GPS, 3, 277153000, 14, 1.65, -33.7840552, 151.0681947, 2.22, 97.45, 0.30, 163.94
CTUN, 576, 0.00, 2.19, 0.000000, 0.00, 0, 14, 576, 0
ATT, 0.00, 2.44, 0.00, -0.04, 0.00, 53.63, 62.55
DU32, 7, 1401
CURR, 578, 70623, 1100, 1348, 4673, 50.56506
CTUN, 578, 0.00, 2.25, 0.000000, 0.00, 0, 15, 576, 0
ATT, 0.00, 1.96, 0.00, 0.05, 0.00, 54.46, 62.55
GPS, 3, 277153200, 13, 1.85, -33.7840559, 151.0681956, 2.25, 97.46, 0.44, 145.63
CTUN, 577, 0.00, 2.29, 0.000000, 0.00, 0, 12, 576, 0
ATT, -1.86, 0.55, 0.00, -0.41, 0.00, 55.62, 62.55
CTUN, 577, 0.00, 2.31, 0.000000, 0.00, 0, 9, 576, 0
ATT, -3.72, -0.74, 0.00, -0.68, 0.00, 56.72, 62.55
GPS, 3, 277153400, 14, 1.65, -33.7840565, 151.0681966, 2.27, 97.48, 0.51, 135.76
CTUN, 576, 0.00, 2.33, 0.000000, 0.00, 0, 4, 577, 0
ATT, -3.95, -2.08, 0.00, -0.64, 0.00, 57.70, 62.55
CTUN, 577, 0.00, 2.15, 0.000000, 0.00, 0, 1, 578, 0
GPS, 3, 277153600, 14, 1.65, -33.7840571, 151.0681977, 2.28, 97.48, 0.49, 129.74
ATT, -3.95, -2.48, 0.00, -0.70, 0.00, 58.46, 62.55
CTUN, 577, 0.00, 2.18, 0.000000, 0.00, 0, -2, 577, 0
ATT, -3.25, -2.33, 0.00, -0.59, 0.00, 58.79, 62.55
CTUN, 577, 0.00, 2.25, 0.000000, 0.00, 0, -7, 576, 0
GPS, 3, 277153800, 14, 1.65, -33.7840576, 151.0681988, 2.26, 97.49, 0.50, 123.36
CTUN, 577, 0.00, 2.22, 0.000000, 0.00, 0, -11, 576, 0
ATT, -3.48, -2.16, 0.00, -0.56, 0.00, 58.88, 62.55
CTUN, 577, 0.00, 2.27, 0.000000, 0.00, 0, -14, 577, 0
ATT, -7.09, -2.17, 0.11, -0.36, 0.00, 58.76, 62.55
GPS, 3, 277154000, 14, 1.65, -33.7840577, 151.0682001, 2.23, 97.44, 0.48, 109.98
CTUN, 576, 0.00, 2.25, 0.000000, 0.00, 0, -16, 576, 0
ATT, -6.39, -3.53, 1.64, 0.00, 0.00, 58.55, 62.55
CTUN, 576, 0.00, 2.21, 0.000000, 0.00, 1, -20, 577, 0
DU32, 7, 1401
CURR, 576, 75817, 1096, 1307, 4654, 54.20681
ATT, -6.39, -4.34, 1.75, -0.29, 0.00, 58.44, 62.55
GPS, 3, 277154200, 14, 1.65, -33.7840578, 151.0682014, 2.19, 97.40, 0.50, 100.63
CTUN, 576, 0.00, 2.21, 0.000000, 0.00, 1, -21, 577, 0
ATT, -6.74, -4.25, 3.63, 0.62, 0.00, 58.30, 62.55
CTUN, 576, 0.00, 2.24, 0.000000, 0.00, 1, -24, 577, 0
ATT, -6.27, -4.34, 5.85, 1.74, 0.00, 58.53, 62.55
GPS, 3, 277154400, 14, 1.65, -33.7840575, 151.0682026, 2.15, 97.36, 0.54, 83.26
PM, 0, 0, 50, 39, 1000, 12512, 10, 4
CTUN, 576, 0.00, 2.07, 0.000000, 0.00, 1, -28, 577, 0
ATT, -6.27, -5.10, 7.96, 2.78, 0.00, 59.20, 62.55
CTUN, 576, 0.00, 1.97, 0.000000, 0.00, 2, -32, 578, 0
GPS, 3, 277154600, 14, 1.65, -33.7840570, 151.0682037, 2.08, 97.29, 0.58, 65.54
ATT, -4.30, -4.69, 7.50, 4.97, 0.00, 60.05, 62.55
CTUN, 576, 0.00, 2.08, 0.000000, 0.00, 3, -38, 579, 0
ATT, -4.30, -3.53, 6.56, 6.05, 0.00, 60.58, 62.55
CTUN, 576, 0.00, 2.11, 0.000000, 0.00, 3, -40, 579, 0
GPS, 3, 277154800, 14, 1.65, -33.7840564, 151.0682046, 2.00, 97.17, 0.50, 53.24
CTUN, 576, 0.00, 1.98, 0.000000, 0.00, 4, -42, 582, 0
ATT, 0.00, -3.56, 4.68, 7.05, 0.00, 60.58, 62.55
CTUN, 578, 0.00, 2.01, 0.000000, 0.00, 3, -44, 581, 0
ATT, 0.00, -1.76, 3.39, 6.08, 0.00, 59.96, 62.55
GPS, 3, 277155000, 14, 1.65, -33.7840554, 151.0682050, 1.92, 97.05, 0.59, 22.34
CTUN, 582, 0.00, 1.77, 0.000000, 0.00, 2, -44, 584, 0
ATT, 0.00, -0.97, 3.51, 5.09, 0.00, 58.67, 62.55
CTUN, 581, 0.00, 1.75, 0.000000, 0.00, 1, -44, 582, 0
ATT, 0.00, 0.22, 3.98, 4.40, 0.00, 57.36, 62.55
DU32, 7, 1401
CURR, 581, 81025, 1095, 1337, 4693, 57.84193
GPS, 3, 277155200, 14, 1.65, -33.7840545, 151.0682052, 1.82, 96.98, 0.52, 14.48
CTUN, 581, 0.00, 1.72, 0.000000, 0.00, 1, -44, 582, 0
ATT, 0.00, 1.54, 4.45, 3.98, 0.00, 56.06, 62.55
CTUN, 581, 0.00, 1.67, 0.000000, 0.00, 1, -44, 582, 0
ATT, 0.00, 1.89, 4.68, 4.19, 0.00, 55.52, 62.55
GPS, 3, 277155400, 14, 1.65, -33.7840538, 151.0682050, 1.72, 96.90, 0.45, 359.11
CTUN, 581, 0.00, 1.67, 0.000000, 0.00, 1, -46, 582, 0
ATT, 0.00, 2.35, 5.39, 3.50, 0.00, 55.37, 62.55
CTUN, 581, 0.00, 1.66, 0.000000, 0.00, 1, -46, 582, 0
GPS, 3, 277155600, 14, 1.65, -33.7840534, 151.0682049, 1.62, 96.81, 0.29, 355.70
ATT, 0.00, 1.59, 6.32, 2.72, 0.00, 55.98, 62.55
CTUN, 581, 0.00, 1.65, 0.000000, 0.00, 0, -50, 581, 0
ATT, 0.00, 0.81, 6.09, 3.25, 0.00, 57.31, 62.55
CTUN, 581, 0.00, 1.65, 0.000000, 0.00, 0, -50, 581, 0
GPS, 3, 277155800, 14, 1.65, -33.7840530, 151.0682047, 1.53, 96.69, 0.27, 340.91
CTUN, 581, 0.00, 1.65, 0.000000, 0.00, 1, -49, 582, 0
ATT, 0.00, -1.21, 6.09, 4.81, 0.00, 59.28, 62.55
CTUN, 581, 0.00, 1.64, 0.000000, 0.00, 2, -48, 583, 0
ATT, 0.00, -2.46, 5.97, 5.00, 0.00, 60.66, 62.55
GPS, 3, 277156000, 14, 1.65, -33.7840528, 151.0682043, 1.45, 96.60, 0.24, 327.46
CTUN, 581, 0.00, 1.54, 0.000000, 0.00, 2, -47, 583, 0
ATT, 0.00, -3.16, 6.91, 5.48, 0.00, 61.90, 62.55
CTUN, 581, 0.00, 1.49, 0.000000, 0.00, 3, -49, 584, 0
ATT, 0.00, -3.53, 9.49, 5.74, 0.00, 62.66, 62.55
DU32, 7, 1401
CURR, 581, 86264, 1101, 1311, 4712, 61.52430
GPS, 3, 277156200, 14, 1.65, -33.7840525, 151.0682038, 1.37, 96.50, 0.35, 311.63
CTUN, 586, 0.00, 1.47, 0.000000, 0.00, 3, -48, 587, 0
ATT, 0.00, -3.66, 11.01, 6.98, 0.00, 63.07, 62.55
CTUN, 609, 0.00, 1.38, 0.000000, 0.00, 4, -46, 613, 0
ATT, 0.00, -3.40, 10.66, 8.18, 0.00, 63.12, 62.55
GPS, 3, 277156400, 14, 1.65, -33.7840521, 151.0682030, 1.29, 96.42, 0.46, 306.36
CTUN, 621, 0.00, 1.38, 0.000000, 0.00, 6, -41, 627, 0
ATT, 0.00, -3.44, 9.96, 8.40, 0.00, 62.93, 62.55
CTUN, 620, 0.00, 1.35, 0.000000, 0.00, 6, -36, 626, 0
GPS, 3, 277156600, 13, 1.67, -33.7840516, 151.0682018, 1.22, 96.31, 0.71, 301.35
ATT, 0.00, -3.44, 6.91, 8.05, 0.00, 62.30, 62.55
CTUN, 629, 0.00, 1.24, 0.000000, 0.00, 5, -27, 634, 0
ATT, 0.00, -2.59, 4.10, 6.85, 0.00, 61.48, 62.55
CTUN, 629, 0.00, 1.20, 0.000000, 0.00, 4, -19, 633, 0
GPS, 3, 277156800, 14, 1.65, -33.7840507, 151.0681999, 1.19, 96.23, 1.01, 300.31
CTUN, 627, 0.00, 1.28, 0.000000, 0.00, 1, -9, 628, 0
ATT, 8.42, -0.68, 0.00, 4.11, 0.00, 60.24, 62.55
CTUN, 629, 0.00, 1.34, 0.000000, 0.00, 0, 0, 629, 0
ATT, 13.96, 3.66, 0.00, 1.06, 0.00, 59.13, 62.55
GPS, 3, 277157000, 14, 1.65, -33.7840499, 151.0681979, 1.19, 96.21, 1.03, 297.82
CTUN, 628, 0.00, 1.26, 0.000000, 0.00, 4, 9, 633, 0
ATT, 13.26, 9.92, 0.00, 0.43, 0.00, 58.10, 62.55
CTUN, 627, 0.00, 1.24, 0.000000, 0.00, 9, 17, 636, 0
ATT, 13.50, 12.41, 0.00, 0.78, 0.00, 57.68, 62.55
DU32, 7, 1401
CURR, 629, 91877, 1082, 1559, 4712, 65.61116
GPS, 3, 277157200, 13, 1.67, -33.7840492, 151.0681963, 1.23, 96.17, 0.87, 296.94
CTUN, 629, 0.00, 1.28, 0.000000, 0.00, 13, 21, 642, 0
ATT, 13.03, 13.36, 0.00, 1.11, 0.00, 57.58, 62.55
CTUN, 629, 0.00, 1.28, 0.000000, 0.00, 13, 30, 642, 0
ATT, 10.96, 13.39, 0.00, 1.64, 0.00, 57.70, 62.55
GPS, 3, 277157400, 13, 1.67, -33.7840486, 151.0681946, 1.29, 96.25, 0.82, 295.70
CTUN, 621, 0.00, 1.30, 0.000000, 0.00, 13, 38, 634, 0
ATT, 8.30, 11.42, 0.00, 2.08, 0.00, 57.78, 62.55
CTUN, 621, 0.00, 1.26, 0.000000, 0.00, 9, 44, 630, 0
GPS, 3, 277157600, 13, 1.67, -33.7840488, 151.0681935, 1.37, 96.41, 0.48, 287.77
ATT, 3.80, 8.95, 0.00, 1.72, 0.00, 57.52, 62.55
CTUN, 620, 0.00, 1.42, 0.000000, 0.00, 6, 50, 626, 0
ATT, 3.57, 5.99, 0.00, 2.24, 0.00, 57.35, 62.55
CTUN, 620, 0.00, 1.44, 0.000000, 0.00, 3, 55, 622, 0
GPS, 3, 277157800, 13, 1.67, -33.7840496, 151.0681932, 1.48, 96.50, 0.40, 244.06
CTUN, 621, 0.00, 1.46, 0.000000, 0.00, 1, 61, 622, 0
ATT, 3.23, 3.65, 0.00, 1.66, 0.00, 56.90, 62.55
CTUN, 596, 0.00, 1.68, 0.000000, 0.00, 0, 65, 596, 0
ATT, 1.38, 2.16, 0.00, 1.46, 0.00, 56.52, 62.55
GPS, 3, 277158000, 13, 1.67, -33.7840510, 151.0681930, 1.60, 96.63, 0.73, 202.51
CTUN, 588, 0.00, 1.60, 0.000000, 0.00, 0, 67, 588, 0
ATT, 0.00, 0.29, 0.00, 1.60, 0.00, 56.32, 62.55
CTUN, 583, 0.00, 1.67, 0.000000, 0.00, 0, 66, 584, 0
ATT, 0.00, -0.66, 0.00, 1.21, 0.00, 56.38, 62.55
DU32, 7, 1401
CURR, 584, 97449, 1098, 1373, 4673, 69.76565
GPS, 3, 277158200, 14, 1.65, -33.7840527, 151.0681933, 1.74, 96.78, 0.87, 185.10
CTUN, 583, 0.00, 1.72, 0.000000, 0.00, 0, 63, 584, 0
ATT, 0.00, -1.59, 0.00, 0.95, 0.00, 56.65, 62.55
CTUN, 583, 0.00, 1.76, 0.000000, 0.00, 0, 59, 583, 0
ATT, 0.00, -2.14, 0.00, 0.53, 0.00, 56.84, 62.55
GPS, 3, 277158400, 14, 1.65, -33.7840541, 151.0681939, 1.86, 96.89, 0.74, 175.83
CTUN, 584, 0.00, 1.94, 0.000000, 0.00, 0, 56, 583, 0
ATT, 0.00, -1.78, 0.00, 0.47, 0.00, 56.93, 62.55
CTUN, 583, 0.00, 1.98, 0.000000, 0.00, 0, 55, 583, 0
GPS, 3, 277158600, 14, 1.65, -33.7840554, 151.0681946, 1.97, 96.97, 0.75, 167.25
ATT, 0.00, -1.16, 0.00, 0.56, 0.00, 57.11, 62.55
CTUN, 584, 0.00, 2.01, 0.000000, 0.00, 0, 51, 584, 0
ATT, 0.00, -0.72, 0.00, 0.55, 0.00, 57.41, 62.55
CTUN, 583, 0.00, 2.08, 0.000000, 0.00, 0, 48, 583, 0
GPS, 3, 277158800, 14, 1.65, -33.7840563, 151.0681949, 2.07, 97.07, 0.53, 167.76
CTUN, 583, 0.00, 2.15, 0.000000, 0.00, 0, 42, 583, 0
ATT, 2.30, -0.02, 0.00, 0.87, 0.00, 57.78, 62.55
CTUN, 583, 0.00, 2.02, 0.000000, 0.00, 0, 39, 583, 0
ATT, 3.34, 0.93, 0.00, 1.01, 0.00, 58.09, 62.55
GPS, 3, 277159000, 14, 1.65, -33.7840572, 151.0681954, 2.15, 97.19, 0.51, 165.86
CTUN, 583, 0.00, 2.09, 0.000000, 0.00, 0, 35, 583, 0
ATT, 5.76, 2.68, 0.00, 1.42, 0.00, 58.47, 62.55
CTUN, 583, 0.00, 2.21, 0.000000, 0.00, 1, 30, 584, 0
ATT, 6.69, 4.30, 0.00, 1.48, 0.00, 58.82, 62.55
DU32, 7, 1401
CURR, 584, 102698, 1100, 1331, 4693, 73.47860
GPS, 3, 277159200, 12, 1.70, -33.7840580, 151.0681959, 2.21, 97.27, 0.41, 162.47
CTUN, 583, 0.00, 2.18, 0.000000, 0.00, 1, 26, 584, 0
ATT, 7.61, 5.29, 0.00, 1.59, 0.00, 59.31, 62.55
CTUN, 583, 0.00, 2.20, 0.000000, 0.00, 2, 23, 586, 0
ATT, 9.57, 6.01, 0.00, 1.46, 0.00, 59.72, 62.55
GPS, 3, 277159400, 12, 1.70, -33.7840586, 151.0681964, 2.25, 97.34, 0.38, 158.84
CTUN, 583, 0.00, 2.30, 0.000000, 0.00, 2, 17, 585, 0
ATT, 9.23, 7.20, 0.00, 1.38, 0.00, 60.14, 62.55
CTUN, 583, 0.00, 2.46, 0.000000, 0.00, 3, 10, 586, 0
GPS, 3, 277159600, 13, 1.67, -33.7840598, 151.0681971, 2.28, 97.43, 0.65, 157.84
ATT, 6.00, 7.58, 0.00, 1.43, 0.00, 60.53, 62.55
CTUN, 583, 0.00, 2.32, 0.000000, 0.00, 4, 3, 587, 0
ATT, 6.69, 6.50, 0.00, 1.61, 0.00, 60.79, 62.55
CTUN, 583, 0.00, 2.33, 0.000000, 0.00, 3, 0, 586, 0
GPS, 3, 277159800, 13, 1.67, -33.7840610, 151.0681981, 2.29, 97.46, 0.71, 152.93
ATT, 2.19, 5.92, 0.00, 1.49, 0.00, 60.88, 62.55
CTUN, 583, 0.00, 2.37, 0.000000, 0.00, 2, -7, 585, 0
ATT, 0.00, 4.03, 0.00, 1.75, 0.00, 60.92, 62.55
CTUN, 583, 0.00, 2.49, 0.000000, 0.00, 1, -11, 584, 0
GPS, 3, 277160000, 13, 1.67, -33.7840624, 151.0681989, 2.28, 97.53, 0.78, 155.34
CTUN, 583, 0.00, 2.28, 0.000000, 0.00, 0, -16, 583, 0
ATT, 0.00, 0.98, 0.00, 1.09, 0.00, 60.85, 62.55
CTUN, 584, 0.00, 2.44, 0.000000, 0.00, 0, -19, 583, 0
ATT, -9.88, -0.24, 0.00, 0.87, 0.00, 60.71, 62.55
GPS, 3, 277160200, 13, 1.67, -33.7840639, 151.0681995, 2.26, 97.53, 0.83, 159.70
CTUN, 583, 0.00, 2.47, 0.000000, 0.00, 0, -21, 583, 0
DU32, 7, 1401
CURR, 583, 108546, 1099, 1340, 4752, 77.49173
ATT, -24.41, -7.07, 0.00, 1.28, 0.00, 60.60, 62.55
CTUN, 583, 0.00, 2.47, 0.000000, 0.00, 9, -26, 592, 0
ATT, -28.72, -15.39, 0.00, 0.38, 0.00, 60.79, 62.55
GPS, 3, 277160400, 13, 1.67, -33.7840656, 151.0682005, 2.23, 97.50, 0.93, 157.82
CTUN, 583, 0.00, 2.42, 0.000000, 0.00, 20, -31, 603, 0
ATT, -31.27, -23.06, 0.00, 0.75, 0.00, 60.41, 62.55
CTUN, 583, 0.00, 2.26, 0.000000, 0.00, 47, -37, 631, 0
ATT, -43.48, -27.03, 0.70, -0.26, 0.00, 60.49, 62.55
GPS, 3, 277160600, 12, 1.71, -33.7840666, 151.0682011, 2.18, 97.42, 0.56, 157.98
CTUN, 583, 0.00, 2.29, 0.000000, 0.00, 61, -40, 644, 0
ATT, -40.46, -33.73, 0.00, 0.33, 0.00, 59.80, 62.55
CTUN, 583, 0.00, 2.21, 0.000000, 0.00, 92, -46, 675, 0
GPS, 3, 277160800, 12, 1.71, -33.7840663, 151.0682011, 2.10, 97.40, 0.11, 157.98
ATT, -38.83, -33.63, 0.00, -0.57, 0.00, 59.50, 62.55
CTUN, 583, 0.00, 2.21, 0.000000, 0.00, 91, -52, 674, 0
ATT, -33.95, -32.81, 0.00, -1.01, 0.00, 59.00, 62.55
CTUN, 583, 0.00, 2.24, 0.000000, 0.00, 87, -56, 670, 0
GPS, 3, 277161000, 14, 1.65, -33.7840644, 151.0682001, 2.01, 97.35, 1.06, 283.61
CTUN, 583, 0.00, 2.24, 0.000000, 0.00, 71, -59, 654, 0
ATT, -5.93, -28.47, -5.09, -1.64, 0.00, 58.35, 62.55
CTUN, 583, 0.00, 2.16, 0.000000, 0.00, 23, -56, 606, 0
ATT, -1.86, -13.23, -5.09, -3.69, 0.00, 57.35, 62.55
GPS, 3, 277161200, 14, 1.65, -33.7840609, 151.0681980, 1.92, 97.19, 2.20, 323.43
CTUN, 583, 0.00, 2.34, 0.000000, 0.00, 2, -51, 585, 0
DU32, 7, 1401
CURR, 583, 114251, 1079, 1516, 4693, 81.78355
ATT, 0.00, -3.86, -5.33, -2.32, 0.00, 55.69, 62.55
CTUN, 583, 0.00, 2.22, 0.000000, 0.00, 0, -52, 583, 0
ATT, 2.30, 0.84, -4.00, -2.35, 0.00, 55.18, 62.55
GPS, 3, 277161400, 13, 1.67, -33.7840558, 151.0681955, 1.87, 97.06, 3.04, 331.96
CTUN, 583, 0.00, 2.25, 0.000000, 0.00, 0, -56, 583, 0
ATT, 13.38, 3.84, -5.45, -1.27, 0.00, 55.19, 62.55
CTUN, 583, 0.00, 2.18, 0.000000, 0.00, 6, -60, 589, 0
ATT, 18.92, 11.08, -4.12, -2.07, 0.00, 55.10, 62.55
GPS, 3, 277161600, 14, 1.65, -33.7840505, 151.0681928, 1.80, 96.89, 3.26, 334.83
CTUN, 583, 0.00, 2.14, 0.000000, 0.00, 15, -66, 599, 0
ATT, 20.76, 17.09, -1.33, -0.43, 0.00, 55.84, 62.55
CTUN, 584, 0.00, 2.12, 0.000000, 0.00, 25, -72, 608, 0
ATT, 24.92, 20.07, 0.00, 0.60, 0.00, 56.60, 62.55
GPS, 3, 277161800, 14, 1.65, -33.7840460, 151.0681907, 1.69, 96.67, 2.76, 335.66
CTUN, 591, 0.00, 2.01, 0.000000, 0.00, 31, -78, 614, 0
ATT, 25.50, 22.87, 0.00, 0.97, 0.00, 57.33, 62.55
CTUN, 600, 0.00, 1.86, 0.000000, 0.00, 41, -86, 641, 0
ATT, 28.61, 23.89, 0.00, 0.90, 0.00, 58.01, 62.55
GPS, 3, 277162000, 13, 1.67, -33.7840423, 151.0681890, 1.56, 96.44, 2.26, 336.94
CTUN, 638, 0.00, 1.62, 0.000000, 0.00, 47, -91, 685, 0
ATT, 28.84, 25.16, 0.00, 0.75, 0.00, 58.53, 62.55
CTUN, 639, 0.00, 1.66, 0.000000, 0.00, 54, -87, 693, 0
GPS, 3, 277162200, 13, 1.67, -33.7840401, 151.0681883, 1.40, 96.30, 1.40, 339.09
ATT, 30.57, 26.38, 0.00, 1.01, 0.00, 59.06, 62.55
CTUN, 645, 0.00, 1.51, 0.000000, 0.00, 59, -79, 704, 0
DU32, 7, 1401
CURR, 645, 119835, 1069, 1740, 4654, 85.61395
ATT, 29.30, 26.96, 0.00, 0.88, 0.00, 59.21, 62.55
CTUN, 647, 0.00, 1.37, 0.000000, 0.00, 64, -71, 711, 0
GPS, 3, 277162400, 13, 1.67, -33.7840393, 151.0681886, 1.27, 96.21, 0.56, 342.30
CTUN, 647, 0.00, 1.36, 0.000000, 0.00, 57, -61, 704, 0
ATT, 27.69, 25.79, 0.00, 0.48, 0.00, 59.19, 62.55
CTUN, 647, 0.00, 1.33, 0.000000, 0.00, 50, -52, 697, 0
ATT, 27.57, 23.52, 0.00, 0.84, 0.00, 59.31, 62.55
GPS, 3, 277162600, 13, 1.67, -33.7840397, 151.0681899, 1.18, 96.13, 0.55, 25.13
CTUN, 647, 0.00, 1.52, 0.000000, 0.00, 44, -43, 691, 0
ATT, 29.42, 22.44, 0.00, 0.98, 0.00, 59.14, 62.55
CTUN, 647, 0.00, 1.45, 0.000000, 0.00, 42, -37, 689, 0
ATT, 27.69, 22.58, 0.00, 0.78, 0.00, 58.80, 62.55
GPS, 3, 277162800, 13, 1.67, -33.7840414, 151.0681920, 1.14, 96.06, 1.20, 115.63
CTUN, 639, 0.00, 1.38, 0.000000, 0.00, 41, -30, 686, 0
ATT, 25.73, 20.94, 0.00, 0.91, 0.00, 58.48, 62.55
CTUN, 635, 0.00, 1.41, 0.000000, 0.00, 36, -24, 669, 0
ATT, 20.42, 19.86, 0.00, 1.11, 0.00, 58.16, 62.55
GPS, 3, 277163000, 13, 1.67, -33.7840439, 151.0681943, 1.12, 95.85, 1.65, 128.48
CTUN, 633, 0.00, 1.35, 0.000000, 0.00, 28, -16, 661, 0
ATT, 12.23, 16.01, 0.00, 0.74, 0.00, 57.82, 62.55
CTUN, 635, 0.00, 1.47, 0.000000, 0.00, 19, -11, 654, 0
GPS, 3, 277163200, 13, 1.67, -33.7840475, 151.0681981, 1.13, 95.77, 2.45, 135.02
ATT, 0.00, 8.92, 5.62, 0.59, 0.00, 57.23, 62.55
CTUN, 634, 0.00, 1.48, 0.000000, 0.00, 6, -1, 640, 0
DU32, 7, 1401
CURR, 634, 125997, 1073, 1608, 4635, 90.39574
ATT, 0.00, 1.23, 5.74, 2.56, 0.00, 57.06, 62.55
CTUN, 635, 0.00, 1.35, 0.000000, 0.00, 0, 5, 635, 0
GPS, 3, 277163400, 13, 1.67, -33.7840509, 151.0682029, 1.17, 95.83, 2.77, 132.83
CTUN, 636, 0.00, 1.45, 0.000000, 0.00, 0, 12, 636, 0
ATT, 0.00, -1.37, 8.55, 2.97, 0.00, 56.84, 62.55
CTUN, 634, 0.00, 1.40, 0.000000, 0.00, 2, 15, 636, 0
ATT, 0.00, -3.76, 12.65, 5.26, 0.00, 56.63, 62.55
GPS, 3, 277163600, 13, 1.67, -33.7840551, 151.0682066, 1.22, 95.76, 2.78, 137.61
CTUN, 636, 0.00, 1.43, 0.000000, 0.00, 4, 17, 640, 0
ATT, -2.90, -3.84, 13.59, 8.19, 0.00, 56.39, 62.55
CTUN, 638, 0.00, 1.52, 0.000000, 0.00, 8, 16, 646, 0
ATT, -8.48, -4.96, 13.35, 10.33, 0.00, 56.36, 62.55
GPS, 3, 277163800, 13, 1.67, -33.7840596, 151.0682110, 1.29, 95.66, 3.09, 139.30
CTUN, 644, 0.00, 1.68, 0.000000, 0.00, 11, 18, 655, 0
ATT, -15.69, -9.52, 12.07, 10.86, 0.00, 56.78, 62.55
CTUN, 645, 0.00, 1.56, 0.000000, 0.00, 18, 19, 663, 0
ATT, -21.97, -12.69, 11.71, 9.84, 0.00, 57.44, 62.55
GPS, 3, 277164000, 13, 1.67, -33.7840637, 151.0682143, 1.36, 95.71, 2.75, 142.51
CTUN, 645, 0.00, 1.85, 0.000000, 0.00, 25, 22, 670, 0
ATT, -31.39, -19.43, 8.67, 9.35, 0.00, 58.30, 62.55
CTUN, 645, 0.00, 1.76, 0.000000, 0.00, 39, 24, 684, 0
GPS, 3, 277164200, 13, 1.67, -33.7840669, 151.0682161, 1.46, 95.70, 2.10, 146.61
ATT, -24.65, -24.84, 1.75, 6.81, 0.00, 59.55, 62.55
CTUN, 649, 0.00, 1.74, 0.000000, 0.00, 57, 26, 706, 0
DU32, 7, 1401
CURR, 649, 131860, 1065, 1641, 4693, 94.70518
ATT, -19.76, -24.49, 0.00, 3.52, 0.00, 60.08, 62.55
CTUN, 665, 0.00, 1.80, 0.000000, 0.00, 53, 32, 720, 0
GPS, 3, 277164400, 13, 1.67, -33.7840695, 151.0682167, 1.55, 95.92, 1.53, 152.22
PM, 0, 0, 50, 41, 1000, 11040, 10, 4
CTUN, 669, 0.00, 1.71, 0.000000, 0.00, 52, 42, 721, 0
ATT, -20.46, -22.68, 0.00, 0.38, 0.00, 59.72, 62.55
CTUN, 671, 0.00, 1.53, 0.000000, 0.00, 35, 53, 706, 0
ATT, -12.09, -20.56, 0.00, 0.14, 0.00, 58.08, 62.55
GPS, 3, 277164600, 13, 1.67, -33.7840705, 151.0682159, 1.65, 96.14, 0.77, 159.14
CTUN, 671, 0.00, 1.64, 0.000000, 0.00, 21, 65, 692, 0
ATT, -7.44, -13.23, 0.00, -1.60, 0.00, 56.67, 62.55
CTUN, 671, 0.00, 1.62, 0.000000, 0.00, 10, 79, 681, 0
ATT, 0.00, -7.65, 0.00, -1.10, 0.00, 55.18, 62.55
GPS, 3, 277164800, 13, 1.67, -33.7840704, 151.0682144, 1.81, 96.37, 0.62, 187.43
CTUN, 673, 0.00, 1.76, 0.000000, 0.00, 1, 88, 674, 0
ATT, 0.00, 0.20, -3.15, -0.11, 0.00, 53.90, 62.55
CTUN, 673, 0.00, 1.93, 0.000000, 0.00, 0, 104, 672, 0
ATT, 0.00, 4.15, -7.15, -0.58, 0.00, 53.48, 62.55
GPS, 3, 277165000, 13, 1.67, -33.7840687, 151.0682126, 2.00, 97.05, 1.12, 297.06
CTUN, 671, 0.00, 2.08, 0.000000, 0.00, 1, 118, 672, 0
ATT, 0.00, 3.94, -4.85, -3.22, 0.00, 53.85, 62.55
CTUN, 674, 0.00, 2.13, 0.000000, 0.00, 2, 128, 675, 0
GPS, 3, 277165200, 13, 1.67, -33.7840667, 151.0682113, 2.25, 97.60, 1.29, 319.50
ATT, 0.00, 4.56, -4.12, -3.36, 0.00, 54.64, 62.55
CTUN, 672, 0.00, 2.30, 0.000000, 0.00, 2, 139, 674, 0
DU32, 7, 1401
CURR, 672, 138087, 1062, 1702, 4712, 99.67824
ATT, 0.00, 4.66, -5.82, -3.19, 0.00, 55.48, 62.55
CTUN, 672, 0.00, 2.37, 0.000000, 0.00, 2, 147, 674, 0
GPS, 3, 277165400, 13, 1.67, -33.7840653, 151.0682099, 2.54, 98.04, 1.06, 322.29
CTUN, 669, 0.00, 2.51, 0.000000, 0.00, 2, 155, 674, 0
ATT, 0.00, 4.40, -12.37, -4.29, 0.00, 56.46, 62.55
CTUN, 606, 0.00, 2.72, 0.000000, 0.00, 4, 161, 610, 0
ATT, 0.00, 3.64, -14.19, -7.41, 0.00, 57.19, 62.55
GPS, 3, 277165600, 13, 1.67, -33.7840640, 151.0682091, 2.82, 98.34, 0.85, 326.58
CTUN, 607, 0.00, 2.96, 0.000000, 0.00, 7, 160, 614, 0
ATT, 0.00, 2.55, -14.67, -10.73, 0.00, 58.04, 62.55
CTUN, 607, 0.00, 3.00, 0.000000, 0.00, 10, 157, 616, 0
ATT, 0.00, 2.24, -14.67, -12.22, 0.00, 58.57, 62.55
GPS, 3, 277165800, 13, 1.67, -33.7840620, 151.0682086, 3.16, 98.80, 1.10, 341.28
CTUN, 607, 0.00, 3.17, 0.000000, 0.00, 11, 153, 620, 0
ATT, 0.00, 1.86, -15.04, -12.74, 0.00, 58.91, 62.55
CTUN, 607, 0.00, 3.41, 0.000000, 0.00, 12, 148, 619, 0
ATT, 0.00, 2.58, -13.09, -12.50, 0.00, 58.93, 62.55
GPS, 3, 277166000, 12, 1.74, -33.7840599, 151.0682092, 3.46, 99.12, 1.18, 352.28
CTUN, 607, 0.00, 3.41, 0.000000, 0.00, 11, 144, 617, 0
ATT, 0.00, 3.05, -13.46, -11.18, 0.00, 58.83, 62.55
CTUN, 606, 0.00, 3.58, 0.000000, 0.00, 9, 140, 615, 0
GPS, 3, 277166200, 13, 1.67, -33.7840577, 151.0682106, 3.73, 99.45, 1.36, 14.70
ATT, 0.00, 3.61, -13.34, -10.15, 0.00, 58.50, 62.55
CTUN, 606, 0.00, 3.84, 0.000000, 0.00, 8, 136, 614, 0
DU32, 7, 1401
CURR, 606, 143785, 1080, 1446, 4732, 103.8980
ATT, 0.00, 3.79, -13.22, -9.64, 0.00, 58.26, 62.55
CTUN, 607, 0.00, 4.05, 0.000000, 0.00, 7, 135, 614, 0
GPS, 3, 277166400, 13, 1.67, -33.7840552, 151.0682130, 4.01, 99.69, 1.75, 29.02
CTUN, 609, 0.00, 4.01, 0.000000, 0.00, 7, 132, 616, 0
ATT, 0.00, 2.56, -15.28, -9.45, 0.00, 58.34, 62.55
CTUN, 605, 0.00, 4.23, 0.000000, 0.00, 7, 131, 612, 0
ATT, 0.00, 1.98, -17.46, -10.22, 0.00, 58.49, 62.55
GPS, 3, 277166600, 13, 1.67, -33.7840527, 151.0682156, 4.25, 99.93, 1.84, 32.35
CTUN, 607, 0.00, 4.49, 0.000000, 0.00, 9, 131, 616, 0
ATT, 0.57, 2.18, -17.83, -11.96, 0.00, 58.73, 62.55
CTUN, 607, 0.00, 4.52, 0.000000, 0.00, 12, 128, 619, 0
ATT, 0.57, 1.57, -16.85, -12.96, 0.00, 59.09, 62.55
GPS, 3, 277166800, 13, 1.67, -33.7840500, 151.0682193, 4.54, 100.14, 2.20, 42.58
CTUN, 606, 0.00, 4.64, 0.000000, 0.00, 12, 127, 619, 0
ATT, 1.03, 1.97, -14.43, -12.77, 0.00, 59.45, 62.55
CTUN, 607, 0.00, 4.80, 0.000000, 0.00, 12, 127, 619, 0
ATT, 0.57, 2.62, -12.73, -11.85, 0.00, 59.71, 62.55
GPS, 3, 277167000, 13, 1.67, -33.7840473, 151.0682234, 4.81, 100.38, 2.39, 46.22
CTUN, 606, 0.00, 5.02, 0.000000, 0.00, 9, 127, 615, 0
ATT, 1.03, 2.51, -10.43, -10.06, 0.00, 59.92, 62.55
CTUN, 606, 0.00, 5.20, 0.000000, 0.00, 7, 126, 613, 0
GPS, 3, 277167200, 13, 1.67, -33.7840442, 151.0682282, 5.08, 100.59, 2.79, 48.73
ATT, 1.50, 2.59, -4.00, -7.81, 0.00, 59.95, 62.55
CTUN, 614, 0.00, 5.40, 0.000000, 0.00, 5, 127, 619, 0
DU32, 7, 1401
CURR, 614, 149326, 1082, 1433, 4712, 107.9098
ATT, 1.61, 1.16, 0.00, -4.47, 0.00, 59.70, 62.55
CTUN, 614, 0.00, 5.56, 0.000000, 0.00, 1, 126, 615, 0
GPS, 3, 277167400, 13, 1.67, -33.7840413, 151.0682337, 5.36, 100.75, 2.98, 52.37
CTUN, 614, 0.00, 5.77, 0.000000, 0.00, 0, 128, 614, 0
ATT, 4.84, 0.81, 0.00, 0.25, 0.00, 59.04, 62.55
CTUN, 618, 0.00, 5.68, 0.000000, 0.00, 0, 130, 616, 0
ATT, 3.34, 2.04, 3.04, 2.52, 0.00, 58.61, 62.55
GPS, 3, 277167600, 12, 1.70, -33.7840382, 151.0682391, 5.63, 100.87, 3.05, 52.41
CTUN, 618, 0.00, 5.81, 0.000000, 0.00, 2, 132, 620, 0
ATT, 2.88, 2.37, 6.21, 6.06, 0.00, 58.36, 62.55
CTUN, 619, 0.00, 6.12, 0.000000, 0.00, 3, 132, 621, 0
ATT, 3.00, 2.15, 7.61, 7.75, 0.00, 58.25, 62.55
GPS, 3, 277167800, 12, 1.70, -33.7840346, 151.0682444, 5.94, 100.93, 3.14, 50.49
CTUN, 617, 0.00, 6.03, 0.000000, 0.00, 5, 132, 622, 0
ATT, 4.26, 1.94, 12.89, 10.39, 0.00, 58.24, 62.55
CTUN, 618, 0.00, 6.12, 0.000000, 0.00, 9, 130, 627, 0
ATT, 6.57, 1.92, 16.52, 13.07, 0.00, 58.18, 62.55
GPS, 3, 277168000, 13, 1.67, -33.7840317, 151.0682493, 6.21, 101.17, 2.80, 51.19
CTUN, 618, 0.00, 6.24, 0.000000, 0.00, 14, 132, 632, 0
ATT, 4.38, 2.87, 20.62, 15.02, 0.00, 58.08, 62.55
CTUN, 618, 0.00, 6.35, 0.000000, 0.00, 18, 131, 636, 0
GPS, 3, 277168200, 14, 1.65, -33.7840296, 151.0682533, 6.47, 101.38, 2.22, 52.22
ATT, 4.84, 2.20, 23.67, 17.95, 0.00, 58.24, 62.55
CTUN, 618, 0.00, 6.23, 0.000000, 0.00, 25, 128, 643, 0
DU32, 7, 1401
CURR, 618, 154930, 1073, 1523, 4693, 112.0263
ATT, 6.00, 2.50, 26.36, 19.86, 0.00, 58.49, 62.55
CTUN, 618, 0.00, 6.39, 0.000000, 0.00, 30, 126, 648, 0
GPS, 3, 277168400, 14, 1.65, -33.7840281, 151.0682563, 6.70, 101.53, 1.68, 53.32
CTUN, 618, 0.00, 6.65, 0.000000, 0.00, 38, 123, 656, 0
ATT, 5.65, 2.80, 29.76, 21.86, 0.00, 58.99, 62.55
CTUN, 618, 0.00, 6.67, 0.000000, 0.00, 41, 120, 659, 0
ATT, 4.50, 2.16, 31.28, 23.26, 0.00, 59.37, 62.55
GPS, 3, 277168600, 14, 1.65, -33.7840273, 151.0682581, 6.92, 101.74, 0.95, 54.80
CTUN, 618, 0.00, 6.90, 0.000000, 0.00, 49, 116, 667, 0
ATT, 3.11, 1.57, 33.16, 25.51, 0.00, 59.46, 62.55
CTUN, 513, 0.00, 6.93, 0.000000, 0.00, 43, 112, 556, 0
ATT, 3.92, 1.22, 37.26, 27.04, 0.00, 59.32, 62.55
GPS, 3, 277168800, 14, 1.65, -33.7840273, 151.0682585, 7.13, 101.89, 0.23, 54.80
CTUN, 508, 0.00, 7.14, 0.000000, 0.00, 50, 102, 559, 0
ATT, 0.57, 1.31, 35.39, 29.75, 0.00, 58.74, 62.55
CTUN, 509, 0.00, 7.41, 0.000000, 0.00, 57, 78, 564, 0
ATT, 0.34, 0.18, 34.45, 29.54, 0.00, 58.41, 62.55
GPS, 3, 277169000, 14, 1.65, -33.7840282, 151.0682575, 7.30, 102.06, 0.61, 30.52
CTUN, 509, 0.00, 7.59, 0.000000, 0.00, 54, 56, 563, 0
ATT, 1.26, -2.91, 36.56, 27.39, 0.00, 58.16, 62.55
CTUN, 509, 0.00, 7.93, 0.000000, 0.00, 47, 40, 556, 0
GPS, 3, 277169200, 14, 1.65, -33.7840296, 151.0682549, 7.42, 102.17, 1.40, 264.24
ATT, 0.46, -3.39, 30.23, 26.84, 0.00, 57.85, 62.55
CTUN, 507, 0.00, 8.14, 0.000000, 0.00, 46, 27, 553, 0
DU32, 7, 1401
CURR, 507, 160410, 1089, 1250, 4673, 116.0214
ATT, 0.23, -3.25, 29.29, 24.06, 0.00, 57.57, 62.55
CTUN, 484, 0.00, 8.38, 0.000000, 0.00, 37, 17, 544, 0
GPS, 3, 277169400, 14, 1.65, -33.7840315, 151.0682513, 7.55, 102.24, 1.90, 253.58
CTUN, 471, 0.00, 8.30, 0.000000, 0.00, 25, 10, 496, 0
ATT, 0.00, -4.82, 29.29, 20.51, 0.00, 56.85, 62.55
CTUN, 391, 0.00, 8.13, 0.000000, 0.00, 18, 0, 415, 0
ATT, 0.00, -4.61, 23.90, 20.07, 0.00, 56.05, 62.55
GPS, 3, 277169600, 13, 1.68, -33.7840339, 151.0682475, 7.64, 101.96, 2.01, 246.26
CTUN, 391, 0.00, 8.21, 0.000000, 0.00, 17, -23, 408, 0
ATT, 0.00, -3.04, 0.00, 18.97, 0.00, 55.32, 62.55
CTUN, 391, 0.00, 8.33, 0.000000, 0.00, 8, -52, 399, 0
ATT, 0.00, 0.35, -0.84, 10.52, 0.00, 55.22, 62.55
GPS, 3, 277169800, 14, 1.65, -33.7840342, 151.0682426, 7.63, 101.38, 2.15, 250.95
CTUN, 392, 0.00, 8.25, 0.000000, 0.00, 0, -68, 389, 0
ATT, 0.00, -2.88, -10.55, -3.63, 0.00, 55.56, 62.55
CTUN, 391, 0.00, 8.11, 0.000000, 0.00, 4, -77, 395, 0
ATT, 6.57, -3.68, -14.67, -16.17, 0.00, 56.58, 62.55
GPS, 3, 277170000, 14, 1.65, -33.7840321, 151.0682388, 7.55, 100.94, 2.02, 271.39
CTUN, 449, 0.00, 8.27, 0.000000, 0.00, 16, -79, 437, 0
ATT, 11.30, -1.62, -16.73, -19.44, 0.00, 58.20, 62.55
CTUN, 457, 0.00, 7.93, 0.000000, 0.00, 19, -86, 476, 0
ATT, 10.73, 4.09, -15.88, -19.25, 0.00, 60.11, 62.55
GPS, 3, 277170200, 14, 1.65, -33.7840278, 151.0682379, 7.45, 100.24, 2.11, 306.74
CTUN, 462, 0.00, 7.66, 0.000000, 0.00, 25, -103, 487, 0
DU32, 7, 1401
CURR, 462, 164938, 1106, 1004, 4693, 119.0461
ATT, 15.00, 8.76, -15.76, -25.52, 0.00, 61.58, 62.55
CTUN, 462, 0.00, 8.33, 0.000000, 0.00, 42, -113, 504, 0
GPS, 3, 277170400, 14, 1.65, -33.7840278, 151.0682332, 7.29, 99.85, 2.13, 296.67
ATT, 22.38, 11.57, -14.19, -25.85, 0.00, 62.71, 62.55
CTUN, 462, 0.00, 7.90, 0.000000, 0.00, 44, -120, 506, 0
ATT, 25.26, 13.34, -13.58, -22.29, 0.00, 63.03, 62.55
CTUN, 465, 0.00, 7.23, 0.000000, 0.00, 35, -132, 500, 0
GPS, 3, 277170600, 14, 1.65, -33.7840281, 151.0682301, 7.09, 99.54, 1.58, 279.11
CTUN, 470, 0.00, 6.93, 0.000000, 0.00, 52, -138, 516, 0
ATT, 21.46, 18.91, -12.37, -23.49, 0.00, 61.83, 62.55
CTUN, 510, 0.00, 6.50, 0.000000, 0.00, 34, -147, 517, 0
ATT, 8.19, 14.70, -5.45, -16.85, 0.00, 63.19, 62.55
GPS, 3, 277170800, 14, 1.65, -33.7840287, 151.0682288, 6.78, 99.13, 0.82, 279.11
CTUN, 529, 0.00, 6.13, 0.000000, 0.00, 23, -159, 553, 0
ATT, 0.00, 9.46, 0.00, -11.47, 0.00, 63.31, 62.55
CTUN, 558, 0.00, 6.14, 0.000000, 0.00, 2, -159, 553, 0
ATT, 0.00, -3.44, 2.57, -0.67, 0.00, 62.91, 62.55
GPS, 3, 277171000, 14, 1.65, -33.7840297, 151.0682297, 6.40, 98.83, 0.53, 279.11
CTUN, 558, 0.00, 6.03, 0.000000, 0.00, 1, -174, 559, 0
ATT, 0.00, -3.32, 13.94, 4.20, 0.00, 60.66, 62.55
CTUN, 572, 0.00, 5.99, 0.000000, 0.00, 3, -185, 572, 0
ATT, 0.00, 1.24, 14.41, 10.45, 0.00, 57.61, 62.55
GPS, 3, 277171200, 13, 1.67, -33.7840307, 151.0682310, 6.01, 98.35, 0.80, 279.11
CTUN, 571, 0.00, 5.75, 0.000000, 0.00, 9, -190, 580, 0
DU32, 7, 1401
CURR, 572, 169776, 1081, 1439, 4673, 122.4242
ATT, 0.00, 4.21, 13.47, 14.48, 0.00, 54.51, 62.55
CTUN, 571, 0.00, 5.43, 0.000000, 0.00, 15, -187, 586, 0
ATT, 0.00, 1.79, 13.35, 12.93, 0.00, 51.36, 61.36
GPS, 3, 277171400, 13, 1.67, -33.7840323, 151.0682331, 5.61, 98.10, 1.08, 220.65
CTUN, 571, 0.00, 5.11, 0.000000, 0.00, 9, -178, 578, 0
ATT, 0.00, 0.22, 16.05, 10.23, 0.00, 48.51, 58.51
CTUN, 572, 0.00, 4.84, 0.000000, 0.00, 6, -170, 577, 0
GPS, 3, 277171600, 13, 1.67, -33.7840344, 151.0682341, 5.22, 97.80, 1.12, 173.70
ATT, 0.00, 3.49, 20.62, 8.85, 0.00, 46.69, 56.69
CTUN, 571, 0.00, 5.00, 0.000000, 0.00, 6, -165, 577, 0
ATT, 0.00, 4.05, 23.90, 10.96, 0.00, 45.80, 55.80
CTUN, 571, 0.00, 4.95, 0.000000, 0.00, 9, -165, 580, 0
GPS, 3, 277171800, 13, 1.67, -33.7840370, 151.0682350, 4.83, 97.54, 1.36, 168.41
ATT, -1.74, 2.55, 20.97, 10.92, 0.00, 44.92, 54.92
CTUN, 572, 0.00, 4.75, 0.000000, 0.00, 8, -161, 579, 0
ATT, -5.11, 0.25, 21.56, 9.85, 0.00, 44.13, 54.13
CTUN, 571, 0.00, 4.81, 0.000000, 0.00, 6, -155, 577, 0
GPS, 3, 277172000, 13, 1.67, -33.7840401, 151.0682348, 4.58, 97.07, 1.65, 177.63
CTUN, 571, 0.00, 4.75, 0.000000, 0.00, 7, -149, 578, 0
ATT, -16.16, -4.61, 17.46, 10.83, 0.00, 43.33, 53.33
CTUN, 572, 0.00, 4.39, 0.000000, 0.00, 12, -141, 584, 0
ATT, -19.65, -8.40, 12.18, 11.58, 1.08, 43.06, 53.06
GPS, 3, 277172200, 13, 1.67, -33.7840431, 151.0682340, 4.29, 96.64, 1.69, 183.36
CTUN, 604, 0.00, 3.99, 0.000000, 0.00, 17, -136, 620, 0
DU32, 7, 1401
CURR, 607, 175022, 1082, 1415, 4712, 126.3536
ATT, -24.53, -14.95, 5.50, 5.74, 8.28, 44.48, 54.48
CTUN, 619, 0.00, 4.03, 0.000000, 0.00, 25, -129, 644, 0
ATT, -19.88, -20.28, 1.75, 0.44, 10.80, 47.36, 57.36
GPS, 3, 277172400, 13, 1.67, -33.7840462, 151.0682326, 4.01, 96.29, 1.78, 192.32
CTUN, 620, 0.00, 4.00, 0.000000, 0.00, 29, -119, 650, 0
ATT, -13.72, -14.39, 0.00, -7.47, 10.68, 52.27, 62.27
CTUN, 619, 0.00, 3.94, 0.000000, 0.00, 19, -116, 638, 0
GPS, 3, 277172600, 13, 1.67, -33.7840486, 151.0682302, 3.78, 95.87, 1.73, 201.00
ATT, -13.02, -9.75, 0.00, -9.13, 0.84, 55.74, 63.67
CTUN, 620, 0.00, 3.48, 0.000000, 0.00, 12, -105, 632, 0
ATT, -8.72, -9.17, 0.00, -6.69, 0.00, 56.74, 63.82
CTUN, 620, 0.00, 3.29, 0.000000, 0.00, 9, -99, 629, 0
GPS, 3, 277172800, 13, 1.67, -33.7840495, 151.0682269, 3.56, 95.42, 1.56, 220.99
ATT, 0.00, -5.85, 0.00, -3.94, 0.00, 57.20, 63.82
CTUN, 620, 0.00, 3.24, 0.000000, 0.00, 3, -92, 623, 0
ATT, -0.58, -2.23, 0.00, -1.03, 0.00, 57.43, 63.82
CTUN, 620, 0.00, 3.03, 0.000000, 0.00, 0, -84, 620, 0
GPS, 3, 277173000, 13, 1.67, -33.7840497, 151.0682238, 3.37, 95.30, 1.40, 242.38
CTUN, 620, 0.00, 3.03, 0.000000, 0.00, 0, -77, 620, 0
ATT, 0.00, -1.11, 0.00, 0.55, 0.00, 57.84, 63.82
CTUN, 619, 0.00, 2.92, 0.000000, 0.00, 0, -71, 619, 0
ATT, 0.00, -0.88, 0.00, 1.19, 0.48, 58.07, 63.86
GPS, 3, 277173200, 13, 1.67, -33.7840499, 151.0682212, 3.17, 95.30, 1.26, 259.14
CTUN, 620, 0.00, 2.87, 0.000000, 0.00, 0, -64, 620, 0
ATT, 0.00, 0.07, 0.00, 1.88, 5.16, 58.47, 64.88
DU32, 7, 1401
CURR, 620, 180689, 1080, 1467, 4673, 130.6045
CTUN, 620, 0.00, 2.92, 0.000000, 0.00, 0, -56, 620, 0
ATT, 0.00, -0.05, 0.00, 2.17, 8.64, 59.56, 68.22
GPS, 3, 277173400, 13, 1.67, -33.7840499, 151.0682189, 3.02, 95.14, 1.04, 266.22
CTUN, 620, 0.00, 2.85, 0.000000, 0.00, 0, -47, 620, 0
ATT, 0.00, -0.39, 0.00, 2.34, 9.48, 62.68, 72.68
CTUN, 620, 0.00, 2.80, 0.000000, 0.00, 0, -34, 620, 0
GPS, 3, 277173600, 13, 1.67, -33.7840503, 151.0682168, 2.93, 95.15, 1.02, 266.57
ATT, 0.00, -1.28, 0.00, 1.93, 3.24, 66.82, 75.00
CTUN, 620, 0.00, 2.68, 0.000000, 0.00, 0, -25, 620, 0
ATT, 0.00, -1.80, 0.00, 1.85, 0.00, 69.39, 75.88
CTUN, 619, 0.00, 2.64, 0.000000, 0.00, 0, -19, 620, 0
GPS, 3, 277173800, 13, 1.67, -33.7840506, 151.0682146, 2.86, 95.11, 1.06, 267.33
ATT, 0.00, -2.00, 0.00, 1.81, 0.00, 71.43, 75.88
CTUN, 621, 0.00, 2.67, 0.000000, 0.00, 0, -14, 621, 0
ATT, 0.00, -2.42, 0.00, 1.88, 0.00, 72.31, 75.88
CTUN, 606, 0.00, 2.76, 0.000000, 0.00, 0, -10, 606, 0
GPS, 3, 277174000, 13, 1.67, -33.7840507, 151.0682121, 2.81, 95.14, 1.13, 270.04
CTUN, 542, 0.00, 2.72, 0.000000, 0.00, 0, -7, 542, 0
ATT, 0.00, -2.51, 0.00, 1.87, 0.00, 72.59, 75.88
CTUN, 540, 0.00, 2.58, 0.000000, 0.00, 0, -15, 540, 0
ATT, 0.00, -2.45, 0.00, 1.53, 0.00, 72.49, 75.88
GPS, 3, 277174200, 13, 1.67, -33.7840506, 151.0682099, 2.78, 95.13, 1.07, 274.50
CTUN, 540, 0.00, 2.66, 0.000000, 0.00, 0, -26, 541, 0
ATT, 0.00, -1.90, 0.00, 1.31, 0.00, 72.33, 75.88
DU32, 7, 1401
CURR, 541, 186042, 1096, 1174, 4732, 134.5001
CTUN, 540, 0.00, 2.63, 0.000000, 0.00, 0, -38, 542, 0
ATT, 0.00, -1.09, 0.00, 1.23, 0.00, 72.25, 75.88
GPS, 3, 277174400, 13, 1.67, -33.7840503, 151.0682075, 2.69, 95.13, 1.17, 277.11
PM, 0, 0, 50, 56, 1000, 12268, 10, 4
CTUN, 541, 0.00, 2.60, 0.000000, 0.00, 0, -47, 542, 0
ATT, 0.00, -1.08, 0.00, 0.76, 0.00, 72.23, 75.88
CTUN, 542, 0.00, 2.45, 0.000000, 0.00, 0, -54, 542, 0
GPS, 3, 277174600, 13, 1.67, -33.7840498, 151.0682054, 2.59, 95.02, 1.12, 284.50
ATT, 0.00, -0.57, 0.00, 0.25, 0.00, 72.13, 75.88
CTUN, 571, 0.00, 2.52, 0.000000, 0.00, 0, -62, 571, 0
ATT, 0.00, 0.27, 0.00, 0.52, 0.00, 72.01, 75.88
CTUN, 576, 0.00, 2.43, 0.000000, 0.00, 0, -67, 573, 0
GPS, 3, 277174800, 14, 1.65, -33.7840494, 151.0682030, 2.44, 94.87, 1.15, 284.90
ATT, 0.00, 0.53, 0.00, 0.53, 0.00, 71.96, 75.88
CTUN, 583, 0.00, 2.40, 0.000000, 0.00, 0, -70, 583, 0
ATT, 4.84, 0.49, 0.00, 0.34, 0.00, 71.93, 75.88
CTUN, 583, 0.00, 2.38, 0.000000, 0.00, 0, -72, 583, 0
