dump 3

ArduCopter V3.1-rc2
Free RAM: 1133
APM 2
FMT, 128, 89, FMT, BBnNZ, Type,Length,Name,Format
FMT, 129, 23, PARM, Nf, Name,Value
FMT, 130, 35, GPS, BIBcLLeeEe, Status,Time,NSats,HDop,Lat,Lng,RelAlt,Alt,Spd,GCrs
FMT, 131, 27, IMU, ffffff, GyrX,GyrY,GyrZ,AccX,AccY,AccZ
FMT, 132, 67, MSG, Z, Message
FMT, 9, 19, CURR, hIhhhf, Thr,ThrInt,Volt,Curr,Vcc,CurrTot
FMT, 11, 11, MOT, hhhh, Mot1,Mot2,Mot3,Mot4
FMT, 12, 28, OF, hhBccffee, Dx,Dy,SQual,X,Y,Lat,Lng,Roll,Pitch
FMT, 5, 49, NTUN, Ecffffffffee, WPDst,WPBrg,PErX,PErY,DVelX,DVelY,VelX,VelY,DAcX,DAcY,DRol,DPit
FMT, 4, 25, CTUN, hcefchhhh, ThrIn,SonAlt,BarAlt,WPAlt,DesSonAlt,AngBst,CRate,ThrOut,DCRate
FMT, 15, 21, MAG, hhhhhhhhh, MagX,MagY,MagZ,OfsX,OfsY,OfsZ,MOfsX,MOfsY,MOfsZ
FMT, 6, 17, PM, BBBHHIhB, RenCnt,RenBlw,FixCnt,NLon,NLoop,MaxT,PMT,I2CErr
FMT, 8, 20, CMD, BBBBBeLL, CTot,CNum,CId,COpt,Prm1,Alt,Lat,Lng
FMT, 1, 17, ATT, cccccCC, RollIn,Roll,PitchIn,Pitch,YawIn,Yaw,NavYaw
FMT, 17, 37, INAV, cccfffiiff, BAlt,IAlt,IClb,ACorrX,ACorrY,ACorrZ,GLat,GLng,ILat,ILng
FMT, 3, 6, MODE, Mh, Mode,ThrCrs
FMT, 10, 3, STRT, , 
FMT, 13, 4, EV, B, Id
FMT, 20, 6, D16, Bh, Id,Value
FMT, 21, 6, DU16, BH, Id,Value
FMT, 22, 8, D32, Bi, Id,Value
FMT, 23, 8, DU32, BI, Id,Value
FMT, 24, 8, DFLT, Bf, Id,Value
FMT, 14, 28, PID, Biiiiif, Id,Error,P,I,D,Out,Gain
FMT, 16, 15, DMP, ccccCC, DCMRoll,DMPRoll,DCMPtch,DMPPtch,DCMYaw,DMPYaw
FMT, 18, 25, CAM, ILLeccC, GPSTime,Lat,Lng,Alt,Roll,Pitch,Yaw
FMT, 19, 5, ERR, BB, Subsys,ECode
D32, 9, 5478
CMD, 6, 0, 16, 0, 0, 0.00, -33.7841121, 151.0682330
EV, 10
GPS, 3, 545237000, 8, 1.96, -33.7841118, 151.0682323, -0.09, 82.13, 0.01, 234.32
CTUN, 0, 0.00, 0.00, 0.000000, 0.00, 0, 3, 0, 0
GPS, 3, 545244200, 8, 1.96, -33.7841030, 151.0682196, -0.08, 83.98, 0.03, 234.32
ATT, 0.00, -0.59, 0.00, 1.06, 0.00, 54.79, 54.79
CTUN, 0, 0.00, 0.07, 0.000000, 0.00, 0, 3, 0, 0
ATT, 0.00, -0.61, 0.00, 1.06, 0.00, 54.78, 54.78
CTUN, 0, 0.00, 0.00, 0.000000, 0.00, 0, 4, 0, 0
GPS, 3, 545244400, 8, 1.96, -33.7841028, 151.0682194, -0.06, 84.03, 0.01, 234.32
ATT, 0.00, -0.62, 0.00, 1.06, 0.00, 54.78, 54.78
CTUN, 0, 0.00, 0.00, 0.000000, 0.00, 0, 4, 0, 0
ATT, 0.00, -0.62, 0.00, 1.06, 0.00, 54.81, 54.81
CTUN, 0, 0.00, -0.03, 0.000000, 0.00, 0, 4, 0, 0
GPS, 3, 545244600, 8, 1.96, -33.7841027, 151.0682190, -0.04, 84.06, 0.03, 234.32
ATT, 0.00, -0.59, 0.00, 1.07, 0.00, 54.80, 54.80
CTUN, 0, 0.00, -0.16, 0.000000, 0.00, 0, 4, 0, 0
DU32, 7, 98393
CURR, 0, 0, 1217, 62, 4712, 1.059497
ATT, 0.00, -0.59, 0.00, 1.08, 0.00, 54.81, 54.81
CTUN, 0, 0.00, -0.02, 0.000000, 0.00, 0, 4, 0, 0
GPS, 3, 545244800, 8, 1.96, -33.7841023, 151.0682186, -0.04, 84.09, 0.01, 234.32
ATT, 0.00, -0.59, 0.00, 1.10, 0.00, 54.81, 54.81
CTUN, 0, 0.00, -0.10, 0.000000, 0.00, 0, 4, 0, 0
ATT, 0.00, -0.59, 0.00, 1.09, 0.00, 54.81, 54.81
CTUN, 0, 0.00, -0.13, 0.000000, 0.00, 0, 4, 0, 0
GPS, 3, 545245000, 8, 1.96, -33.7841020, 151.0682183, -0.04, 84.11, 0.02, 234.32
ATT, 0.00, -0.60, 0.00, 1.09, 0.00, 54.83, 54.83
CTUN, 0, 0.00, -0.15, 0.000000, 0.00, 0, 4, 0, 0
ATT, 0.00, -0.60, 0.00, 1.09, 0.00, 54.83, 54.83
CTUN, 0, 0.00, -0.13, 0.000000, 0.00, 0, 3, 0, 0
GPS, 3, 545245200, 8, 1.96, -33.7841017, 151.0682180, -0.04, 84.12, 0.02, 234.32
ATT, 0.00, -0.60, 0.00, 1.10, 0.00, 54.83, 54.83
EV, 15
EV, 28
CTUN, 150, 0.00, -0.07, 0.000000, 0.00, 0, 3, 139, 0
ATT, 0.00, -0.57, 0.00, 1.11, 0.00, 54.82, 54.84
CTUN, 197, 0.00, -0.16, 0.000000, 0.00, 0, 4, 197, 0
GPS, 3, 545245400, 8, 1.96, -33.7841013, 151.0682176, -0.04, 84.15, 0.02, 234.32
ATT, 0.00, -0.54, 0.00, 1.14, 0.00, 54.80, 54.84
CTUN, 200, 0.00, -0.37, 0.000000, 0.00, 0, 4, 200, 0
ATT, 0.00, -0.52, 0.00, 1.10, 0.00, 54.83, 54.84
CTUN, 200, 0.00, -0.49, 0.000000, 0.00, 0, 3, 199, 0
GPS, 3, 545245600, 8, 1.96, -33.7841008, 151.0682173, -0.06, 84.17, 0.01, 234.32
ATT, 0.00, -0.51, 0.00, 1.13, 0.00, 54.84, 54.84
CTUN, 199, 0.00, -0.67, 0.000000, 0.00, 0, 2, 199, 0
DU32, 7, 65657
CURR, 200, 934, 1203, 321, 4732, 1.541850
ATT, 0.00, -0.50, 0.00, 1.13, 0.00, 54.83, 54.84
CTUN, 200, 0.00, -0.52, 0.000000, 0.00, 0, 1, 200, 0
GPS, 3, 545245800, 8, 1.96, -33.7841005, 151.0682170, -0.12, 84.19, 0.01, 234.32
ATT, 0.00, -0.48, 0.00, 1.15, 0.00, 54.82, 54.84
CTUN, 264, 0.00, -0.67, 0.000000, 0.00, 0, 1, 264, 0
ATT, 0.00, -0.48, 0.00, 1.17, 0.00, 54.83, 54.84
CTUN, 355, 0.00, -0.76, 0.000000, 0.00, 0, 1, 315, 0
GPS, 3, 545246000, 8, 1.96, -33.7841003, 151.0682167, -0.17, 84.22, 0.01, 234.32
ATT, 0.00, -0.38, 0.00, 1.19, 0.00, 54.78, 54.84
CTUN, 385, 0.00, -0.92, 0.000000, 0.00, 0, 0, 385, 0
ATT, 0.00, -0.32, 0.00, 1.18, 0.00, 54.80, 54.84
CTUN, 450, 0.00, -1.21, 0.000000, 0.00, 0, -1, 440, 0
GPS, 3, 545246200, 8, 1.96, -33.7841000, 151.0682164, -0.26, 84.25, 0.07, 234.32
CTUN, 478, 0.00, -1.63, 0.000000, 0.00, 0, -2, 450, 0
ATT, 0.00, -0.30, 0.00, 1.19, 0.00, 54.77, 54.84
EV, 16
CTUN, 504, 0.00, -1.71, 0.000000, 0.00, 0, -4, 499, 0
ATT, 0.00, -0.37, 0.00, 1.07, 0.00, 54.64, 54.84
GPS, 3, 545246400, 9, 1.87, -33.7841001, 151.0682162, -0.41, 84.29, 0.03, 234.32
CTUN, 543, 0.00, -2.22, 0.000000, 0.00, 0, -4, 543, 0
ATT, 0.00, -0.19, 0.00, 1.29, 0.00, 53.54, 54.84
CTUN, 578, 0.00, -2.04, 0.000000, 0.00, 0, -4, 573, 0
GPS, 3, 545246600, 9, 1.87, -33.7841001, 151.0682160, -0.60, 84.32, 0.10, 234.32
ATT, 0.00, 0.10, 0.00, 1.56, 0.00, 51.48, 54.84
CTUN, 599, 0.00, -1.52, 0.000000, 0.00, 0, 1, 590, 0
DU32, 7, 82041
CURR, 598, 4784, 1132, 1407, 4732, 3.921301
ATT, 0.00, 0.11, 0.00, 1.82, 0.00, 49.56, 54.84
CTUN, 601, 0.00, -0.73, 0.000000, 0.00, 0, 12, 600, 0
GPS, 3, 545246800, 9, 1.87, -33.7841002, 151.0682157, -0.72, 84.34, 0.15, 234.32
ATT, 0.00, 0.75, 0.00, 1.87, 0.00, 47.35, 54.84
CTUN, 601, 0.00, -0.42, 0.000000, 0.00, 0, 28, 601, 0
ATT, 0.00, 0.59, 0.00, 2.12, 0.00, 45.93, 54.84
GPS, 3, 545247000, 9, 1.87, -33.7841003, 151.0682155, -0.66, 84.42, 0.05, 234.32
CTUN, 599, 0.00, -0.08, 0.000000, 0.00, 0, 39, 601, 0
ATT, 0.00, 0.21, 0.00, 1.98, 0.00, 44.45, 54.45
CTUN, 599, 0.00, 0.13, 0.000000, 0.00, 0, 50, 599, 0
ATT, 0.00, -0.06, 0.00, 1.40, 0.00, 43.35, 53.35
GPS, 3, 545247200, 9, 1.87, -33.7841007, 151.0682149, -0.47, 84.49, 0.25, 234.32
CTUN, 600, 0.00, 0.20, 0.000000, 0.00, 0, 55, 597, 0
ATT, 0.00, -0.12, 0.00, 0.91, 7.68, 42.50, 52.50
CTUN, 595, 0.00, 0.34, 0.000000, 0.00, 0, 59, 600, 0
ATT, 0.00, 0.14, 0.00, 0.89, 13.20, 43.11, 53.11
GPS, 3, 545247400, 9, 1.87, -33.7841013, 151.0682144, -0.28, 84.58, 0.37, 234.32
CTUN, 587, 0.00, 0.43, 0.000000, 0.00, 0, 68, 587, 0
ATT, 0.00, 0.59, 0.00, 0.96, 10.08, 45.66, 55.66
CTUN, 587, 0.00, 0.46, 0.000000, 0.00, 0, 71, 587, 0
GPS, 3, 545247600, 10, 1.49, -33.7841008, 151.0682133, -0.06, 84.90, 0.30, 234.32
ATT, -2.32, 0.00, 0.00, 0.50, 9.12, 48.86, 58.86
CTUN, 588, 0.00, 0.62, 0.000000, 0.00, 0, 71, 587, 0
DU32, 7, 82041
CURR, 587, 10144, 1125, 1441, 4693, 8.058371
ATT, -2.09, -1.19, 0.00, 0.25, 6.84, 51.64, 61.64
CTUN, 587, 0.00, 0.71, 0.000000, 0.00, 0, 71, 587, 0
GPS, 3, 545247800, 10, 1.49, -33.7841011, 151.0682125, 0.15, 85.14, 0.40, 234.32
CTUN, 587, 0.00, 0.84, 0.000000, 0.00, 0, 70, 587, 0
ATT, -2.32, -1.90, 0.00, 0.00, 6.00, 54.78, 64.78
CTUN, 587, 0.00, 0.81, 0.000000, 0.00, 0, 70, 587, 0
ATT, -3.48, -2.14, -2.18, -0.18, 3.48, 57.16, 66.59
GPS, 3, 545248000, 10, 1.49, -33.7841009, 151.0682118, 0.34, 85.30, 0.31, 234.32
CTUN, 587, 0.00, 0.94, 0.000000, 0.00, 0, 67, 587, 0
ATT, -5.34, -2.80, -4.36, -1.46, 1.56, 59.37, 67.94
CTUN, 587, 0.00, 1.00, 0.000000, 0.00, 1, 68, 588, 0
ATT, -7.09, -3.92, -4.60, -3.02, 1.08, 60.63, 68.45
GPS, 3, 545248201, 10, 1.49, -33.7841007, 151.0682109, 0.56, 85.44, 0.38, 234.32
CTUN, 587, 0.00, 1.15, 0.000000, 0.00, 2, 66, 589, 0
ATT, -7.32, -4.80, -5.45, -3.89, 0.60, 61.34, 68.80
CTUN, 587, 0.00, 1.08, 0.000000, 0.00, 3, 66, 590, 0
ATT, -8.13, -5.46, -5.70, -4.76, 0.24, 61.60, 68.88
GPS, 3, 545248400, 10, 1.49, -33.7841006, 151.0682103, 0.75, 85.55, 0.20, 234.32
CTUN, 587, 0.00, 1.19, 0.000000, 0.00, 3, 65, 590, 0
ATT, -7.55, -5.90, -5.82, -5.27, 0.00, 61.43, 68.91
CTUN, 587, 0.00, 1.22, 0.000000, 0.00, 4, 64, 591, 0
ATT, -5.93, -5.58, -5.94, -5.75, 0.00, 61.02, 68.91
GPS, 3, 545248600, 10, 1.49, -33.7841002, 151.0682099, 0.92, 85.72, 0.22, 234.32
CTUN, 587, 0.00, 1.36, 0.000000, 0.00, 4, 64, 591, 0
ATT, -4.06, -4.53, -5.94, -5.83, 0.00, 60.47, 68.91
CTUN, 572, 0.00, 1.42, 0.000000, 0.00, 3, 63, 575, 0
DU32, 7, 82041
CURR, 572, 15443, 1123, 1439, 4693, 11.91311
GPS, 3, 545248800, 9, 1.58, -33.7840989, 151.0682092, 1.10, 85.97, 0.47, 286.06
ATT, -0.46, -2.79, -5.94, -5.41, 0.00, 59.81, 68.91
CTUN, 547, 0.00, 1.46, 0.000000, 0.00, 2, 61, 549, 0
ATT, -0.34, -0.36, -6.42, -5.30, 0.00, 59.37, 68.91
CTUN, 547, 0.00, 1.50, 0.000000, 0.00, 1, 57, 548, 0
GPS, 3, 545249000, 9, 1.58, -33.7840980, 151.0682088, 1.25, 86.20, 0.35, 320.57
CTUN, 547, 0.00, 1.57, 0.000000, 0.00, 1, 48, 548, 0
ATT, -0.46, 0.95, -6.67, -4.61, 0.00, 59.20, 68.91
CTUN, 546, 0.00, 1.70, 0.000000, 0.00, 1, 42, 547, 0
ATT, -0.46, 1.26, -7.39, -4.76, 0.00, 59.27, 68.91
GPS, 3, 545249200, 10, 1.49, -33.7840966, 151.0682089, 1.37, 86.37, 0.64, 359.05
CTUN, 547, 0.00, 1.81, 0.000000, 0.00, 1, 36, 547, 0
ATT, -0.46, 1.20, -6.06, -5.03, 0.00, 59.51, 68.91
CTUN, 547, 0.00, 1.86, 0.000000, 0.00, 1, 30, 547, 0
ATT, -0.46, 1.08, -5.45, -4.45, 0.00, 59.78, 68.91
GPS, 3, 545249400, 10, 1.49, -33.7840951, 151.0682090, 1.49, 86.53, 0.66, 6.78
CTUN, 546, 0.00, 1.80, 0.000000, 0.00, 1, 23, 546, 0
ATT, -0.46, 1.09, -5.70, -3.69, 0.00, 60.11, 68.91
CTUN, 547, 0.00, 1.85, 0.000000, 0.00, 0, 14, 544, 0
ATT, 0.00, 0.75, -7.64, -3.60, 0.00, 60.45, 68.91
GPS, 3, 545249600, 10, 1.49, -33.7840935, 151.0682098, 1.56, 86.68, 0.85, 20.18
CTUN, 546, 0.00, 1.75, 0.000000, 0.00, 0, 5, 546, 0
ATT, 0.00, 0.82, -8.00, -4.67, 0.00, 60.70, 68.91
CTUN, 548, 0.00, 1.73, 0.000000, 0.00, 1, 2, 549, 0
DU32, 7, 82041
CURR, 548, 20396, 1133, 1267, 4673, 15.50015
GPS, 3, 545249800, 9, 1.87, -33.7840924, 151.0682103, 1.59, 86.72, 0.69, 24.20
ATT, 0.00, 0.59, -7.64, -5.37, 0.00, 60.93, 68.91
CTUN, 548, 0.00, 1.71, 0.000000, 0.00, 1, -2, 549, 0
ATT, 0.00, 0.75, -7.52, -5.28, 0.00, 61.05, 68.91
CTUN, 546, 0.00, 1.69, 0.000000, 0.00, 1, -8, 547, 0
GPS, 3, 545250000, 10, 1.49, -33.7840913, 151.0682112, 1.58, 86.68, 0.81, 33.26
CTUN, 551, 0.00, 1.83, 0.000000, 0.00, 1, -17, 552, 0
ATT, 0.00, 0.78, -7.52, -5.26, 0.00, 61.18, 68.91
CTUN, 570, 0.00, 1.75, 0.000000, 0.00, 1, -18, 571, 0
ATT, 0.00, 0.75, -6.67, -5.24, 0.00, 61.24, 68.91
GPS, 3, 545250200, 10, 1.49, -33.7840899, 151.0682125, 1.57, 86.64, 0.89, 41.52
CTUN, 570, 0.00, 1.70, 0.000000, 0.00, 1, -18, 571, 0
ATT, 0.00, 0.70, -4.00, -4.77, 0.00, 61.22, 68.91
CTUN, 575, 0.00, 1.72, 0.000000, 0.00, 1, -15, 576, 0
ATT, 0.00, 0.60, -0.84, -3.27, 0.00, 61.14, 68.91
GPS, 3, 545250400, 10, 1.49, -33.7840886, 151.0682140, 1.56, 86.60, 0.99, 44.95
CTUN, 577, 0.00, 1.61, 0.000000, 0.00, 0, -13, 575, 0
ATT, 0.00, 0.64, 0.00, -0.63, 0.00, 60.95, 68.91
CTUN, 585, 0.00, 1.72, 0.000000, 0.00, 0, -14, 582, 0
ATT, 0.00, 0.51, 0.00, 0.79, 0.00, 60.79, 68.91
GPS, 3, 545250600, 10, 1.49, -33.7840876, 151.0682156, 1.54, 86.55, 0.91, 54.35
CTUN, 584, 0.00, 1.56, 0.000000, 0.00, 0, -15, 584, 0
ATT, 0.00, 0.16, 0.00, 1.22, 0.00, 60.64, 68.91
CTUN, 584, 0.00, 1.56, 0.000000, 0.00, 0, -11, 584, 0
DU32, 7, 82041
CURR, 584, 26070, 1116, 1413, 4752, 19.59565
GPS, 3, 545250800, 10, 1.49, -33.7840861, 151.0682172, 1.52, 86.41, 1.02, 53.78
ATT, 0.00, 0.02, 0.00, 1.41, 0.00, 60.48, 68.91
CTUN, 584, 0.00, 1.62, 0.000000, 0.00, 0, -10, 584, 0
ATT, 0.00, -0.18, 0.00, 1.27, 0.00, 60.36, 68.91
CTUN, 582, 0.00, 1.56, 0.000000, 0.00, 0, -7, 582, 0
GPS, 3, 545251000, 10, 1.49, -33.7840844, 151.0682186, 1.51, 86.39, 0.93, 54.83
CTUN, 585, 0.00, 1.59, 0.000000, 0.00, 0, -6, 585, 0
ATT, 0.00, -0.44, 0.00, 0.95, 0.00, 60.34, 68.91
CTUN, 585, 0.00, 1.50, 0.000000, 0.00, 0, -4, 585, 0
ATT, 0.00, -0.43, 0.00, 0.73, 0.00, 60.40, 68.91
GPS, 3, 545251200, 10, 1.49, -33.7840831, 151.0682199, 1.51, 86.43, 0.78, 54.64
CTUN, 584, 0.00, 1.54, 0.000000, 0.00, 0, -3, 584, 0
ATT, 0.00, -0.48, 0.00, 0.55, 0.00, 60.54, 68.91
CTUN, 585, 0.00, 1.42, 0.000000, 0.00, 0, -1, 585, 0
ATT, 0.00, -0.48, 0.00, 0.39, 0.00, 60.69, 68.91
GPS, 3, 545251400, 10, 1.49, -33.7840818, 151.0682210, 1.51, 86.47, 0.71, 55.05
CTUN, 585, 0.00, 1.44, 0.000000, 0.00, 0, 0, 585, 0
ATT, 0.00, -0.56, 0.00, 0.30, 0.00, 60.92, 68.91
CTUN, 585, 0.00, 1.46, 0.000000, 0.00, 0, 0, 585, 0
ATT, 0.00, -0.49, 0.00, 0.13, 0.00, 61.14, 68.91
GPS, 3, 545251600, 10, 1.49, -33.7840800, 151.0682219, 1.50, 86.52, 0.73, 48.62
CTUN, 585, 0.00, 1.55, 0.000000, 0.00, 0, 3, 585, 0
PM, 0, 0, 51, 3, 1000, 7352088, 0, 4
ATT, 0.00, -0.48, 0.23, 0.03, 0.00, 61.35, 68.91
CTUN, 585, 0.00, 1.51, 0.000000, 0.00, 0, 2, 585, 0
DU32, 7, 82041
CURR, 586, 31336, 1117, 1411, 4732, 23.51016
GPS, 3, 545251800, 9, 1.58, -33.7840792, 151.0682231, 1.51, 86.55, 0.61, 48.62
ATT, 0.00, -0.57, 0.70, 0.00, 0.00, 61.56, 68.91
CTUN, 585, 0.00, 1.45, 0.000000, 0.00, 0, 6, 585, 0
ATT, 0.00, -0.57, 0.93, 0.08, 0.00, 61.74, 68.91
CTUN, 587, 0.00, 1.50, 0.000000, 0.00, 0, 5, 587, 0
GPS, 3, 545252000, 10, 1.49, -33.7840783, 151.0682239, 1.52, 86.51, 0.49, 48.62
CTUN, 587, 0.00, 1.42, 0.000000, 0.00, 0, 5, 587, 0
ATT, 0.00, -0.57, 0.70, 0.39, 0.00, 61.96, 68.91
CTUN, 587, 0.00, 1.47, 0.000000, 0.00, 0, 8, 587, 0
ATT, 0.00, -0.67, 1.52, 0.41, 0.00, 62.14, 68.91
GPS, 3, 545252200, 10, 1.49, -33.7840772, 151.0682248, 1.52, 86.52, 0.55, 48.42
CTUN, 585, 0.00, 1.45, 0.000000, 0.00, 0, 7, 585, 0
ATT, 0.00, -0.79, 5.39, 0.79, 0.00, 62.25, 68.91
CTUN, 587, 0.00, 1.41, 0.000000, 0.00, 0, 9, 587, 0
ATT, 0.00, -0.61, 4.57, 2.71, 0.00, 62.33, 68.91
GPS, 3, 545252400, 10, 1.49, -33.7840767, 151.0682254, 1.53, 86.49, 0.30, 48.42
CTUN, 585, 0.00, 1.52, 0.000000, 0.00, 0, 9, 587, 0
ATT, 0.00, 0.29, 3.28, 3.73, 0.00, 62.56, 68.91
CTUN, 587, 0.00, 1.52, 0.000000, 0.00, 0, 8, 587, 0
ATT, 0.00, 0.07, 0.11, 2.72, 0.00, 62.93, 68.91
GPS, 3, 545252600, 10, 1.49, -33.7840758, 151.0682262, 1.54, 86.57, 0.44, 48.42
CTUN, 587, 0.00, 1.31, 0.000000, 0.00, 0, 10, 587, 0
ATT, 0.00, 0.00, 0.00, 0.82, 0.00, 63.14, 68.91
CTUN, 586, 0.00, 1.65, 0.000000, 0.00, 0, 11, 587, 0
DU32, 7, 82041
CURR, 585, 36615, 1112, 1394, 4712, 27.40059
GPS, 3, 545252800, 10, 1.49, -33.7840750, 151.0682264, 1.55, 86.61, 0.17, 48.42
ATT, 0.00, -0.67, 0.00, -0.76, 0.00, 63.28, 68.91
CTUN, 585, 0.00, 1.53, 0.000000, 0.00, 0, 11, 585, 0
ATT, 0.00, -0.23, 0.00, -0.80, 0.00, 63.27, 68.91
CTUN, 585, 0.00, 1.54, 0.000000, 0.00, 0, 12, 585, 0
GPS, 3, 545253000, 10, 1.49, -33.7840744, 151.0682265, 1.58, 86.66, 0.11, 48.42
CTUN, 587, 0.00, 1.46, 0.000000, 0.00, 0, 10, 587, 0
ATT, 0.00, -0.24, 0.00, -0.86, 0.00, 63.32, 68.91
CTUN, 585, 0.00, 1.47, 0.000000, 0.00, 0, 11, 587, 0
ATT, 0.00, -0.46, 0.00, -0.94, 0.00, 63.36, 68.91
GPS, 3, 545253200, 10, 1.49, -33.7840737, 151.0682265, 1.59, 86.71, 0.14, 48.42
CTUN, 585, 0.00, 1.50, 0.000000, 0.00, 0, 13, 585, 0
ATT, 0.00, -0.07, 0.00, -0.76, 0.00, 63.39, 68.91
CTUN, 585, 0.00, 1.53, 0.000000, 0.00, 0, 12, 585, 0
ATT, 0.00, 0.31, 0.00, -0.44, 0.00, 63.37, 68.91
GPS, 3, 545253400, 10, 1.49, -33.7840732, 151.0682265, 1.60, 86.79, 0.11, 48.42
CTUN, 587, 0.00, 1.53, 0.000000, 0.00, 0, 13, 587, 0
ATT, 0.00, 0.16, 0.00, -0.70, 0.00, 63.32, 68.91
CTUN, 586, 0.00, 1.46, 0.000000, 0.00, 0, 13, 587, 0
ATT, 0.00, 0.14, 0.00, -0.75, 0.00, 63.27, 68.91
GPS, 3, 545253600, 10, 1.49, -33.7840725, 151.0682266, 1.62, 86.86, 0.14, 48.42
CTUN, 585, 0.00, 1.60, 0.000000, 0.00, 0, 14, 587, 0
ATT, 0.00, 0.10, 0.23, -0.58, 0.00, 63.26, 68.91
CTUN, 586, 0.00, 1.60, 0.000000, 0.00, 0, 12, 585, 0
DU32, 7, 82041
CURR, 585, 41889, 1110, 1397, 4732, 31.26251
GPS, 3, 545253800, 10, 1.49, -33.7840720, 151.0682265, 1.64, 86.92, 0.09, 48.42
ATT, 0.00, 0.21, 0.23, -0.27, 0.00, 63.29, 68.91
CTUN, 587, 0.00, 1.55, 0.000000, 0.00, 0, 14, 585, 0
ATT, 0.00, 0.62, 0.00, 0.04, 0.00, 63.39, 68.91
CTUN, 587, 0.00, 1.65, 0.000000, 0.00, 0, 14, 587, 0
GPS, 3, 545254000, 10, 1.49, -33.7840714, 151.0682265, 1.66, 86.93, 0.11, 48.42
CTUN, 586, 0.00, 1.59, 0.000000, 0.00, 0, 16, 586, 0
ATT, 0.00, 0.97, 0.00, 0.16, 0.00, 63.53, 68.91
CTUN, 587, 0.00, 1.65, 0.000000, 0.00, 0, 16, 586, 0
ATT, 0.00, 0.63, 0.00, -0.03, 0.00, 63.64, 68.91
GPS, 3, 545254200, 9, 1.58, -33.7840713, 151.0682267, 1.68, 86.98, 0.08, 48.42
CTUN, 586, 0.00, 1.66, 0.000000, 0.00, 0, 17, 586, 0
ATT, 0.00, 0.56, 0.00, -0.15, 0.00, 63.67, 68.91
CTUN, 586, 0.00, 1.63, 0.000000, 0.00, 0, 17, 586, 0
ATT, 0.00, 0.33, 0.00, -0.21, 0.00, 63.69, 68.91
GPS, 3, 545254400, 10, 1.49, -33.7840707, 151.0682268, 1.72, 87.00, 0.06, 48.42
CTUN, 586, 0.00, 1.67, 0.000000, 0.00, 0, 16, 586, 0
ATT, 0.00, 0.16, 0.00, -0.25, 0.00, 63.74, 68.91
CTUN, 586, 0.00, 1.75, 0.000000, 0.00, 0, 18, 587, 0
ATT, 0.00, 0.13, 0.00, -0.27, 0.00, 63.76, 68.91
GPS, 3, 545254600, 10, 1.49, -33.7840705, 151.0682271, 1.75, 87.00, 0.07, 48.42
CTUN, 586, 0.00, 1.71, 0.000000, 0.00, 0, 18, 586, 0
ATT, 0.00, 0.23, 0.00, -0.33, 0.00, 63.74, 68.91
CTUN, 586, 0.00, 1.71, 0.000000, 0.00, 0, 18, 586, 0
DU32, 7, 82041
CURR, 586, 47164, 1107, 1399, 4712, 35.13822
GPS, 3, 545254800, 10, 1.49, -33.7840699, 151.0682272, 1.78, 87.01, 0.07, 48.42
ATT, 0.00, 0.37, 0.00, -0.28, 0.00, 63.71, 68.91
CTUN, 585, 0.00, 1.69, 0.000000, 0.00, 0, 18, 585, 0
ATT, 0.00, 0.22, 0.00, -0.28, 0.00, 63.81, 68.91
CTUN, 587, 0.00, 1.83, 0.000000, 0.00, 0, 18, 587, 0
GPS, 3, 545255000, 10, 1.49, -33.7840695, 151.0682274, 1.81, 87.02, 0.06, 48.42
CTUN, 586, 0.00, 1.72, 0.000000, 0.00, 0, 17, 586, 0
ATT, 0.00, 0.06, 0.00, -0.42, 0.00, 64.09, 68.91
CTUN, 581, 0.00, 1.86, 0.000000, 0.00, 0, 17, 581, 0
ATT, 0.00, -0.10, 0.00, -0.41, 0.00, 64.35, 68.91
GPS, 3, 545255200, 10, 1.49, -33.7840694, 151.0682274, 1.84, 87.06, 0.02, 48.42
CTUN, 581, 0.00, 1.72, 0.000000, 0.00, 0, 12, 581, 0
ATT, 0.00, 0.00, 0.00, -0.42, 0.00, 64.68, 68.91
CTUN, 581, 0.00, 1.77, 0.000000, 0.00, 0, 10, 581, 0
ATT, 0.00, -0.22, 0.00, -0.42, 0.00, 64.97, 68.91
GPS, 3, 545255400, 10, 1.49, -33.7840694, 151.0682274, 1.85, 87.12, 0.01, 48.42
CTUN, 581, 0.00, 1.72, 0.000000, 0.00, 0, 10, 581, 0
ATT, 0.00, -0.22, 0.00, -0.51, 0.00, 65.20, 68.91
CTUN, 581, 0.00, 1.77, 0.000000, 0.00, 0, 11, 581, 0
ATT, 0.00, -0.23, 0.00, -0.46, 0.00, 65.33, 68.91
GPS, 3, 545255600, 10, 1.49, -33.7840694, 151.0682275, 1.86, 87.17, 0.06, 48.42
CTUN, 581, 0.00, 1.72, 0.000000, 0.00, 0, 8, 578, 0
ATT, -3.13, -0.44, 0.00, -0.38, 0.00, 65.39, 68.91
CTUN, 580, 0.00, 1.85, 0.000000, 0.00, 0, 3, 580, 0
DU32, 7, 82041
CURR, 580, 52403, 1111, 1358, 4673, 38.94295
GPS, 3, 545255800, 9, 1.58, -33.7840694, 151.0682274, 1.86, 87.24, 0.08, 48.42
ATT, -2.55, -1.93, 0.00, -0.34, 0.00, 65.46, 68.91
CTUN, 580, 0.00, 1.65, 0.000000, 0.00, 0, -1, 580, 0
ATT, -1.97, -1.94, 0.00, -0.41, 0.00, 65.46, 68.91
CTUN, 580, 0.00, 1.67, 0.000000, 0.00, 0, -4, 580, 0
GPS, 3, 545256000, 9, 1.58, -33.7840693, 151.0682273, 1.83, 87.28, 0.02, 48.42
CTUN, 580, 0.00, 1.75, 0.000000, 0.00, 0, -4, 580, 0
ATT, -1.39, -1.74, 0.00, -0.19, 0.00, 65.43, 68.91
CTUN, 583, 0.00, 1.78, 0.000000, 0.00, 0, -3, 582, 0
ATT, -1.39, -1.63, 0.00, -0.26, 0.00, 65.49, 68.91
GPS, 3, 545256200, 9, 1.58, -33.7840691, 151.0682273, 1.82, 87.33, 0.09, 48.42
CTUN, 580, 0.00, 1.80, 0.000000, 0.00, 0, -6, 580, 0
ATT, -0.93, -1.43, 0.00, -0.29, 0.00, 65.61, 68.91
CTUN, 584, 0.00, 1.72, 0.000000, 0.00, 0, -9, 582, 0
ATT, -0.93, -1.13, 0.00, -0.25, 0.00, 65.70, 68.91
GPS, 3, 545256400, 9, 1.58, -33.7840690, 151.0682273, 1.79, 87.36, 0.07, 48.42
CTUN, 586, 0.00, 1.66, 0.000000, 0.00, 0, -13, 584, 0
ATT, -0.93, -0.90, 0.00, -0.19, 0.00, 65.85, 68.91
CTUN, 585, 0.00, 1.67, 0.000000, 0.00, 0, -16, 585, 0
ATT, -0.93, -0.89, 0.00, -0.21, 0.00, 65.93, 68.91
GPS, 3, 545256600, 9, 1.58, -33.7840689, 151.0682271, 1.75, 87.36, 0.03, 48.42
CTUN, 585, 0.00, 1.63, 0.000000, 0.00, 0, -16, 585, 0
ATT, -0.93, -0.69, 0.00, -0.11, 0.00, 66.00, 68.91
CTUN, 585, 0.00, 1.60, 0.000000, 0.00, 0, -15, 587, 0
GPS, 3, 545256800, 9, 1.58, -33.7840689, 151.0682270, 1.70, 87.34, 0.07, 48.42
ATT, -0.93, -0.73, 0.00, 0.04, 0.00, 66.08, 68.91
CTUN, 587, 0.00, 1.59, 0.000000, 0.00, 0, -15, 587, 0
DU32, 7, 82041
CURR, 587, 57647, 1108, 1369, 4732, 42.72715
ATT, -1.04, -0.84, 0.00, -0.15, 0.00, 66.13, 68.91
CTUN, 585, 0.00, 1.79, 0.000000, 0.00, 0, -16, 585, 0
GPS, 3, 545257000, 9, 1.58, -33.7840687, 151.0682268, 1.67, 87.34, 0.05, 48.42
CTUN, 587, 0.00, 1.59, 0.000000, 0.00, 0, -20, 587, 0
ATT, -0.93, -1.11, 0.00, -0.31, 0.00, 66.20, 68.91
CTUN, 585, 0.00, 1.62, 0.000000, 0.00, 0, -22, 585, 0
ATT, -1.04, -1.25, 0.00, -0.37, 0.00, 66.26, 68.91
GPS, 3, 545257200, 9, 1.58, -33.7840680, 151.0682266, 1.63, 87.35, 0.18, 48.42
CTUN, 585, 0.00, 1.55, 0.000000, 0.00, 0, -27, 585, 0
ATT, -1.27, -1.21, 0.00, -0.41, 0.00, 66.33, 68.91
CTUN, 587, 0.00, 1.49, 0.000000, 0.00, 0, -29, 585, 0
ATT, 0.00, -1.13, 0.00, -0.44, 0.00, 66.40, 68.91
GPS, 3, 545257400, 9, 1.58, -33.7840674, 151.0682265, 1.55, 87.30, 0.28, 48.42
CTUN, 587, 0.00, 1.48, 0.000000, 0.00, 0, -31, 585, 0
ATT, 0.00, -0.43, 0.00, -0.34, 0.00, 66.41, 68.91
CTUN, 597, 0.00, 1.42, 0.000000, 0.00, 0, -30, 597, 0
ATT, 0.00, -0.10, 0.00, -0.27, 0.00, 66.45, 68.91
GPS, 3, 545257600, 9, 1.58, -33.7840671, 151.0682264, 1.49, 87.24, 0.22, 48.42
CTUN, 607, 0.00, 1.41, 0.000000, 0.00, 0, -29, 607, 0
ATT, 0.00, -0.01, 0.00, -0.39, 0.00, 66.46, 68.91
CTUN, 610, 0.00, 1.41, 0.000000, 0.00, 0, -30, 609, 0
GPS, 3, 545257800, 9, 1.58, -33.7840665, 151.0682263, 1.42, 87.18, 0.26, 48.42
ATT, 0.00, 0.18, 0.00, -0.40, 0.00, 66.38, 68.91
CTUN, 609, 0.00, 1.34, 0.000000, 0.00, 0, -26, 610, 0
DU32, 7, 82041
CURR, 609, 63586, 1099, 1450, 4732, 47.03813
ATT, 0.00, 0.22, 0.00, -0.24, 0.00, 66.26, 68.91
CTUN, 610, 0.00, 1.30, 0.000000, 0.00, 0, -24, 609, 0
GPS, 3, 545258000, 9, 1.58, -33.7840662, 151.0682264, 1.36, 87.16, 0.11, 48.42
CTUN, 610, 0.00, 1.24, 0.000000, 0.00, 0, -22, 609, 0
ATT, 0.00, 0.06, 0.00, -0.25, 0.00, 66.08, 68.91
CTUN, 610, 0.00, 1.23, 0.000000, 0.00, 0, -20, 610, 0
ATT, 0.00, 0.21, 0.00, -0.20, 0.00, 65.92, 68.91
GPS, 3, 545258200, 9, 1.58, -33.7840657, 151.0682264, 1.31, 87.11, 0.19, 48.42
CTUN, 609, 0.00, 1.21, 0.000000, 0.00, 0, -17, 610, 0
ATT, 0.00, 0.20, 0.00, -0.13, 0.00, 65.71, 68.91
CTUN, 610, 0.00, 1.28, 0.000000, 0.00, 0, -16, 610, 0
ATT, 0.00, 0.32, 0.00, -0.06, 0.00, 65.52, 68.91
GPS, 3, 545258400, 9, 1.58, -33.7840653, 151.0682265, 1.27, 87.08, 0.11, 48.42
CTUN, 607, 0.00, 1.27, 0.000000, 0.00, 0, -14, 607, 0
ATT, 0.00, 0.50, 0.00, -0.02, 0.00, 65.36, 68.91
CTUN, 610, 0.00, 1.13, 0.000000, 0.00, 0, -12, 610, 0
ATT, 0.00, 0.36, 0.00, -0.14, 0.00, 65.30, 68.91
GPS, 3, 545258600, 10, 1.49, -33.7840651, 151.0682266, 1.24, 87.08, 0.12, 48.42
CTUN, 609, 0.00, 1.24, 0.000000, 0.00, 0, -10, 609, 0
ATT, 0.00, 0.30, 0.00, -0.23, 0.00, 65.34, 68.91
CTUN, 609, 0.00, 1.10, 0.000000, 0.00, 0, -8, 609, 0
GPS, 3, 545258800, 10, 1.49, -33.7840646, 151.0682265, 1.21, 87.07, 0.17, 48.42
ATT, 0.00, 0.25, 0.00, -0.01, 0.00, 65.47, 68.91
CTUN, 609, 0.00, 1.21, 0.000000, 0.00, 0, -7, 609, 0
DU32, 7, 82041
CURR, 607, 69068, 1099, 1447, 4712, 51.06424
ATT, 0.00, 0.34, 0.00, 0.03, 0.00, 65.61, 68.91
CTUN, 609, 0.00, 1.12, 0.000000, 0.00, 0, -6, 607, 0
GPS, 3, 545259000, 10, 1.49, -33.7840643, 151.0682266, 1.19, 87.08, 0.11, 48.42
CTUN, 610, 0.00, 1.08, 0.000000, 0.00, 0, -3, 610, 0
ATT, 0.00, 0.33, 0.00, 0.33, 0.00, 65.73, 68.91
CTUN, 609, 0.00, 1.06, 0.000000, 0.00, 0, -1, 607, 0
ATT, 0.00, 0.31, 0.00, 0.46, 0.00, 65.86, 68.91
GPS, 3, 545259200, 10, 1.49, -33.7840639, 151.0682266, 1.18, 87.09, 0.07, 48.42
CTUN, 610, 0.00, 1.17, 0.000000, 0.00, 0, 0, 610, 0
ATT, 0.00, -0.04, 0.00, 0.42, 0.00, 66.04, 68.91
CTUN, 609, 0.00, 1.08, 0.000000, 0.00, 0, 3, 607, 0
ATT, 0.00, -0.55, 0.00, 0.19, 0.00, 66.15, 68.91
GPS, 3, 545259400, 10, 1.49, -33.7840635, 151.0682265, 1.18, 87.12, 0.06, 48.42
CTUN, 610, 0.00, 1.15, 0.000000, 0.00, 0, 3, 609, 0
ATT, 0.00, -0.57, 0.00, 0.26, 0.00, 66.24, 68.91
CTUN, 607, 0.00, 1.08, 0.000000, 0.00, 0, 7, 609, 0
ATT, 0.00, -0.61, 0.00, 0.14, 0.00, 66.28, 68.91
GPS, 3, 545259600, 9, 1.59, -33.7840632, 151.0682265, 1.18, 87.14, 0.07, 48.42
CTUN, 607, 0.00, 1.22, 0.000000, 0.00, 0, 9, 607, 0
ATT, 0.00, -0.75, 0.00, -0.04, 0.00, 66.23, 68.91
CTUN, 610, 0.00, 1.12, 0.000000, 0.00, 0, 11, 609, 0
GPS, 3, 545259800, 9, 1.59, -33.7840630, 151.0682264, 1.20, 87.18, 0.09, 48.42
ATT, 0.00, -0.66, 0.00, -0.27, 0.00, 66.07, 68.91
CTUN, 607, 0.00, 1.18, 0.000000, 0.00, 0, 11, 607, 0
DU32, 7, 82041
CURR, 607, 74547, 1105, 1453, 4732, 55.05343
ATT, 0.00, -0.58, 0.00, -0.43, 0.00, 65.93, 68.91
CTUN, 607, 0.00, 1.15, 0.000000, 0.00, 0, 14, 607, 0
GPS, 3, 545260000, 9, 1.59, -33.7840625, 151.0682262, 1.22, 87.23, 0.09, 48.42
ATT, 0.00, -0.44, 0.00, -0.59, 0.00, 65.76, 68.91
CTUN, 607, 0.00, 1.12, 0.000000, 0.00, 0, 15, 607, 0
ATT, 0.00, -0.41, 0.00, -0.67, 0.00, 65.62, 68.91
CTUN, 609, 0.00, 1.16, 0.000000, 0.00, 0, 15, 609, 0
GPS, 3, 545260200, 8, 1.95, -33.7840622, 151.0682261, 1.24, 87.27, 0.08, 48.42
CTUN, 609, 0.00, 1.30, 0.000000, 0.00, 0, 17, 609, 0
ATT, 0.00, -0.33, 0.00, -0.67, 0.00, 65.48, 68.91
CTUN, 609, 0.00, 1.29, 0.000000, 0.00, 0, 19, 609, 0
ATT, 0.00, -0.28, 0.00, -0.64, 0.00, 65.36, 68.91
GPS, 3, 545260400, 8, 1.95, -33.7840619, 151.0682261, 1.28, 87.32, 0.05, 48.42
CTUN, 609, 0.00, 1.21, 0.000000, 0.00, 0, 20, 609, 0
ATT, 0.00, -0.10, 0.00, -0.62, 0.00, 65.25, 68.91
CTUN, 609, 0.00, 1.25, 0.000000, 0.00, 0, 21, 609, 0
ATT, 0.00, -0.10, 0.00, -0.55, 0.00, 65.21, 68.91
GPS, 3, 545260600, 8, 1.95, -33.7840617, 151.0682261, 1.32, 87.38, 0.05, 48.42
CTUN, 609, 0.00, 1.34, 0.000000, 0.00, 0, 22, 609, 0
ATT, 0.00, -0.03, 0.00, -0.46, 0.00, 65.19, 68.91
CTUN, 609, 0.00, 1.24, 0.000000, 0.00, 0, 24, 609, 0
ATT, 0.00, 0.05, 0.00, -0.38, 0.00, 65.20, 68.91
GPS, 3, 545260800, 7, 2.95, -33.7840618, 151.0682261, 1.36, 87.44, 0.04, 48.42
CTUN, 605, 0.00, 1.31, 0.000000, 0.00, 0, 24, 606, 0
ATT, 0.00, 0.17, 0.00, -0.35, 0.00, 65.26, 68.91
CTUN, 606, 0.00, 1.27, 0.000000, 0.00, 0, 25, 606, 0
DU32, 7, 82041
CURR, 606, 80630, 1097, 1435, 4712, 59.36767
ATT, 0.00, 0.19, 0.00, -0.26, 0.00, 65.39, 68.91
GPS, 3, 545261000, 9, 1.59, -33.7840614, 151.0682260, 1.40, 87.57, 0.15, 48.42
CTUN, 606, 0.00, 1.37, 0.000000, 0.00, 0, 25, 606, 0
ATT, 0.00, 0.12, 0.00, -0.33, 0.00, 65.58, 68.91
CTUN, 606, 0.00, 1.45, 0.000000, 0.00, 0, 25, 604, 0
ATT, 0.00, 0.15, 0.00, -0.36, 0.00, 65.74, 68.91
CTUN, 568, 0.00, 1.38, 0.000000, 0.00, 0, 25, 567, 0
GPS, 3, 545261200, 9, 1.59, -33.7840606, 151.0682257, 1.46, 87.73, 0.05, 48.42
ATT, 0.00, 0.31, 0.00, -0.34, 0.00, 65.91, 68.91
CTUN, 568, 0.00, 1.42, 0.000000, 0.00, 0, 23, 568, 0
GPS, 3, 545261400, 9, 1.59, -33.7840602, 151.0682256, 1.49, 87.83, 0.08, 48.42
ATT, 0.00, 0.22, 0.00, -0.30, 0.00, 66.15, 68.91
CTUN, 568, 0.00, 1.50, 0.000000, 0.00, 0, 17, 568, 0
ATT, 0.00, 0.03, 0.58, -0.41, 0.00, 66.34, 68.91
CTUN, 566, 0.00, 1.41, 0.000000, 0.00, 0, 9, 566, 0
GPS, 3, 545261600, 9, 1.59, -33.7840597, 151.0682256, 1.51, 87.89, 0.03, 48.42
CTUN, 569, 0.00, 1.56, 0.000000, 0.00, 0, 0, 568, 0
PM, 0, 0, 50, 1, 1000, 11340, 0, 4
ATT, 0.00, 0.00, 0.00, -0.18, 0.00, 66.53, 68.91
CTUN, 584, 0.00, 1.59, 0.000000, 0.00, 0, -7, 568, 0
ATT, 0.00, 0.08, 0.00, -0.28, 0.00, 66.66, 68.91
GPS, 3, 545261800, 9, 1.59, -33.7840595, 151.0682255, 1.50, 87.91, 0.02, 48.42
CTUN, 597, 0.00, 1.58, 0.000000, 0.00, 0, -15, 597, 0
ATT, 0.00, -0.16, 0.00, -0.42, 0.00, 66.76, 68.91
CTUN, 597, 0.00, 1.49, 0.000000, 0.00, 0, -15, 597, 0
DU32, 7, 82041
CURR, 597, 85867, 1100, 1411, 4732, 63.03855
ATT, -0.11, -0.26, 0.00, -0.46, 0.00, 66.74, 68.91
GPS, 3, 545262000, 9, 1.59, -33.7840591, 151.0682253, 1.47, 87.91, 0.02, 48.42
CTUN, 599, 0.00, 1.60, 0.000000, 0.00, 0, -16, 597, 0
ATT, -0.11, -0.32, 0.00, -0.34, 0.00, 66.59, 68.91
CTUN, 597, 0.00, 1.39, 0.000000, 0.00, 0, -15, 596, 0
ATT, -0.11, -0.29, 0.00, -0.34, 0.00, 66.44, 68.91
GPS, 3, 545262200, 9, 1.59, -33.7840591, 151.0682252, 1.45, 87.95, 0.14, 48.42
CTUN, 597, 0.00, 1.42, 0.000000, 0.00, 0, -16, 597, 0
ATT, 0.00, -0.29, 0.00, -0.20, 0.00, 66.28, 68.91
CTUN, 604, 0.00, 1.37, 0.000000, 0.00, 0, -17, 604, 0
GPS, 3, 545262400, 9, 1.59, -33.7840589, 151.0682251, 1.41, 88.01, 0.13, 48.42
ATT, 0.00, -0.17, 0.00, -0.14, 0.00, 66.14, 68.91
CTUN, 604, 0.00, 1.48, 0.000000, 0.00, 0, -16, 604, 0
ATT, -0.58, -0.17, 0.00, 0.03, 0.00, 66.01, 68.91
CTUN, 601, 0.00, 1.36, 0.000000, 0.00, 0, -15, 604, 0
GPS, 3, 545262600, 9, 1.59, -33.7840587, 151.0682249, 1.38, 88.05, 0.10, 48.42
CTUN, 602, 0.00, 1.37, 0.000000, 0.00, 0, -15, 603, 0
ATT, -0.69, -0.27, 0.00, 0.11, 0.00, 65.86, 68.91
CTUN, 603, 0.00, 1.43, 0.000000, 0.00, 0, -15, 603, 0
ATT, -1.51, -0.47, 0.00, 0.09, 0.00, 65.78, 68.91
GPS, 3, 545262800, 9, 1.59, -33.7840584, 151.0682248, 1.35, 88.08, 0.05, 48.42
CTUN, 605, 0.00, 1.36, 0.000000, 0.00, 0, -15, 603, 0
ATT, -2.20, -1.10, 0.00, 0.05, 0.00, 65.73, 68.91
CTUN, 607, 0.00, 1.43, 0.000000, 0.00, 0, -14, 607, 0
ATT, -2.20, -1.49, 0.00, -0.06, 0.00, 65.67, 68.91
GPS, 3, 545263000, 9, 1.59, -33.7840580, 151.0682247, 1.33, 88.10, 0.01, 48.42
CTUN, 607, 0.00, 1.47, 0.000000, 0.00, 0, -13, 609, 0
DU32, 7, 82041
CURR, 610, 91888, 1100, 1454, 4772, 67.46737
ATT, -2.44, -1.86, 0.00, -0.12, 0.00, 65.61, 68.91
CTUN, 609, 0.00, 1.47, 0.000000, 0.00, 0, -11, 609, 0
ATT, -2.20, -1.98, 0.00, -0.07, 0.00, 65.56, 68.91
GPS, 3, 545263200, 9, 1.59, -33.7840577, 151.0682247, 1.32, 88.10, 0.04, 48.42
CTUN, 610, 0.00, 1.41, 0.000000, 0.00, 0, -10, 610, 0
ATT, -2.32, -1.90, 0.00, 0.04, 0.00, 65.53, 68.91
CTUN, 610, 0.00, 1.45, 0.000000, 0.00, 0, -9, 610, 0
GPS, 3, 545263400, 10, 1.49, -33.7840575, 151.0682246, 1.31, 88.11, 0.09, 48.42
ATT, -2.09, -1.71, 0.00, 0.08, 0.00, 65.50, 68.91
CTUN, 611, 0.00, 1.33, 0.000000, 0.00, 0, -6, 611, 0
ATT, -1.97, -1.46, 0.00, 0.16, 0.00, 65.43, 68.91
CTUN, 611, 0.00, 1.38, 0.000000, 0.00, 0, -5, 611, 0
GPS, 3, 545263600, 10, 1.49, -33.7840570, 151.0682243, 1.31, 88.11, 0.18, 48.42
CTUN, 613, 0.00, 1.35, 0.000000, 0.00, 0, -3, 613, 0
ATT, -1.97, -1.15, 0.00, 0.27, 0.00, 65.31, 68.91
CTUN, 612, 0.00, 1.37, 0.000000, 0.00, 0, -1, 612, 0
ATT, -1.27, -1.02, 0.00, 0.38, 0.00, 65.23, 68.91
GPS, 3, 545263800, 10, 1.49, -33.7840566, 151.0682239, 1.31, 88.13, 0.20, 48.42
CTUN, 613, 0.00, 1.39, 0.000000, 0.00, 0, 0, 613, 0
ATT, -0.11, -0.57, 0.00, 0.37, 0.00, 65.09, 68.91
CTUN, 611, 0.00, 1.36, 0.000000, 0.00, 0, 1, 612, 0
ATT, 0.00, 0.00, 0.00, 0.30, 0.00, 64.97, 68.91
GPS, 3, 545264000, 10, 1.49, -33.7840558, 151.0682235, 1.32, 88.17, 0.25, 48.42
CTUN, 618, 0.00, 1.34, 0.000000, 0.00, 0, 3, 612, 0
DU32, 7, 82041
CURR, 619, 97388, 1090, 1468, 4752, 71.51417
ATT, 0.00, 0.38, 0.00, 0.15, 0.00, 64.79, 68.91
CTUN, 617, 0.00, 1.49, 0.000000, 0.00, 0, 7, 618, 0
ATT, 0.00, 0.35, 0.00, 0.12, 0.00, 64.64, 68.91
GPS, 3, 545264200, 9, 1.58, -33.7840553, 151.0682233, 1.34, 88.21, 0.29, 48.42
CTUN, 618, 0.00, 1.43, 0.000000, 0.00, 0, 10, 619, 0
ATT, 0.00, 0.45, 0.00, 0.00, 0.00, 64.51, 68.91
CTUN, 619, 0.00, 1.44, 0.000000, 0.00, 0, 13, 619, 0
GPS, 3, 545264400, 9, 1.58, -33.7840554, 151.0682231, 1.38, 88.23, 0.17, 48.42
ATT, 0.00, 0.41, 0.00, -0.08, 0.00, 64.36, 68.91
CTUN, 619, 0.00, 1.41, 0.000000, 0.00, 0, 16, 619, 0
ATT, 0.00, 0.51, 0.00, -0.26, 0.00, 64.21, 68.91
CTUN, 619, 0.00, 1.46, 0.000000, 0.00, 0, 19, 619, 0
GPS, 3, 545264600, 9, 1.58, -33.7840551, 151.0682227, 1.42, 88.28, 0.26, 48.42
CTUN, 609, 0.00, 1.51, 0.000000, 0.00, 0, 23, 609, 0
ATT, 0.00, 0.45, 0.00, -0.33, 0.00, 64.08, 68.91
CTUN, 595, 0.00, 1.51, 0.000000, 0.00, 0, 25, 609, 0
ATT, -0.58, 0.39, 0.00, -0.47, 0.00, 64.03, 68.91
GPS, 3, 545264800, 10, 1.49, -33.7840552, 151.0682224, 1.48, 88.37, 0.20, 48.42
CTUN, 584, 0.00, 1.55, 0.000000, 0.00, 0, 25, 584, 0
ATT, -0.46, 0.02, 0.00, -0.47, 0.00, 64.01, 68.91
CTUN, 584, 0.00, 1.60, 0.000000, 0.00, 0, 23, 584, 0
ATT, -0.58, 0.04, 0.00, -0.45, 0.00, 64.11, 68.91
GPS, 3, 545265000, 10, 1.49, -33.7840549, 151.0682221, 1.53, 88.48, 0.14, 48.42
CTUN, 582, 0.00, 1.61, 0.000000, 0.00, 0, 20, 585, 0
DU32, 7, 82041
CURR, 585, 102843, 1096, 1358, 4772, 75.50479
ATT, -1.74, -0.37, 0.00, -0.38, 0.00, 64.38, 68.91
CTUN, 585, 0.00, 1.63, 0.000000, 0.00, 0, 15, 585, 0
ATT, -3.02, -1.21, 0.00, -0.47, 0.00, 64.78, 68.91
GPS, 3, 545265200, 10, 1.49, -33.7840548, 151.0682217, 1.58, 88.60, 0.17, 48.42
CTUN, 585, 0.00, 1.65, 0.000000, 0.00, 0, 12, 586, 0
ATT, -3.02, -2.41, 0.00, -0.48, 0.00, 65.24, 68.91
CTUN, 585, 0.00, 1.72, 0.000000, 0.00, 0, 9, 581, 0
GPS, 3, 545265400, 10, 1.48, -33.7840548, 151.0682214, 1.61, 88.69, 0.14, 48.42
ATT, -3.13, -2.96, 0.00, -0.39, 0.00, 65.71, 68.91
CTUN, 582, 0.00, 1.67, 0.000000, 0.00, 0, 4, 582, 0
ATT, -2.09, -3.19, 0.00, -0.34, 0.00, 66.07, 68.91
CTUN, 584, 0.00, 1.63, 0.000000, 0.00, 0, 1, 584, 0
GPS, 3, 545265600, 10, 1.48, -33.7840546, 151.0682211, 1.62, 88.76, 0.16, 48.42
ATT, -1.51, -2.80, 0.00, -0.25, 0.00, 66.41, 68.91
CTUN, 585, 0.00, 1.83, 0.000000, 0.00, 0, -3, 582, 0
ATT, -1.27, -2.35, 0.00, -0.19, 0.00, 66.60, 68.91
CTUN, 585, 0.00, 1.76, 0.000000, 0.00, 0, -8, 585, 0
GPS, 3, 545265800, 10, 1.48, -33.7840543, 151.0682208, 1.62, 88.78, 0.16, 48.42
CTUN, 582, 0.00, 1.70, 0.000000, 0.00, 0, -11, 584, 0
ATT, -1.51, -2.11, 0.00, -0.26, 0.00, 66.82, 68.91
CTUN, 582, 0.00, 1.57, 0.000000, 0.00, 0, -12, 582, 0
ATT, -0.93, -2.06, 0.00, -0.12, 0.00, 66.94, 68.91
GPS, 3, 545266000, 10, 1.48, -33.7840539, 151.0682205, 1.61, 88.75, 0.22, 48.42
CTUN, 597, 0.00, 1.64, 0.000000, 0.00, 0, -16, 597, 0
DU32, 7, 82041
CURR, 597, 108107, 1098, 1340, 4732, 79.27958
ATT, -0.93, -1.75, 0.00, 0.04, 0.00, 66.98, 68.91
CTUN, 597, 0.00, 1.72, 0.000000, 0.00, 0, -19, 597, 0
ATT, -0.93, -1.63, 0.00, 0.10, 0.00, 66.90, 68.91
GPS, 3, 545266200, 10, 1.48, -33.7840531, 151.0682201, 1.57, 88.77, 0.27, 48.42
CTUN, 600, 0.00, 1.67, 0.000000, 0.00, 0, -21, 600, 0
ATT, -0.93, -1.33, 0.00, 0.06, 0.00, 66.65, 68.91
CTUN, 604, 0.00, 1.70, 0.000000, 0.00, 0, -20, 600, 0
GPS, 3, 545266400, 9, 1.58, -33.7840529, 151.0682195, 1.55, 88.79, 0.23, 48.42
ATT, -0.93, -1.05, 0.00, 0.11, 0.00, 66.25, 68.91
CTUN, 612, 0.00, 1.64, 0.000000, 0.00, 0, -19, 612, 0
ATT, -0.93, -1.01, 0.00, 0.17, 0.00, 65.91, 68.91
CTUN, 612, 0.00, 1.55, 0.000000, 0.00, 0, -17, 612, 0
GPS, 3, 545266600, 9, 1.58, -33.7840519, 151.0682190, 1.52, 88.75, 0.39, 5.90
ATT, 0.00, -0.84, 0.00, 0.00, 0.00, 65.47, 68.91
CTUN, 612, 0.00, 1.68, 0.000000, 0.00, 0, -13, 612, 0
ATT, 0.00, -0.49, 0.00, 0.08, 0.00, 65.14, 68.91
CTUN, 612, 0.00, 1.60, 0.000000, 0.00, 0, -11, 612, 0
GPS, 3, 545266800, 10, 1.48, -33.7840513, 151.0682185, 1.51, 88.75, 0.35, 5.90
CTUN, 612, 0.00, 1.54, 0.000000, 0.00, 0, -7, 613, 0
ATT, 0.00, -0.22, 0.00, 0.25, 0.00, 64.91, 68.91
CTUN, 612, 0.00, 1.59, 0.000000, 0.00, 0, -5, 612, 0
ATT, 0.00, -0.07, 0.00, 0.28, 0.00, 64.81, 68.91
GPS, 3, 545267000, 10, 1.48, -33.7840506, 151.0682181, 1.51, 88.77, 0.31, 5.90
CTUN, 612, 0.00, 1.63, 0.000000, 0.00, 0, -2, 612, 0
DU32, 7, 82041
CURR, 612, 113576, 1089, 1467, 4732, 83.23497
ATT, 0.00, -0.01, 0.00, 0.23, 0.00, 64.79, 68.91
CTUN, 612, 0.00, 1.59, 0.000000, 0.00, 0, 0, 612, 0
ATT, 0.00, -0.01, 0.00, 0.09, 0.00, 64.85, 68.91
GPS, 3, 545267200, 10, 1.48, -33.7840500, 151.0682174, 1.52, 88.75, 0.37, 333.05
CTUN, 612, 0.00, 1.66, 0.000000, 0.00, 0, 1, 612, 0
ATT, 0.00, -0.02, 0.00, -0.03, 0.00, 64.92, 68.91
CTUN, 612, 0.00, 1.59, 0.000000, 0.00, 0, 3, 612, 0
GPS, 3, 545267400, 10, 1.48, -33.7840493, 151.0682168, 1.53, 88.77, 0.33, 313.85
ATT, 0.00, -0.03, 0.00, -0.06, 0.00, 64.95, 68.91
CTUN, 612, 0.00, 1.63, 0.000000, 0.00, 0, 5, 612, 0
ATT, 0.11, 0.07, 0.00, -0.21, 0.00, 64.98, 68.91
CTUN, 612, 0.00, 1.66, 0.000000, 0.00, 0, 7, 612, 0
GPS, 3, 545267600, 10, 1.48, -33.7840483, 151.0682162, 1.56, 88.81, 0.28, 313.85
ATT, 0.00, 0.17, 0.00, -0.04, 0.00, 65.01, 68.91
CTUN, 612, 0.00, 1.60, 0.000000, 0.00, 0, 9, 612, 0
ATT, 0.00, -0.04, 0.00, -0.22, 0.00, 65.08, 68.91
CTUN, 612, 0.00, 1.77, 0.000000, 0.00, 0, 11, 612, 0
GPS, 3, 545267800, 10, 1.48, -33.7840471, 151.0682156, 1.59, 88.87, 0.29, 313.85
CTUN, 611, 0.00, 1.66, 0.000000, 0.00, 0, 13, 611, 0
ATT, 0.00, -0.38, 0.00, -0.23, 0.00, 65.12, 68.91
CTUN, 611, 0.00, 1.72, 0.000000, 0.00, 0, 13, 613, 0
ATT, 2.30, -0.45, 0.00, -0.27, 0.00, 65.15, 68.91
GPS, 3, 545268000, 10, 1.48, -33.7840466, 151.0682151, 1.63, 88.93, 0.23, 313.85
CTUN, 613, 0.00, 1.69, 0.000000, 0.00, 0, 14, 612, 0
DU32, 7, 82041
CURR, 612, 119085, 1090, 1455, 4732, 87.32517
ATT, 1.15, 0.49, 0.00, -0.29, 0.00, 65.19, 68.91
CTUN, 612, 0.00, 1.74, 0.000000, 0.00, 0, 16, 612, 0
ATT, 1.26, 0.36, 0.00, -0.06, 0.00, 65.23, 68.91
GPS, 3, 545268200, 10, 1.48, -33.7840466, 151.0682148, 1.67, 88.99, 0.25, 313.85
CTUN, 613, 0.00, 1.80, 0.000000, 0.00, 0, 16, 613, 0
ATT, 0.11, 0.66, 0.00, -0.20, 0.00, 65.26, 68.91
CTUN, 612, 0.00, 1.70, 0.000000, 0.00, 0, 17, 612, 0
GPS, 3, 545268400, 10, 1.48, -33.7840464, 151.0682142, 1.71, 89.05, 0.23, 313.85
ATT, 1.26, 0.26, 0.00, -0.23, 0.00, 65.33, 68.91
CTUN, 612, 0.00, 1.77, 0.000000, 0.00, 0, 18, 612, 0
ATT, 1.73, 0.78, 0.00, -0.28, 0.00, 65.43, 68.91
CTUN, 590, 0.00, 1.90, 0.000000, 0.00, 0, 19, 590, 0
GPS, 3, 545268600, 9, 1.87, -33.7840460, 151.0682137, 1.76, 89.12, 0.27, 313.85
ATT, 0.46, 1.43, 0.00, 0.10, 0.00, 65.56, 68.91
CTUN, 578, 0.00, 1.88, 0.000000, 0.00, 0, 18, 578, 0
ATT, 0.34, 1.13, 0.00, 0.14, 0.00, 65.79, 68.91
CTUN, 570, 0.00, 1.84, 0.000000, 0.00, 0, 15, 572, 0
GPS, 3, 545268800, 10, 1.48, -33.7840453, 151.0682132, 1.81, 89.19, 0.20, 313.85
CTUN, 570, 0.00, 1.87, 0.000000, 0.00, 0, 9, 571, 0
ATT, 0.69, 0.87, 0.00, 0.05, 0.00, 66.16, 68.91
CTUN, 570, 0.00, 1.81, 0.000000, 0.00, 0, 5, 570, 0
ATT, 0.69, 1.11, 0.00, 0.00, 0.00, 66.52, 68.91
GPS, 3, 545269000, 10, 1.48, -33.7840446, 151.0682127, 1.82, 89.22, 0.20, 313.85
CTUN, 571, 0.00, 1.79, 0.000000, 0.00, 0, -1, 570, 0
DU32, 7, 82041
CURR, 570, 124407, 1098, 1284, 4712, 91.12322
ATT, 0.69, 0.90, 0.00, -0.06, 0.00, 66.97, 68.91
CTUN, 570, 0.00, 1.88, 0.000000, 0.00, 0, -6, 570, 0
ATT, 1.38, 0.83, 0.00, -0.23, 0.00, 67.36, 68.91
GPS, 3, 545269200, 10, 1.48, -33.7840438, 151.0682122, 1.81, 89.25, 0.17, 313.85
CTUN, 574, 0.00, 1.87, 0.000000, 0.00, 0, -10, 570, 0
ATT, 0.00, 0.95, 0.00, -0.21, 0.00, 67.66, 68.91
CTUN, 578, 0.00, 1.94, 0.000000, 0.00, 0, -15, 578, 0
ATT, 0.00, 0.09, 0.00, -0.44, 0.00, 68.01, 68.91
GPS, 3, 545269400, 10, 1.48, -33.7840436, 151.0682118, 1.79, 89.25, 0.24, 313.85
CTUN, 582, 0.00, 1.82, 0.000000, 0.00, 0, -19, 582, 0
ATT, 0.00, -0.14, 0.00, -0.35, 0.00, 68.36, 68.91
CTUN, 587, 0.00, 1.95, 0.000000, 0.00, 0, -23, 584, 0
GPS, 3, 545269600, 10, 1.48, -33.7840429, 151.0682115, 1.76, 89.24, 0.10, 313.85
ATT, 0.00, -0.24, 0.00, -0.22, 0.00, 68.68, 68.91
CTUN, 604, 0.00, 1.94, 0.000000, 0.00, 0, -28, 604, 0
ATT, 0.00, -0.43, 0.00, -0.13, 0.00, 68.91, 68.91
CTUN, 604, 0.00, 1.83, 0.000000, 0.00, 0, -30, 604, 0
GPS, 3, 545269800, 9, 1.87, -33.7840432, 151.0682114, 1.72, 89.23, 0.08, 313.85
ATT, 0.00, -0.48, 0.00, 0.04, 0.00, 69.05, 68.91
CTUN, 606, 0.00, 1.95, 0.000000, 0.00, 0, -33, 606, 0
ATT, 0.00, -0.57, 0.00, 0.08, 0.00, 69.12, 68.91
CTUN, 606, 0.00, 1.69, 0.000000, 0.00, 0, -35, 606, 0
GPS, 3, 545270000, 10, 1.48, -33.7840439, 151.0682112, 1.66, 89.18, 0.14, 313.85
CTUN, 609, 0.00, 1.68, 0.000000, 0.00, 0, -35, 609, 0
ATT, 0.00, -0.59, 0.00, 0.16, 0.00, 69.15, 68.91
DU32, 7, 82041
CURR, 607, 129715, 1089, 1401, 4712, 94.77451
CTUN, 607, 0.00, 1.65, 0.000000, 0.00, 0, -35, 607, 0
ATT, 0.00, -0.53, 0.00, 0.29, 0.00, 69.15, 68.91
GPS, 3, 545270200, 10, 1.48, -33.7840439, 151.0682110, 1.60, 89.17, 0.18, 313.85
CTUN, 607, 0.00, 1.53, 0.000000, 0.00, 0, -33, 607, 0
ATT, 0.00, -0.26, 0.00, 0.48, 0.00, 69.09, 68.91
CTUN, 610, 0.00, 1.67, 0.000000, 0.00, 0, -30, 610, 0
ATT, 0.00, -0.13, 0.00, 0.64, 0.00, 69.00, 68.91
GPS, 3, 545270400, 10, 1.48, -33.7840440, 151.0682106, 1.54, 89.15, 0.24, 313.85
CTUN, 610, 0.00, 1.59, 0.000000, 0.00, 0, -28, 610, 0
ATT, 0.00, 0.00, 0.00, 0.72, 0.00, 68.88, 68.91
CTUN, 612, 0.00, 1.59, 0.000000, 0.00, 0, -26, 612, 0
ATT, 0.00, -0.01, 0.00, 0.68, 0.00, 68.79, 68.91
GPS, 3, 545270600, 10, 1.48, -33.7840438, 151.0682104, 1.49, 89.14, 0.13, 313.85
CTUN, 614, 0.00, 1.56, 0.000000, 0.00, 0, -27, 613, 0
ATT, 0.00, -0.37, 0.00, 0.41, 0.00, 68.70, 68.91
CTUN, 614, 0.00, 1.42, 0.000000, 0.00, 0, -26, 614, 0
GPS, 3, 545270800, 10, 1.48, -33.7840438, 151.0682101, 1.44, 89.13, 0.15, 313.85
ATT, 0.00, -0.65, 0.00, 0.10, 0.00, 68.62, 68.91
CTUN, 616, 0.00, 1.40, 0.000000, 0.00, 0, -23, 616, 0
ATT, 0.00, -0.73, 0.00, -0.21, 0.00, 68.55, 68.91
CTUN, 616, 0.00, 1.46, 0.000000, 0.00, 0, -21, 614, 0
GPS, 3, 545271000, 10, 1.48, -33.7840437, 151.0682097, 1.40, 89.09, 0.16, 313.85
CTUN, 614, 0.00, 1.42, 0.000000, 0.00, 0, -22, 614, 0
ATT, 0.00, -0.90, 0.00, -0.42, 0.00, 68.50, 68.91
DU32, 7, 82041
CURR, 614, 135220, 1088, 1437, 4712, 98.71827
CTUN, 614, 0.00, 1.38, 0.000000, 0.00, 0, -21, 614, 0
ATT, 0.00, -0.95, 0.00, -0.55, 0.00, 68.47, 68.91
GPS, 3, 545271200, 10, 1.48, -33.7840438, 151.0682094, 1.36, 89.08, 0.21, 313.85
CTUN, 613, 0.00, 1.44, 0.000000, 0.00, 0, -18, 614, 0
ATT, 0.00, -0.71, 0.00, -0.57, 0.00, 68.45, 68.91
CTUN, 614, 0.00, 1.42, 0.000000, 0.00, 0, -19, 616, 0
ATT, 0.00, -0.50, 0.00, -0.29, 0.00, 68.48, 68.91
GPS, 3, 545271400, 10, 1.48, -33.7840439, 151.0682091, 1.33, 89.02, 0.18, 313.85
CTUN, 614, 0.00, 1.23, 0.000000, 0.00, 0, -17, 614, 0
ATT, 0.00, -0.29, 0.00, -0.24, 0.00, 68.55, 68.91
CTUN, 614, 0.00, 1.22, 0.000000, 0.00, 0, -15, 614, 0
ATT, 0.00, -0.29, 0.00, -0.21, 0.00, 68.53, 68.91
GPS, 3, 545271600, 11, 1.42, -33.7840440, 151.0682088, 1.29, 88.99, 0.16, 313.85
CTUN, 614, 0.00, 1.38, 0.000000, 0.00, 0, -15, 613, 0
PM, 0, 0, 50, 0, 1002, 10424, 0, 4
ATT, 0.00, -0.40, 0.00, -0.15, 0.00, 68.47, 68.91
CTUN, 614, 0.00, 1.18, 0.000000, 0.00, 0, -16, 614, 0
GPS, 3, 545271800, 10, 1.48, -33.7840441, 151.0682086, 1.26, 88.99, 0.16, 313.85
ATT, 0.00, -0.63, 0.00, -0.18, 0.00, 68.33, 68.91
CTUN, 615, 0.00, 1.23, 0.000000, 0.00, 0, -13, 615, 0
ATT, 0.00, -0.71, 0.00, -0.33, 0.00, 68.12, 68.91
CTUN, 614, 0.00, 1.29, 0.000000, 0.00, 0, -10, 613, 0
GPS, 3, 545272000, 9, 1.58, -33.7840441, 151.0682085, 1.24, 88.99, 0.08, 313.85
CTUN, 614, 0.00, 1.32, 0.000000, 0.00, 0, -11, 616, 0
ATT, 0.00, -0.74, -0.60, -0.55, 0.00, 67.81, 68.91
DU32, 7, 82041
CURR, 614, 140747, 1090, 1443, 4732, 102.6705
CTUN, 614, 0.00, 1.22, 0.000000, 0.00, 0, -9, 614, 0
ATT, 0.00, -0.59, -0.60, -0.91, 0.00, 67.55, 68.91
GPS, 3, 545272200, 9, 1.58, -33.7840438, 151.0682083, 1.22, 89.02, 0.13, 313.85
CTUN, 615, 0.00, 1.22, 0.000000, 0.00, 0, -9, 614, 0
ATT, 0.00, -0.67, -1.09, -1.20, 0.00, 67.24, 68.91
CTUN, 615, 0.00, 1.16, 0.000000, 0.00, 0, -7, 615, 0
ATT, 0.00, -0.47, -2.06, -1.44, 0.00, 67.10, 68.91
GPS, 3, 545272400, 9, 1.58, -33.7840437, 151.0682082, 1.21, 89.05, 0.12, 313.85
CTUN, 614, 0.00, 1.30, 0.000000, 0.00, 0, -8, 614, 0
ATT, 0.00, -0.49, -1.69, -2.02, 0.00, 67.10, 68.91
CTUN, 616, 0.00, 1.10, 0.000000, 0.00, 0, -7, 614, 0
GPS, 3, 545272600, 9, 1.58, -33.7840438, 151.0682081, 1.19, 89.05, 0.06, 313.85
ATT, 0.00, -0.37, 0.00, -2.06, 0.00, 67.22, 68.91
CTUN, 616, 0.00, 1.21, 0.000000, 0.00, 0, -8, 616, 0
ATT, 0.00, -0.22, 0.00, -1.50, 0.00, 67.43, 68.91
CTUN, 614, 0.00, 1.17, 0.000000, 0.00, 0, -8, 614, 0
GPS, 3, 545272800, 9, 1.58, -33.7840440, 151.0682081, 1.17, 89.05, 0.01, 313.85
ATT, 0.11, -0.06, 0.00, -0.57, 0.00, 67.74, 68.91
CTUN, 614, 0.00, 1.09, 0.000000, 0.00, 0, -8, 614, 0
ATT, 0.46, 0.09, 0.00, 0.00, 0.00, 67.98, 68.91
CTUN, 614, 0.00, 1.04, 0.000000, 0.00, 0, -7, 613, 0
GPS, 3, 545273000, 9, 1.58, -33.7840440, 151.0682081, 1.15, 89.04, 0.09, 313.85
CTUN, 615, 0.00, 1.12, 0.000000, 0.00, 0, -4, 615, 0
ATT, 0.69, 0.27, 0.00, 0.50, 0.00, 68.20, 68.91
DU32, 7, 82041
CURR, 615, 146279, 1087, 1432, 4732, 106.6725
CTUN, 615, 0.00, 1.14, 0.000000, 0.00, 0, -3, 615, 0
ATT, 0.46, 0.28, 0.00, 0.66, 0.00, 68.33, 68.91
GPS, 3, 545273200, 9, 1.58, -33.7840443, 151.0682081, 1.14, 89.02, 0.08, 313.85
CTUN, 615, 0.00, 1.12, 0.000000, 0.00, 0, -1, 615, 0
ATT, 0.34, 0.28, 0.00, 0.76, 0.00, 68.35, 68.91
CTUN, 615, 0.00, 1.03, 0.000000, 0.00, 0, 0, 615, 0
ATT, 1.38, 0.12, 0.00, 0.88, 0.00, 68.25, 68.91
GPS, 3, 545273400, 9, 1.58, -33.7840444, 151.0682082, 1.13, 89.01, 0.10, 313.85
CTUN, 615, 0.00, 1.12, 0.000000, 0.00, 0, -1, 615, 0
ATT, 1.73, 0.68, 0.00, 0.73, 0.00, 67.92, 68.91
CTUN, 617, 0.00, 1.12, 0.000000, 0.00, 0, -1, 617, 0
GPS, 3, 545273600, 9, 1.58, -33.7840442, 151.0682082, 1.12, 89.03, 0.18, 313.85
ATT, 0.34, 0.71, 0.00, 0.70, 0.00, 67.49, 68.91
CTUN, 614, 0.00, 1.08, 0.000000, 0.00, 0, -2, 614, 0
ATT, 2.42, 0.16, 0.00, 0.39, 0.00, 67.13, 68.91
CTUN, 616, 0.00, 1.00, 0.000000, 0.00, 0, 0, 617, 0
GPS, 3, 545273800, 9, 1.58, -33.7840443, 151.0682082, 1.12, 89.06, 0.11, 313.85
ATT, 0.57, 0.89, 0.00, 0.21, 0.00, 66.75, 68.91
CTUN, 617, 0.00, 1.22, 0.000000, 0.00, 0, 1, 617, 0
ATT, 0.34, 0.33, 0.00, 0.35, 0.00, 66.54, 68.91
CTUN, 617, 0.00, 0.98, 0.000000, 0.00, 0, 4, 617, 0
GPS, 3, 545274000, 9, 1.58, -33.7840441, 151.0682081, 1.12, 89.08, 0.18, 313.85
ATT, 0.34, 0.04, 0.00, 0.04, 0.00, 66.34, 68.91
CTUN, 615, 0.00, 1.14, 0.000000, 0.00, 0, 3, 615, 0
DU32, 7, 82041
CURR, 615, 152435, 1084, 1462, 4752, 111.1004
ATT, 0.46, 0.03, 0.00, -0.02, 0.00, 66.26, 68.91
CTUN, 615, 0.00, 1.07, 0.000000, 0.00, 0, 5, 615, 0
GPS, 3, 545274200, 10, 1.48, -33.7840444, 151.0682082, 1.12, 89.07, 0.07, 313.85
CTUN, 615, 0.00, 1.06, 0.000000, 0.00, 0, 3, 615, 0
ATT, 0.46, 0.20, 0.00, -0.16, 0.00, 66.29, 68.91
CTUN, 615, 0.00, 1.06, 0.000000, 0.00, 0, 5, 615, 0
ATT, 0.57, 0.34, 0.00, -0.26, 0.00, 66.44, 68.91
GPS, 3, 545274400, 9, 1.58, -33.7840443, 151.0682082, 1.13, 89.07, 0.04, 313.85
CTUN, 613, 0.00, 1.12, 0.000000, 0.00, 0, 3, 615, 0
ATT, 1.15, 0.42, -0.12, -0.33, 0.00, 66.66, 68.91
CTUN, 615, 0.00, 1.10, 0.000000, 0.00, 0, 6, 615, 0
ATT, 2.42, 0.96, -0.97, -0.46, 0.00, 66.84, 68.91
GPS, 3, 545274600, 9, 1.58, -33.7840443, 151.0682083, 1.13, 89.10, 0.07, 313.85
CTUN, 615, 0.00, 1.08, 0.000000, 0.00, 0, 4, 615, 0
ATT, 0.00, 1.47, 0.00, -0.73, 0.00, 67.07, 68.91
CTUN, 615, 0.00, 1.05, 0.000000, 0.00, 0, 5, 615, 0
GPS, 3, 545274800, 8, 1.66, -33.7840441, 151.0682085, 1.14, 89.09, 0.08, 313.85
ATT, 0.11, 0.33, 0.00, -0.29, 0.00, 67.24, 68.91
CTUN, 615, 0.00, 1.14, 0.000000, 0.00, 0, 4, 615, 0
ATT, 0.00, 0.02, 0.00, -0.21, 0.00, 67.31, 68.91
CTUN, 615, 0.00, 1.11, 0.000000, 0.00, 0, 3, 615, 0
GPS, 3, 545275000, 9, 1.57, -33.7840443, 151.0682087, 1.14, 89.14, 0.07, 313.85
ATT, 0.00, -0.34, 0.00, -0.11, 0.00, 67.34, 68.91
CTUN, 615, 0.00, 0.94, 0.000000, 0.00, 0, 4, 615, 0
DU32, 7, 82041
CURR, 614, 157970, 1083, 1442, 4712, 115.1154
ATT, 0.00, -0.54, 0.00, -0.06, 0.00, 67.36, 68.91
CTUN, 615, 0.00, 1.06, 0.000000, 0.00, 0, 6, 614, 0
GPS, 3, 545275200, 9, 1.58, -33.7840442, 151.0682089, 1.14, 89.21, 0.11, 313.85
CTUN, 615, 0.00, 1.11, 0.000000, 0.00, 0, 6, 615, 0
ATT, 0.00, -0.34, 0.00, -0.09, 0.00, 67.37, 68.91
CTUN, 616, 0.00, 1.18, 0.000000, 0.00, 0, 5, 615, 0
ATT, 0.00, -0.47, 0.00, -0.03, 0.00, 67.37, 68.91
GPS, 3, 545275400, 10, 1.48, -33.7840444, 151.0682091, 1.15, 89.27, 0.09, 313.85
CTUN, 615, 0.00, 1.12, 0.000000, 0.00, 0, 6, 615, 0
ATT, 0.11, -0.38, -0.48, -0.06, 0.00, 67.34, 68.91
CTUN, 615, 0.00, 1.06, 0.000000, 0.00, 0, 9, 615, 0
ATT, 2.53, -0.10, -1.94, -0.39, 0.00, 67.26, 68.91
GPS, 3, 545275600, 10, 1.48, -33.7840446, 151.0682093, 1.16, 89.37, 0.09, 313.85
CTUN, 615, 0.00, 1.22, 0.000000, 0.00, 0, 9, 615, 0
ATT, 2.19, 0.81, -1.69, -1.14, 0.00, 67.13, 68.91
CTUN, 615, 0.00, 1.11, 0.000000, 0.00, 0, 7, 615, 0
ATT, 2.76, 1.40, -1.94, -1.29, 0.00, 67.00, 68.91
GPS, 3, 545275800, 10, 1.48, -33.7840446, 151.0682095, 1.17, 89.44, 0.12, 313.85
CTUN, 617, 0.00, 1.13, 0.000000, 0.00, 0, 8, 616, 0
ATT, 0.11, 1.73, -1.33, -1.62, 0.00, 66.91, 68.91
CTUN, 616, 0.00, 1.15, 0.000000, 0.00, 0, 10, 615, 0
GPS, 3, 545276000, 10, 1.48, -33.7840446, 151.0682097, 1.19, 89.48, 0.15, 313.85
ATT, 0.11, 0.83, -0.60, -1.26, 0.00, 66.90, 68.91
CTUN, 615, 0.00, 1.06, 0.000000, 0.00, 0, 10, 615, 0
ATT, 0.57, 0.44, 0.00, -0.86, 0.00, 66.90, 68.91
DU32, 7, 82041
CURR, 615, 163507, 1085, 1447, 4732, 119.0505
CTUN, 615, 0.00, 1.05, 0.000000, 0.00, 0, 13, 614, 0
GPS, 3, 545276200, 10, 1.48, -33.7840447, 151.0682099, 1.20, 89.51, 0.09, 313.85
ATT, 0.11, 0.46, 0.00, -0.08, 0.00, 66.95, 68.91
CTUN, 615, 0.00, 1.24, 0.000000, 0.00, 0, 12, 614, 0
ATT, 1.26, 0.33, 0.00, 0.34, 0.00, 67.04, 68.91
CTUN, 614, 0.00, 1.17, 0.000000, 0.00, 0, 10, 615, 0
GPS, 3, 545276400, 9, 1.58, -33.7840444, 151.0682101, 1.22, 89.55, 0.16, 313.85
CTUN, 616, 0.00, 1.14, 0.000000, 0.00, 0, 7, 616, 0
ATT, 1.96, 0.86, 0.00, 0.40, 0.00, 67.16, 68.91
CTUN, 616, 0.00, 1.20, 0.000000, 0.00, 0, 7, 616, 0
ATT, 1.15, 1.60, 0.00, 0.69, 0.00, 67.24, 68.91
GPS, 3, 545276600, 9, 1.58, -33.7840441, 151.0682104, 1.23, 89.57, 0.22, 313.85
CTUN, 616, 0.00, 1.07, 0.000000, 0.00, 0, 9, 616, 0
ATT, 1.03, 1.16, 0.00, 0.63, 0.00, 67.38, 68.91
CTUN, 614, 0.00, 1.24, 0.000000, 0.00, 0, 12, 614, 0
ATT, 1.03, 0.92, 0.00, 0.63, 0.00, 67.47, 68.91
GPS, 3, 545276800, 9, 1.58, -33.7840438, 151.0682106, 1.24, 89.65, 0.19, 313.85
CTUN, 614, 0.00, 1.11, 0.000000, 0.00, 0, 15, 614, 0
ATT, 0.69, 0.93, 0.00, 0.43, 0.00, 67.55, 68.91
CTUN, 614, 0.00, 1.17, 0.000000, 0.00, 0, 18, 614, 0
GPS, 3, 545277000, 9, 1.58, -33.7840433, 151.0682106, 1.26, 89.77, 0.11, 313.85
ATT, 0.69, 0.64, 0.00, 0.27, 0.00, 67.60, 68.91
CTUN, 616, 0.00, 1.13, 0.000000, 0.00, 0, 21, 614, 0
ATT, 0.34, 0.44, 0.00, 0.15, 0.00, 67.60, 68.91
DU32, 7, 82041
CURR, 614, 169038, 1088, 1443, 4712, 123.0702
CTUN, 614, 0.00, 1.23, 0.000000, 0.00, 0, 22, 614, 0
GPS, 3, 545277200, 10, 1.48, -33.7840426, 151.0682107, 1.30, 89.88, 0.18, 313.85
ATT, 0.69, 0.43, 0.00, -0.08, 0.00, 67.55, 68.91
CTUN, 614, 0.00, 1.36, 0.000000, 0.00, 0, 20, 614, 0
ATT, 0.11, 0.46, 0.00, -0.13, 0.00, 67.49, 68.91
CTUN, 614, 0.00, 1.38, 0.000000, 0.00, 0, 18, 616, 0
GPS, 3, 545277400, 10, 1.48, -33.7840430, 151.0682111, 1.34, 89.95, 0.21, 313.85
CTUN, 614, 0.00, 1.34, 0.000000, 0.00, 0, 17, 614, 0
ATT, 0.11, 0.24, 0.00, -0.16, 0.00, 67.38, 68.91
CTUN, 614, 0.00, 1.21, 0.000000, 0.00, 0, 20, 614, 0
ATT, 0.00, 0.33, 0.00, -0.10, 0.00, 67.28, 68.91
GPS, 3, 545277600, 10, 1.48, -33.7840434, 151.0682113, 1.37, 90.02, 0.16, 313.85
CTUN, 614, 0.00, 1.28, 0.000000, 0.00, 0, 22, 614, 0
ATT, 0.00, 0.19, 0.00, 0.04, 0.00, 67.16, 68.91
CTUN, 614, 0.00, 1.39, 0.000000, 0.00, 0, 21, 614, 0
ATT, 0.00, 0.09, 0.00, 0.20, 0.00, 67.06, 68.91
GPS, 3, 545277800, 10, 1.48, -33.7840441, 151.0682115, 1.41, 90.09, 0.09, 313.85
CTUN, 614, 0.00, 1.37, 0.000000, 0.00, 0, 19, 611, 0
ATT, 0.00, 0.13, 0.00, 0.21, 0.00, 66.87, 68.91
CTUN, 614, 0.00, 1.22, 0.000000, 0.00, 0, 19, 616, 0
ATT, 0.00, 0.09, 0.00, 0.12, 0.00, 66.67, 68.91
GPS, 3, 545278000, 10, 1.48, -33.7840449, 151.0682119, 1.44, 90.15, 0.14, 313.85
CTUN, 615, 0.00, 1.37, 0.000000, 0.00, 0, 22, 614, 0
ATT, 0.00, 0.24, 0.00, 0.08, 0.00, 66.43, 68.91
DU32, 7, 82041
CURR, 614, 174563, 1083, 1453, 4732, 127.0813
CTUN, 614, 0.00, 1.39, 0.000000, 0.00, 0, 21, 614, 0
GPS, 3, 545278200, 10, 1.48, -33.7840452, 151.0682121, 1.47, 90.23, 0.13, 313.85
ATT, 0.00, 0.33, 0.00, 0.06, 0.00, 66.15, 68.91
CTUN, 614, 0.00, 1.29, 0.000000, 0.00, 0, 23, 614, 0
ATT, 0.00, 0.46, 0.00, -0.03, 0.00, 65.92, 68.91
CTUN, 614, 0.00, 1.38, 0.000000, 0.00, 0, 22, 614, 0
GPS, 3, 545278400, 9, 1.58, -33.7840456, 151.0682124, 1.49, 90.27, 0.27, 313.85
CTUN, 613, 0.00, 1.40, 0.000000, 0.00, 0, 22, 614, 0
ATT, 0.00, 0.52, 0.00, -0.12, 0.00, 65.63, 68.91
CTUN, 614, 0.00, 1.48, 0.000000, 0.00, 0, 24, 614, 0
ATT, 0.00, 0.62, 0.00, -0.10, 0.00, 65.41, 68.91
GPS, 3, 545278600, 9, 1.58, -33.7840458, 151.0682125, 1.53, 90.33, 0.20, 313.85
CTUN, 613, 0.00, 1.42, 0.000000, 0.00, 0, 23, 613, 0
ATT, 0.00, 0.66, 0.00, -0.07, 0.00, 65.16, 68.91
CTUN, 613, 0.00, 1.57, 0.000000, 0.00, 0, 23, 613, 0
ATT, 0.00, 0.67, 0.00, -0.17, 0.00, 64.97, 68.91
GPS, 3, 545278800, 10, 1.48, -33.7840460, 151.0682128, 1.57, 90.36, 0.08, 313.85
CTUN, 613, 0.00, 1.54, 0.000000, 0.00, 0, 24, 613, 0
ATT, 0.00, 0.68, 0.00, -0.25, 0.00, 64.76, 68.91
CTUN, 613, 0.00, 1.52, 0.000000, 0.00, 0, 24, 614, 0
ATT, 0.00, 0.60, 0.00, -0.23, 0.00, 64.64, 68.91
GPS, 3, 545279000, 10, 1.48, -33.7840462, 151.0682131, 1.62, 90.42, 0.10, 313.85
CTUN, 615, 0.00, 1.54, 0.000000, 0.00, 0, 25, 615, 0
ATT, 0.00, 0.60, 0.00, -0.21, 0.00, 64.51, 68.91
DU32, 7, 82041
CURR, 612, 180089, 1084, 1465, 4732, 131.1155
CTUN, 612, 0.00, 1.61, 0.000000, 0.00, 0, 26, 612, 0
GPS, 3, 545279200, 11, 1.42, -33.7840464, 151.0682135, 1.66, 90.48, 0.16, 313.85
ATT, 0.00, 0.64, 0.00, -0.14, 0.00, 64.38, 68.91
CTUN, 610, 0.00, 1.55, 0.000000, 0.00, 0, 26, 610, 0
ATT, -0.93, 0.65, 0.00, -0.03, 0.00, 64.25, 68.91
CTUN, 612, 0.00, 1.54, 0.000000, 0.00, 0, 26, 610, 0
GPS, 3, 545279400, 9, 1.58, -33.7840469, 151.0682137, 1.69, 90.50, 0.27, 313.85
CTUN, 611, 0.00, 1.66, 0.000000, 0.00, 0, 26, 611, 0
ATT, -1.86, 0.24, 0.00, 0.06, 0.00, 64.10, 68.91
CTUN, 612, 0.00, 1.57, 0.000000, 0.00, 0, 26, 611, 0
ATT, -2.09, -0.15, 0.00, -0.09, 0.00, 63.99, 68.91
GPS, 3, 545279600, 10, 1.48, -33.7840470, 151.0682140, 1.74, 90.65, 0.20, 313.85
CTUN, 611, 0.00, 1.67, 0.000000, 0.00, 0, 26, 611, 0
ATT, -1.74, -0.74, 0.00, -0.12, 0.00, 63.89, 68.91
CTUN, 605, 0.00, 1.65, 0.000000, 0.00, 0, 26, 607, 0
ATT, -1.86, -0.80, 0.00, -0.27, 0.00, 63.81, 68.91
GPS, 3, 545279800, 10, 1.48, -33.7840471, 151.0682144, 1.78, 90.68, 0.11, 313.85
CTUN, 602, 0.00, 1.74, 0.000000, 0.00, 0, 26, 602, 0
ATT, -1.97, -0.86, 0.00, -0.17, 0.00, 63.67, 68.91
CTUN, 601, 0.00, 1.77, 0.000000, 0.00, 0, 24, 601, 0
ATT, -1.74, -0.86, 0.00, -0.10, 0.00, 63.61, 68.91
GPS, 3, 545280000, 10, 1.48, -33.7840473, 151.0682147, 1.83, 90.77, 0.15, 313.85
CTUN, 601, 0.00, 1.69, 0.000000, 0.00, 0, 22, 602, 0
ATT, -2.44, -0.76, 0.00, -0.10, 0.00, 63.60, 68.91
DU32, 7, 82041
CURR, 601, 185560, 1087, 1418, 4693, 135.1132
CTUN, 601, 0.00, 1.77, 0.000000, 0.00, 0, 20, 601, 0
GPS, 3, 545280200, 10, 1.48, -33.7840475, 151.0682149, 1.86, 90.87, 0.17, 313.85
ATT, -2.44, -1.16, 0.00, 0.02, 0.00, 63.59, 68.91
CTUN, 601, 0.00, 1.81, 0.000000, 0.00, 0, 18, 601, 0
ATT, -2.44, -1.39, 0.00, -0.06, 0.00, 63.61, 68.91
CTUN, 601, 0.00, 1.90, 0.000000, 0.00, 0, 16, 601, 0
GPS, 3, 545280400, 9, 1.58, -33.7840471, 151.0682150, 1.88, 90.86, 0.21, 313.85
CTUN, 601, 0.00, 1.88, 0.000000, 0.00, 0, 13, 601, 0
ATT, -2.44, -1.40, 0.00, -0.08, 0.00, 63.60, 68.91
CTUN, 601, 0.00, 1.78, 0.000000, 0.00, 0, 12, 601, 0
ATT, -1.51, -1.36, 0.00, -0.17, 0.00, 63.56, 68.91
GPS, 3, 545280600, 9, 1.58, -33.7840474, 151.0682154, 1.90, 90.81, 0.07, 313.85
CTUN, 603, 0.00, 1.84, 0.000000, 0.00, 0, 9, 603, 0
ATT, -1.86, -0.77, 0.00, -0.22, 0.00, 63.46, 68.91
CTUN, 601, 0.00, 1.86, 0.000000, 0.00, 0, 9, 601, 0
ATT, -2.90, -0.66, 0.00, 0.04, 0.00, 63.32, 68.91
GPS, 3, 545280800, 10, 1.52, -33.7840476, 151.0682157, 1.91, 90.82, 0.05, 313.85
CTUN, 601, 0.00, 1.88, 0.000000, 0.00, 0, 6, 601, 0
ATT, -2.79, -1.09, 0.00, 0.08, 0.00, 63.19, 68.91
CTUN, 601, 0.00, 1.87, 0.000000, 0.00, 0, 3, 601, 0
ATT, -2.90, -1.16, 0.00, -0.01, 0.00, 63.17, 68.91
GPS, 3, 545281000, 10, 1.52, -33.7840477, 151.0682159, 1.92, 90.85, 0.04, 313.85
CTUN, 601, 0.00, 1.86, 0.000000, 0.00, 0, 1, 601, 0
ATT, -3.48, -1.13, 0.00, -0.18, 0.00, 63.18, 68.91
CTUN, 603, 0.00, 1.90, 0.000000, 0.00, 0, 0, 601, 0
DU32, 7, 82041
CURR, 603, 191572, 1085, 1407, 4752, 139.4154
GPS, 3, 545281200, 9, 1.58, -33.7840477, 151.0682162, 1.91, 90.85, 0.06, 313.85
ATT, -3.83, -1.50, 0.00, -0.45, 0.00, 63.25, 68.91
CTUN, 603, 0.00, 1.81, 0.000000, 0.00, 0, -3, 601, 0
ATT, -3.60, -1.78, 0.00, -0.61, 0.00, 63.37, 68.91
CTUN, 602, 0.00, 1.89, 0.000000, 0.00, 0, -5, 602, 0
GPS, 3, 545281400, 10, 1.48, -33.7840479, 151.0682164, 1.90, 90.83, 0.10, 313.85
CTUN, 602, 0.00, 1.90, 0.000000, 0.00, 0, -8, 604, 0
ATT, -3.60, -1.81, 0.00, -0.62, 0.00, 63.54, 68.91
CTUN, 601, 0.00, 1.78, 0.000000, 0.00, 0, -10, 601, 0
ATT, -3.13, -1.94, 0.00, -0.56, 0.00, 63.70, 68.91
GPS, 3, 545281600, 10, 1.48, -33.7840481, 151.0682166, 1.88, 90.84, 0.10, 313.85
CTUN, 604, 0.00, 1.81, 0.000000, 0.00, 0, -13, 604, 0
PM, 0, 0, 50, 0, 1000, 10424, 0, 4
ATT, -2.55, -1.75, 0.00, -0.78, 0.00, 63.93, 68.91
CTUN, 607, 0.00, 1.80, 0.000000, 0.00, 0, -15, 607, 0
ATT, -2.44, -1.30, 0.00, -0.89, 0.00, 64.11, 68.91
GPS, 3, 545281800, 9, 1.58, -33.7840480, 151.0682167, 1.84, 90.83, 0.08, 313.85
CTUN, 616, 0.00, 1.71, 0.000000, 0.00, 0, -17, 611, 0
ATT, -3.13, -1.28, 0.00, -0.98, 0.00, 64.27, 68.91
CTUN, 618, 0.00, 1.82, 0.000000, 0.00, 0, -18, 616, 0
ATT, -2.20, -1.61, 0.00, -1.01, 0.00, 64.43, 68.91
GPS, 3, 545282000, 10, 1.48, -33.7840482, 151.0682168, 1.79, 90.82, 0.11, 313.85
CTUN, 619, 0.00, 1.73, 0.000000, 0.00, 0, -17, 618, 0
ATT, -1.86, -1.14, 0.00, -0.96, 0.00, 64.56, 68.91
CTUN, 631, 0.00, 1.72, 0.000000, 0.00, 0, -17, 631, 0
GPS, 3, 545282200, 10, 1.48, -33.7840482, 151.0682170, 1.75, 90.80, 0.15, 313.85
DU32, 7, 82041
CURR, 636, 197064, 1078, 1496, 4712, 143.3711
ATT, -1.39, -0.88, 0.00, -0.79, 0.00, 64.74, 68.91
CTUN, 636, 0.00, 1.70, 0.000000, 0.00, 0, -14, 636, 0
ATT, -1.39, -0.48, 0.00, -0.70, 0.00, 64.84, 68.91
CTUN, 638, 0.00, 1.64, 0.000000, 0.00, 0, -11, 638, 0
GPS, 3, 545282400, 9, 1.58, -33.7840481, 151.0682171, 1.72, 90.82, 0.11, 313.85
CTUN, 638, 0.00, 1.73, 0.000000, 0.00, 0, -6, 638, 0
ATT, -1.39, -0.38, 0.00, -0.46, 0.00, 64.95, 68.91
CTUN, 636, 0.00, 1.74, 0.000000, 0.00, 0, -2, 638, 0
ATT, -0.58, -0.52, 0.00, -0.31, 0.00, 65.05, 68.91
GPS, 3, 545282600, 9, 1.58, -33.7840482, 151.0682173, 1.71, 90.80, 0.06, 313.85
CTUN, 638, 0.00, 1.62, 0.000000, 0.00, 0, 0, 638, 0
ATT, 0.00, -0.16, 0.00, -0.30, 0.00, 65.13, 68.91
CTUN, 636, 0.00, 1.62, 0.000000, 0.00, 0, 3, 635, 0
ATT, 0.00, -0.06, 0.00, -0.11, 0.00, 65.15, 68.91
GPS, 3, 545282800, 9, 1.58, -33.7840480, 151.0682175, 1.71, 90.80, 0.15, 313.85
CTUN, 638, 0.00, 1.62, 0.000000, 0.00, 0, 7, 636, 0
ATT, 0.00, -0.06, 0.00, -0.02, 0.00, 65.10, 68.91
CTUN, 638, 0.00, 1.67, 0.000000, 0.00, 0, 11, 636, 0
ATT, 0.00, -0.29, 0.00, 0.05, 0.00, 65.00, 68.91
GPS, 3, 545283000, 9, 1.58, -33.7840476, 151.0682178, 1.72, 90.80, 0.26, 313.85
CTUN, 609, 0.00, 1.74, 0.000000, 0.00, 0, 16, 638, 0
ATT, 0.00, -0.32, 0.00, 0.16, 0.00, 64.91, 68.91
CTUN, 576, 0.00, 1.68, 0.000000, 0.00, 0, 20, 576, 0
GPS, 3, 545283200, 9, 1.58, -33.7840473, 151.0682181, 1.75, 90.83, 0.17, 313.85
DU32, 7, 82041
CURR, 576, 202735, 1083, 1356, 4752, 147.5463
ATT, 0.00, -0.30, 0.00, 0.14, 0.00, 64.77, 68.91
CTUN, 577, 0.00, 1.73, 0.000000, 0.00, 0, 16, 577, 0
ATT, 0.00, -0.34, 0.00, 0.08, 0.00, 64.82, 68.91
CTUN, 576, 0.00, 1.68, 0.000000, 0.00, 0, 11, 576, 0
GPS, 3, 545283400, 9, 1.58, -33.7840470, 151.0682182, 1.77, 90.90, 0.09, 313.85
ATT, 0.00, -0.54, 0.00, 0.01, 0.00, 64.93, 68.91
CTUN, 584, 0.00, 1.68, 0.000000, 0.00, 0, 3, 575, 0
ATT, -1.04, -0.67, 0.00, 0.07, 0.00, 65.02, 68.91
CTUN, 597, 0.00, 1.83, 0.000000, 0.00, 0, 0, 597, 0
GPS, 3, 545283600, 9, 1.58, -33.7840468, 151.0682182, 1.77, 90.95, 0.10, 313.85
CTUN, 633, 0.00, 1.73, 0.000000, 0.00, 0, -3, 633, 0
ATT, -1.04, -1.52, 0.00, 0.03, 0.00, 65.05, 68.91
CTUN, 633, 0.00, 1.73, 0.000000, 0.00, 0, -1, 632, 0
ATT, -0.81, -1.85, 0.00, -0.04, 0.00, 64.93, 68.91
GPS, 3, 545283800, 9, 1.58, -33.7840464, 151.0682182, 1.76, 90.98, 0.15, 313.85
