dump 2

ArduCopter V3.1-rc4.1
Free RAM: 1007
APM 2
FMT, 128, 89, FMT, BBnNZ, Type,Length,Name,Format
FMT, 129, 23, PARM, Nf, Name,Value
FMT, 130, 35, GPS, BIBcLLeeEe, Status,Time,NSats,HDop,Lat,Lng,RelAlt,Alt,Spd,GCrs
FMT, 131, 27, IMU, ffffff, GyrX,GyrY,GyrZ,AccX,AccY,AccZ
FMT, 132, 67, MSG, Z, Message
FMT, 9, 19, CURR, hIhhhf, Thr,ThrInt,Volt,Curr,Vcc,CurrTot
FMT, 11, 11, MOT, hhhh, Mot1,Mot2,Mot3,Mot4
FMT, 12, 28, OF, hhBccffee, Dx,Dy,SQual,X,Y,Lat,Lng,Roll,Pitch
FMT, 5, 49, NTUN, Ecffffffffee, WPDst,WPBrg,PErX,PErY,DVelX,DVelY,VelX,VelY,DAcX,DAcY,DRol,DPit
FMT, 4, 25, CTUN, hcefchhhh, ThrIn,SonAlt,BarAlt,WPAlt,DesSonAlt,AngBst,CRate,ThrOut,DCRate
FMT, 15, 21, MAG, hhhhhhhhh, MagX,MagY,MagZ,OfsX,OfsY,OfsZ,MOfsX,MOfsY,MOfsZ
FMT, 6, 17, PM, BBBHHIhB, RenCnt,RenBlw,FixCnt,NLon,NLoop,MaxT,PMT,I2CErr
FMT, 8, 20, CMD, BBBBBeLL, CTot,CNum,CId,COpt,Prm1,Alt,Lat,Lng
FMT, 1, 17, ATT, cccccCC, RollIn,Roll,PitchIn,Pitch,YawIn,Yaw,NavYaw
FMT, 17, 37, INAV, cccfffiiff, BAlt,IAlt,IClb,ACorrX,ACorrY,ACorrZ,GLat,GLng,ILat,ILng
FMT, 3, 6, MODE, Mh, Mode,ThrCrs
FMT, 10, 3, STRT, , 
FMT, 13, 4, EV, B, Id
FMT, 20, 6, D16, Bh, Id,Value
FMT, 21, 6, DU16, BH, Id,Value
FMT, 22, 8, D32, Bi, Id,Value
FMT, 23, 8, DU32, BI, Id,Value
FMT, 24, 8, DFLT, Bf, Id,Value
FMT, 14, 28, PID, Biiiiif, Id,Error,P,I,D,Out,Gain
FMT, 18, 25, CAM, ILLeccC, GPSTime,Lat,Lng,Alt,Roll,Pitch,Yaw
FMT, 19, 5, ERR, BB, Subsys,ECode
D32, 9, 5508
CMD, 1, 0, 16, 0, 0, 0.00, -33.7840700, 151.0681602
EV, 18
EV, 10
EV, 28
GPS, 3, 191049600, 12, 1.70, -33.7840697, 151.0681603, 2.25, 94.40, 0.03, 0.00
CTUN, 0, 0.00, -0.01, 0.000000, 0.00, 0, 76, 0, 0
ATT, 0.00, -0.90, 0.00, 2.38, 0.00, 55.08, 55.08
CTUN, 0, 0.00, 0.04, 0.000000, 0.00, 0, 75, 0, 0
ATT, 0.00, -0.64, 0.00, 2.43, 0.00, 55.29, 55.29
GPS, 3, 191057000, 11, 1.75, -33.7840637, 151.0681652, 2.19, 92.28, 0.01, 0.00
DU32, 7, 8281
CURR, 0, 0, 1247, 5, 4752, 0.000000
CTUN, 0, 0.00, -0.10, 0.000000, 0.00, 0, 74, 0, 0
ATT, 0.00, -0.42, 0.00, 2.45, 0.00, 55.05, 55.05
CTUN, 0, 0.00, 0.02, 0.000000, 0.00, 0, 72, 0, 0
ATT, 0.00, -0.44, 0.00, 2.43, 0.00, 55.07, 55.07
GPS, 3, 191057200, 11, 1.75, -33.7840638, 151.0681654, 2.07, 92.24, 0.02, 0.00
CTUN, 0, 0.00, -0.13, 0.000000, 0.00, 0, 70, 0, 0
ATT, 0.00, -0.46, 0.00, 2.46, -10.36, 55.06, 55.06
CTUN, 0, 0.00, -0.16, 0.000000, 0.00, 0, 69, 0, 0
ATT, 0.00, -0.43, 0.00, 2.45, -42.17, 55.08, 55.08
GPS, 3, 191057400, 11, 1.75, -33.7840639, 151.0681655, 1.95, 92.18, 0.00, 0.00
CTUN, 0, 0.00, -0.14, 0.000000, 0.00, 0, 67, 0, 0
ATT, 0.00, -0.44, 0.00, 2.46, -44.64, 55.08, 55.08
CTUN, 0, 0.00, -0.25, 0.000000, 0.00, 0, 65, 0, 0
ATT, 0.00, -0.44, 0.00, 2.47, -44.64, 55.07, 55.07
GPS, 3, 191057600, 12, 1.70, -33.7840639, 151.0681656, 1.83, 92.15, 0.03, 0.00
CTUN, 0, 0.00, -0.25, 0.000000, 0.00, 0, 64, 0, 0
ATT, 0.00, -0.45, 0.00, 2.46, -44.64, 55.07, 55.07
CTUN, 0, 0.00, -0.43, 0.000000, 0.00, 0, 62, 0, 0
ATT, 0.00, -0.47, 0.00, 2.47, -44.64, 55.07, 55.07
GPS, 3, 191057800, 12, 1.70, -33.7840639, 151.0681657, 1.70, 92.10, 0.01, 0.00
CTUN, 0, 0.00, -0.41, 0.000000, 0.00, 0, 60, 0, 0
ATT, 0.00, -0.45, 0.00, 2.47, -44.76, 55.07, 55.07
CTUN, 0, 0.00, -0.35, 0.000000, 0.00, 0, 59, 0, 0
ATT, 0.00, -0.45, 0.00, 2.47, -45.00, 55.07, 55.07
GPS, 3, 191058000, 12, 1.70, -33.7840639, 151.0681658, 1.57, 92.07, 0.01, 0.00
DU32, 7, 8281
CURR, 0, 0, 1242, 67, 4752, 0.194521
CTUN, 0, 0.00, -0.32, 0.000000, 0.00, 0, 57, 0, 0
ATT, 0.00, -0.46, 0.00, 2.47, -45.00, 55.07, 55.07
CTUN, 0, 0.00, -0.38, 0.000000, 0.00, 0, 56, 0, 0
ATT, 0.00, -0.44, 0.00, 2.46, -45.00, 55.06, 55.06
GPS, 3, 191058200, 12, 1.70, -33.7840639, 151.0681658, 1.46, 92.03, 0.01, 0.00
CTUN, 0, 0.00, -0.31, 0.000000, 0.00, 0, 54, 0, 0
ATT, 0.00, -0.46, 0.00, 2.47, -45.00, 55.07, 55.07
CTUN, 0, 0.00, -0.34, 0.000000, 0.00, 0, 53, 0, 0
ATT, 0.00, -0.46, 0.00, 2.48, -45.00, 55.07, 55.07
GPS, 3, 191058400, 12, 1.70, -33.7840638, 151.0681658, 1.35, 92.01, 0.01, 0.00
CTUN, 0, 0.00, -0.34, 0.000000, 0.00, 0, 52, 0, 0
ATT, 0.00, -0.46, 0.00, 2.46, -45.11, 55.07, 55.07
CTUN, 0, 0.00, -0.32, 0.000000, 0.00, 0, 50, 0, 0
ATT, 0.00, -0.47, 0.00, 2.48, -45.00, 55.07, 55.07
GPS, 3, 191058600, 12, 1.70, -33.7840637, 151.0681657, 1.25, 91.98, 0.02, 0.00
CTUN, 0, 0.00, -0.39, 0.000000, 0.00, 0, 49, 0, 0
ATT, 0.00, -0.46, 0.00, 2.47, -45.00, 55.06, 55.06
CTUN, 0, 0.00, -0.37, 0.000000, 0.00, 0, 48, 0, 0
ATT, 0.00, -0.48, 0.00, 2.49, -45.00, 55.07, 55.07
GPS, 3, 191058800, 11, 1.74, -33.7840637, 151.0681657, 1.16, 91.95, 0.02, 0.00
CTUN, 0, 0.00, -0.39, 0.000000, 0.00, 0, 47, 0, 0
ATT, 0.00, -0.49, 0.00, 2.48, -45.00, 55.06, 55.06
CTUN, 0, 0.00, -0.31, 0.000000, 0.00, 0, 46, 0, 0
ATT, 0.00, -0.49, 0.00, 2.48, -45.00, 55.05, 55.05
GPS, 3, 191059000, 10, 2.02, -33.7840638, 151.0681658, 1.07, 91.89, 0.02, 0.00
DU32, 7, 8281
CURR, 0, 0, 1237, 66, 4772, 0.370372
PM, 0, 0, 51, 1, 1000, 7334980, 18, 4
CTUN, 0, 0.00, -0.30, 0.000000, 0.00, 0, 44, 0, 0
ATT, 0.00, -0.50, 0.00, 2.48, -45.00, 55.07, 55.07
CTUN, 0, 0.00, -0.33, 0.000000, 0.00, 0, 44, 0, 0
ATT, 0.00, -0.48, 0.00, 2.49, -45.00, 55.04, 55.04
GPS, 3, 191059200, 10, 2.02, -33.7840638, 151.0681658, 1.00, 91.83, 0.02, 0.00
CTUN, 0, 0.00, -0.14, 0.000000, 0.00, 0, 43, 0, 0
ATT, 0.00, -0.49, 0.00, 2.48, -45.00, 55.04, 55.04
EV, 11
DU32, 7, 8281
DU32, 7, 8281
DU32, 7, 8281
DU32, 7, 8281
DU32, 7, 8281
DU32, 7, 8281
D32, 9, 5419
CMD, 1, 0, 16, 0, 0, 0.00, -33.7840633, 151.0681666
EV, 10
GPS, 3, 191066000, 11, 1.84, -33.7840632, 151.0681666, 0.19, 90.67, 0.01, 0.00
CTUN, 0, 0.00, 0.02, 0.000000, 0.00, 0, 19, 0, 0
ATT, 0.00, -0.92, 0.00, 2.40, 0.00, 54.19, 54.19
GPS, 3, 191068000, 10, 2.02, -33.7840632, 151.0681662, 0.19, 90.35, 0.01, 0.00
CTUN, 0, 0.00, -0.05, 0.000000, 0.00, 0, 19, 0, 0
ATT, 0.00, -0.91, 0.00, 2.38, 0.00, 54.13, 54.13
DU32, 7, 8281
CURR, 0, 0, 1247, 5, 4752, 0.456681
CTUN, 0, 0.00, -0.02, 0.000000, 0.00, 0, 19, 0, 0
ATT, 0.00, -0.89, 0.00, 2.41, 0.00, 54.18, 54.18
GPS, 3, 191068200, 10, 2.02, -33.7840632, 151.0681662, 0.20, 90.32, 0.00, 0.00
CTUN, 0, 0.00, 0.01, 0.000000, 0.00, 0, 19, 0, 0
ATT, 0.00, -0.90, 0.00, 2.37, 0.00, 54.21, 54.21
CTUN, 0, 0.00, -0.01, 0.000000, 0.00, 0, 19, 0, 0
ATT, 0.00, -0.91, 0.00, 2.34, 0.00, 54.17, 54.17
GPS, 3, 191068400, 10, 2.02, -33.7840632, 151.0681662, 0.21, 90.30, 0.01, 0.00
CTUN, 0, 0.00, -0.01, 0.000000, 0.00, 0, 19, 0, 0
ATT, 0.00, -0.97, 0.00, 2.31, 0.00, 54.21, 54.21
CTUN, 0, 0.00, -0.02, 0.000000, 0.00, 0, 19, 0, 0
ATT, 0.00, -0.95, 0.00, 2.32, 0.00, 54.20, 54.20
EV, 18
GPS, 3, 191068600, 10, 2.02, -33.7840632, 151.0681661, 0.22, 90.28, 0.00, 0.00
CTUN, 0, 0.00, -0.08, 0.000000, 0.00, 0, 19, 0, 0
ATT, 0.00, -0.94, 0.00, 2.34, 0.00, 54.21, 54.21
CTUN, 0, 0.00, -0.14, 0.000000, 0.00, 0, 19, 0, 0
ATT, 0.00, -0.96, 0.00, 2.33, 0.00, 54.22, 54.22
GPS, 3, 191068800, 10, 2.02, -33.7840632, 151.0681661, 0.22, 90.27, 0.01, 0.00
CTUN, 0, 0.00, -0.05, 0.000000, 0.00, 0, 19, 0, 0
ATT, 0.00, -0.95, 0.00, 2.31, 0.00, 54.22, 54.22
CTUN, 0, 0.00, -0.05, 0.000000, 0.00, 0, 19, 0, 0
ATT, 0.00, -0.94, 0.00, 2.34, 0.00, 54.24, 54.24
GPS, 3, 191069000, 10, 2.02, -33.7840632, 151.0681660, 0.22, 90.25, 0.02, 0.00
CTUN, 0, 0.00, -0.11, 0.000000, 0.00, 0, 19, 0, 0
ATT, 0.00, -0.93, 0.00, 2.36, 0.00, 54.24, 54.24
DU32, 7, 8793
CURR, 0, 0, 1243, 68, 4732, 0.648902
CTUN, 0, 0.00, -0.08, 0.000000, 0.00, 0, 18, 0, 0
ATT, 0.00, -0.97, 0.00, 2.33, 0.00, 54.25, 54.25
GPS, 3, 191069200, 10, 2.02, -33.7840631, 151.0681660, 0.22, 90.25, 0.01, 0.00
CTUN, 0, 0.00, -0.15, 0.000000, 0.00, 0, 18, 0, 0
ATT, 0.00, -0.95, 0.00, 2.34, 0.00, 54.26, 54.26
CTUN, 0, 0.00, -0.17, 0.000000, 0.00, 0, 18, 0, 0
ATT, 0.00, -0.93, 0.00, 2.36, 0.00, 54.25, 54.25
GPS, 3, 191069400, 10, 2.02, -33.7840631, 151.0681659, 0.22, 90.24, 0.01, 0.00
CTUN, 0, 0.00, -0.04, 0.000000, 0.00, 0, 18, 0, 0
ATT, 0.00, -0.92, 0.00, 2.38, 0.00, 54.26, 54.26
CTUN, 0, 0.00, -0.13, 0.000000, 0.00, 0, 18, 0, 0
ATT, 0.00, -0.91, 0.00, 2.39, 0.00, 54.26, 54.26
GPS, 3, 191069600, 10, 2.02, -33.7840631, 151.0681658, 0.21, 90.24, 0.00, 0.00
CTUN, 0, 0.00, -0.13, 0.000000, 0.00, 0, 18, 0, 0
ATT, 0.00, -0.92, 0.00, 2.38, 0.00, 54.27, 54.27
CTUN, 0, 0.00, -0.04, 0.000000, 0.00, 0, 18, 0, 0
ATT, 0.00, -0.94, 0.00, 2.36, 0.00, 54.27, 54.27
GPS, 3, 191069800, 11, 1.74, -33.7840630, 151.0681658, 0.21, 90.24, 0.01, 0.00
CTUN, 0, 0.00, -0.08, 0.000000, 0.00, 0, 18, 0, 0
ATT, 0.00, -0.94, 0.00, 2.36, 0.00, 54.28, 54.28
CTUN, 0, 0.00, -0.17, 0.000000, 0.00, 0, 18, 0, 0
ATT, 0.00, -0.91, 0.00, 2.40, 0.00, 54.29, 54.29
GPS, 3, 191070000, 11, 1.74, -33.7840630, 151.0681657, 0.21, 90.25, 0.01, 0.00
CTUN, 0, 0.00, 0.03, 0.000000, 0.00, 0, 17, 0, 0
ATT, 0.00, -0.92, 0.00, 2.36, 0.00, 54.30, 54.30
DU32, 7, 8793
CURR, 0, 0, 1247, 62, 4732, 0.828422
CTUN, 0, 0.00, -0.26, 0.000000, 0.00, 0, 17, 0, 0
ATT, 0.00, -0.91, 0.00, 2.38, 0.00, 54.31, 54.31
GPS, 3, 191070200, 11, 1.74, -33.7840630, 151.0681657, 0.21, 90.26, 0.01, 0.00
CTUN, 0, 0.00, -0.05, 0.000000, 0.00, 0, 17, 0, 0
ATT, 0.00, -0.90, 0.00, 2.41, 0.00, 54.32, 54.32
CTUN, 0, 0.00, 0.05, 0.000000, 0.00, 0, 17, 0, 0
ATT, 0.00, -0.92, 0.00, 2.38, 0.00, 54.32, 54.32
GPS, 3, 191070400, 11, 1.74, -33.7840630, 151.0681656, 0.21, 90.28, 0.01, 0.00
CTUN, 0, 0.00, -0.01, 0.000000, 0.00, 0, 17, 0, 0
ATT, 0.00, -0.91, 0.00, 2.37, 0.00, 54.33, 54.33
CTUN, 0, 0.00, -0.10, 0.000000, 0.00, 0, 17, 0, 0
ATT, 0.00, -0.91, 0.00, 2.43, 0.00, 54.34, 54.34
GPS, 3, 191070600, 11, 1.74, -33.7840629, 151.0681655, 0.21, 90.30, 0.01, 0.00
CTUN, 0, 0.00, -0.08, 0.000000, 0.00, 0, 17, 0, 0
ATT, 0.00, -0.95, 0.00, 2.39, 0.00, 54.35, 54.35
CTUN, 0, 0.00, -0.01, 0.000000, 0.00, 0, 16, 0, 0
ATT, 0.00, -0.93, 0.00, 2.39, 0.00, 54.35, 54.35
GPS, 3, 191070800, 11, 1.74, -33.7840629, 151.0681654, 0.21, 90.33, 0.00, 0.00
CTUN, 0, 0.00, -0.12, 0.000000, 0.00, 0, 16, 0, 0
ATT, 0.00, -0.89, 0.00, 2.43, 0.00, 54.36, 54.36
CTUN, 0, 0.00, 0.11, 0.000000, 0.00, 0, 16, 0, 0
ATT, 0.00, -0.91, 0.00, 2.42, 0.00, 54.36, 54.36
GPS, 3, 191071000, 11, 1.74, -33.7840628, 151.0681653, 0.22, 90.35, 0.01, 0.00
CTUN, 0, 0.00, -0.02, 0.000000, 0.00, 0, 16, 0, 0
ATT, 0.00, -0.92, 0.00, 2.41, 0.00, 54.36, 54.36
DU32, 7, 8793
CURR, 0, 0, 1246, 65, 4752, 1.004807
PM, 0, 0, 51, 2, 1000, 2068601, 12, 4
CTUN, 0, 0.00, -0.05, 0.000000, 0.00, 0, 16, 0, 0
ATT, 0.00, -0.90, 0.00, 2.43, 0.00, 54.39, 54.39
GPS, 3, 191071200, 11, 1.74, -33.7840628, 151.0681652, 0.22, 90.37, 0.02, 0.00
CTUN, 0, 0.00, -0.01, 0.000000, 0.00, 0, 16, 0, 0
ATT, 0.00, -0.95, 0.00, 2.38, 0.00, 54.39, 54.39
CTUN, 0, 0.00, -0.16, 0.000000, 0.00, 0, 16, 0, 0
ATT, 0.00, -0.94, 0.00, 2.39, 0.00, 54.39, 54.39
GPS, 3, 191071400, 11, 1.74, -33.7840627, 151.0681651, 0.22, 90.40, 0.00, 0.00
CTUN, 0, 0.00, -0.13, 0.000000, 0.00, 0, 16, 0, 0
ATT, 0.00, -0.92, 0.00, 2.45, 0.00, 54.40, 54.40
CTUN, 0, 0.00, -0.14, 0.000000, 0.00, 0, 15, 0, 0
ATT, 0.00, -0.94, 0.00, 2.41, 0.00, 54.40, 54.40
GPS, 3, 191071600, 11, 1.74, -33.7840626, 151.0681649, 0.21, 90.42, 0.02, 0.00
CTUN, 0, 0.00, -0.17, 0.000000, 0.00, 0, 15, 0, 0
ATT, 0.00, -0.92, 0.00, 2.41, 0.00, 54.41, 54.41
CTUN, 0, 0.00, -0.18, 0.000000, 0.00, 0, 15, 0, 0
ATT, 0.00, -0.91, 0.00, 2.45, 0.00, 54.41, 54.41
GPS, 3, 191071800, 11, 1.74, -33.7840625, 151.0681648, 0.19, 90.43, 0.02, 0.00
CTUN, 0, 0.00, -0.13, 0.000000, 0.00, 0, 15, 0, 0
ATT, 0.00, -0.93, 0.00, 2.43, 0.00, 54.42, 54.42
CTUN, 0, 0.00, -0.12, 0.000000, 0.00, 0, 14, 0, 0
ATT, 0.00, -0.95, 0.00, 2.40, 0.00, 54.43, 54.43
GPS, 3, 191072000, 11, 1.74, -33.7840624, 151.0681647, 0.18, 90.44, 0.00, 0.00
CTUN, 0, 0.00, -0.21, 0.000000, 0.00, 0, 14, 0, 0
ATT, 0.00, -0.93, 0.00, 2.43, 0.00, 54.43, 54.43
DU32, 7, 8793
CURR, 0, 0, 1241, 59, 4732, 1.182526
CTUN, 0, 0.00, -0.25, 0.000000, 0.00, 0, 14, 0, 0
ATT, 0.00, -0.92, 0.00, 2.44, 0.00, 54.45, 54.45
GPS, 3, 191072200, 11, 1.74, -33.7840624, 151.0681646, 0.16, 90.46, 0.02, 0.00
CTUN, 0, 0.00, -0.14, 0.000000, 0.00, 0, 14, 0, 0
ATT, 0.00, -0.92, 0.00, 2.43, 0.00, 54.45, 54.45
CTUN, 0, 0.00, -0.12, 0.000000, 0.00, 0, 13, 0, 0
ATT, 0.00, -0.92, 0.00, 2.43, 0.00, 54.47, 54.47
GPS, 3, 191072400, 11, 1.74, -33.7840623, 151.0681646, 0.15, 90.45, 0.01, 0.00
CTUN, 0, 0.00, -0.08, 0.000000, 0.00, 0, 13, 0, 0
ATT, 0.00, -0.92, 0.00, 2.42, 0.00, 54.48, 54.48
CTUN, 0, 0.00, -0.16, 0.000000, 0.00, 0, 13, 0, 0
ATT, 0.00, -0.90, 0.00, 2.45, 0.00, 54.47, 54.47
GPS, 3, 191072600, 11, 1.74, -33.7840622, 151.0681644, 0.15, 90.45, 0.02, 0.00
CTUN, 0, 0.00, -0.09, 0.000000, 0.00, 0, 13, 0, 0
ATT, 0.00, -0.93, 0.00, 2.43, 0.00, 54.49, 54.49
CTUN, 0, 0.00, -0.08, 0.000000, 0.00, 0, 13, 0, 0
ATT, 0.00, -0.93, 0.00, 2.43, 0.00, 54.49, 54.49
GPS, 3, 191072800, 11, 1.74, -33.7840622, 151.0681643, 0.14, 90.44, 0.02, 0.00
CTUN, 0, 0.00, -0.28, 0.000000, 0.00, 0, 13, 0, 0
ATT, 0.00, -0.94, 0.00, 2.44, 0.00, 54.51, 54.51
CTUN, 0, 0.00, -0.15, 0.000000, 0.00, 0, 12, 0, 0
ATT, 0.00, -0.90, 0.00, 2.46, 0.00, 54.52, 54.52
GPS, 3, 191073000, 11, 1.74, -33.7840621, 151.0681642, 0.13, 90.44, 0.01, 0.00
CTUN, 0, 0.00, -0.12, 0.000000, 0.00, 0, 12, 0, 0
ATT, 0.00, -0.91, 0.00, 2.44, 0.00, 54.51, 54.51
DU32, 7, 8793
CURR, 0, 0, 1240, 61, 4752, 1.362829
CTUN, 0, 0.00, -0.07, 0.000000, 0.00, 0, 12, 0, 0
ATT, 0.00, -0.93, 0.00, 2.44, 0.00, 54.53, 54.53
GPS, 3, 191073200, 11, 1.74, -33.7840620, 151.0681641, 0.12, 90.43, 0.01, 0.00
CTUN, 0, 0.00, -0.22, 0.000000, 0.00, 0, 12, 0, 0
ATT, 0.00, -0.94, 0.00, 2.44, 0.00, 54.53, 54.53
CTUN, 0, 0.00, -0.13, 0.000000, 0.00, 0, 12, 0, 0
ATT, 0.00, -0.91, 0.00, 2.46, 0.00, 54.56, 54.56
GPS, 3, 191073400, 11, 1.74, -33.7840619, 151.0681639, 0.11, 90.43, 0.01, 0.00
CTUN, 0, 0.00, -0.16, 0.000000, 0.00, 0, 12, 0, 0
ATT, 0.00, -0.91, 0.00, 2.45, 0.00, 54.55, 54.55
CTUN, 0, 0.00, -0.19, 0.000000, 0.00, 0, 11, 0, 0
ATT, 0.00, -0.91, 0.00, 2.45, 0.00, 54.56, 54.56
GPS, 3, 191073600, 11, 1.74, -33.7840619, 151.0681638, 0.10, 90.41, 0.02, 0.00
CTUN, 0, 0.00, -0.23, 0.000000, 0.00, 0, 11, 0, 0
ATT, 0.00, -0.91, 0.00, 2.46, 0.00, 54.56, 54.56
CTUN, 0, 0.00, -0.17, 0.000000, 0.00, 0, 11, 0, 0
ATT, 0.00, -0.91, 0.00, 2.46, 0.00, 54.57, 54.57
GPS, 3, 191073800, 11, 1.74, -33.7840618, 151.0681637, 0.09, 90.40, 0.02, 0.00
CTUN, 0, 0.00, -0.13, 0.000000, 0.00, 0, 11, 0, 0
ATT, 0.00, -0.90, 0.00, 2.46, 0.00, 54.58, 54.58
CTUN, 0, 0.00, -0.14, 0.000000, 0.00, 0, 11, 0, 0
ATT, 0.00, -0.92, 0.00, 2.45, 0.00, 54.58, 54.58
GPS, 3, 191074000, 12, 1.70, -33.7840617, 151.0681636, 0.08, 90.39, 0.01, 0.00
CTUN, 0, 0.00, -0.04, 0.000000, 0.00, 0, 10, 0, 0
ATT, 0.00, -0.92, 0.00, 2.46, 0.00, 54.60, 54.60
DU32, 7, 8793
CURR, 0, 0, 1241, 60, 4712, 1.541021
CTUN, 0, 0.00, -0.16, 0.000000, 0.00, 0, 10, 0, 0
ATT, 0.00, -0.92, 0.00, 2.45, 0.00, 54.60, 54.60
GPS, 3, 191074200, 12, 1.70, -33.7840616, 151.0681634, 0.08, 90.39, 0.01, 0.00
CTUN, 0, 0.00, -0.18, 0.000000, 0.00, 0, 10, 0, 0
ATT, 0.00, -0.93, 0.00, 2.45, 0.00, 54.61, 54.61
CTUN, 0, 0.00, -0.14, 0.000000, 0.00, 0, 10, 0, 0
ATT, 0.00, -0.92, 0.00, 2.45, 0.00, 54.62, 54.62
GPS, 3, 191074400, 12, 1.70, -33.7840615, 151.0681633, 0.07, 90.38, 0.01, 0.00
CTUN, 0, 0.00, -0.12, 0.000000, 0.00, 0, 10, 0, 0
ATT, 0.00, -0.91, 0.00, 2.46, 0.00, 54.62, 54.62
CTUN, 0, 0.00, -0.21, 0.000000, 0.00, 0, 10, 0, 0
ATT, 0.00, -0.91, 0.00, 2.46, 0.00, 54.64, 54.64
GPS, 3, 191074600, 12, 1.70, -33.7840614, 151.0681632, 0.06, 90.36, 0.01, 0.00
CTUN, 0, 0.00, -0.17, 0.000000, 0.00, 0, 10, 0, 0
ATT, 0.00, -0.93, 0.00, 2.46, 0.00, 54.64, 54.64
CTUN, 0, 0.00, -0.14, 0.000000, 0.00, 0, 10, 0, 0
ATT, 0.00, -0.92, 0.00, 2.46, 0.00, 54.64, 54.64
GPS, 3, 191074800, 12, 1.70, -33.7840613, 151.0681631, 0.05, 90.35, 0.00, 0.00
CTUN, 0, 0.00, -0.17, 0.000000, 0.00, 0, 9, 0, 0
ATT, 0.00, -0.93, 0.00, 2.46, 0.00, 54.66, 54.66
CTUN, 0, 0.00, -0.04, 0.000000, 0.00, 0, 9, 0, 0
ATT, 0.00, -0.92, 0.00, 2.45, 0.00, 54.66, 54.66
GPS, 3, 191075000, 11, 1.74, -33.7840612, 151.0681629, 0.05, 90.33, 0.02, 0.00
CTUN, 0, 0.00, -0.25, 0.000000, 0.00, 0, 9, 0, 0
ATT, 0.00, -0.93, 0.00, 2.46, 0.00, 54.66, 54.66
DU32, 7, 8793
CURR, 0, 0, 1241, 61, 4732, 1.721222
EV, 15
CTUN, 132, 0.00, -0.08, 0.000000, 0.00, 0, 9, 132, 0
ATT, 0.00, -0.93, 0.00, 2.46, 0.00, 54.67, 54.67
GPS, 3, 191075200, 11, 1.74, -33.7840611, 151.0681629, 0.05, 90.33, 0.01, 0.00
CTUN, 148, 0.00, -0.15, 0.000000, 0.00, 0, 9, 148, 0
ATT, 0.00, -0.96, 0.00, 2.38, 0.00, 54.67, 54.67
EV, 28
CTUN, 157, 0.00, -0.21, 0.000000, 0.00, 0, 8, 157, 0
ATT, 0.00, -1.01, 0.00, 2.28, 0.00, 54.69, 54.67
GPS, 3, 191075400, 11, 1.74, -33.7840611, 151.0681628, 0.04, 90.31, 0.01, 0.00
CTUN, 162, 0.00, -0.19, 0.000000, 0.00, 0, 9, 162, 0
ATT, 0.00, -0.99, 0.00, 2.26, 0.00, 54.69, 54.67
CTUN, 162, 0.00, -0.32, 0.000000, 0.00, 0, 8, 162, 0
ATT, 0.00, -1.01, 0.00, 2.30, 0.00, 54.70, 54.67
GPS, 3, 191075600, 11, 1.74, -33.7840610, 151.0681627, 0.02, 90.30, 0.02, 0.00
CTUN, 162, 0.00, -0.27, 0.000000, 0.00, 0, 8, 162, 0
ATT, 0.00, -1.07, 0.00, 2.19, 0.00, 54.72, 54.67
CTUN, 162, 0.00, -0.15, 0.000000, 0.00, 0, 7, 162, 0
ATT, 0.00, -1.13, 0.00, 2.15, 0.00, 54.70, 54.67
GPS, 3, 191075800, 11, 1.74, -33.7840609, 151.0681626, 0.01, 90.29, 0.01, 0.00
CTUN, 162, 0.00, -0.39, 0.000000, 0.00, 0, 8, 162, 0
ATT, 0.00, -1.12, 0.00, 2.15, 0.00, 54.70, 54.67
CTUN, 162, 0.00, -0.29, 0.000000, 0.00, 0, 7, 162, 0
ATT, 0.00, -1.15, 0.00, 2.13, 0.00, 54.73, 54.67
GPS, 3, 191076000, 11, 1.74, -33.7840608, 151.0681626, -0.01, 90.27, 0.01, 0.00
CTUN, 162, 0.00, -0.60, 0.000000, 0.00, 0, 7, 162, 0
ATT, 0.00, -1.17, 0.00, 2.08, 0.00, 54.72, 54.67
DU32, 7, 8313
CURR, 162, 1433, 1237, 258, 4752, 2.338106
CTUN, 162, 0.00, -0.48, 0.000000, 0.00, 0, 6, 162, 0
ATT, 0.00, -1.17, 0.00, 2.10, 0.00, 54.70, 54.67
GPS, 3, 191076200, 11, 1.74, -33.7840607, 151.0681625, -0.06, 90.24, 0.02, 0.00
CTUN, 162, 0.00, -0.55, 0.000000, 0.00, 0, 6, 162, 0
ATT, 0.00, -1.18, 0.00, 2.11, 0.00, 54.71, 54.67
CTUN, 162, 0.00, -0.68, 0.000000, 0.00, 0, 5, 162, 0
ATT, 0.00, -1.14, 0.00, 2.08, 0.00, 54.71, 54.67
GPS, 3, 191076400, 11, 1.74, -33.7840606, 151.0681624, -0.11, 90.23, 0.01, 0.00
CTUN, 162, 0.00, -0.68, 0.000000, 0.00, 0, 4, 162, 0
ATT, 0.00, -1.15, 0.00, 2.11, 0.00, 54.71, 54.67
CTUN, 162, 0.00, -0.90, 0.000000, 0.00, 0, 4, 162, 0
ATT, 0.00, -1.12, 0.00, 2.10, 0.00, 54.73, 54.67
GPS, 3, 191076600, 11, 1.74, -33.7840605, 151.0681624, -0.18, 90.21, 0.03, 0.00
CTUN, 162, 0.00, -0.78, 0.000000, 0.00, 0, 3, 162, 0
ATT, 0.00, -1.12, 0.00, 2.10, 0.00, 54.73, 54.67
CTUN, 162, 0.00, -0.86, 0.000000, 0.00, 0, 3, 162, 0
ATT, 0.00, -1.11, 0.00, 2.11, 0.00, 54.74, 54.67
GPS, 3, 191076800, 11, 1.74, -33.7840604, 151.0681623, -0.25, 90.19, 0.00, 0.00
CTUN, 167, 0.00, -0.90, 0.000000, 0.00, 0, 2, 167, 0
ATT, 0.00, -1.10, 0.00, 2.06, 0.00, 54.77, 54.67
CTUN, 199, 0.00, -0.74, 0.000000, 0.00, 0, 1, 199, 0
ATT, 0.00, -1.11, 0.00, 2.05, 0.00, 54.75, 54.67
GPS, 3, 191077000, 11, 1.74, -33.7840603, 151.0681623, -0.31, 90.18, 0.03, 0.00
CTUN, 262, 0.00, -0.85, 0.000000, 0.00, 0, 1, 262, 0
ATT, 0.00, -1.12, 0.00, 2.04, 0.00, 54.75, 54.67
DU32, 7, 8313
CURR, 276, 3177, 1230, 339, 4752, 3.089978
CTUN, 279, 0.00, -0.84, 0.000000, 0.00, 0, 0, 279, 0
ATT, 0.00, -1.17, 0.00, 1.98, 0.00, 54.73, 54.67
GPS, 3, 191077200, 12, 1.70, -33.7840601, 151.0681622, -0.37, 90.17, 0.02, 0.00
CTUN, 285, 0.00, -1.07, 0.000000, 0.00, 0, 0, 285, 0
ATT, 0.00, -1.14, 0.00, 1.93, 0.00, 54.74, 54.67
CTUN, 285, 0.00, -1.26, 0.000000, 0.00, 0, 0, 285, 0
ATT, 0.00, -1.15, 0.00, 1.94, 0.00, 54.78, 54.67
GPS, 3, 191077400, 11, 1.74, -33.7840600, 151.0681622, -0.46, 90.15, 0.01, 0.00
CTUN, 316, 0.00, -1.09, 0.000000, 0.00, 0, 0, 316, 0
ATT, 0.00, -1.14, 0.00, 1.97, 0.00, 54.72, 54.67
EV, 16
CTUN, 382, 0.00, -1.60, 0.000000, 0.00, 0, -1, 382, 0
ATT, 0.00, -1.14, 0.00, 1.93, 0.00, 54.74, 54.67
GPS, 3, 191077600, 11, 1.74, -33.7840599, 151.0681622, -0.56, 90.12, 0.04, 0.00
CTUN, 441, 0.00, -1.24, 0.000000, 0.00, 0, -2, 441, 0
ATT, 0.00, -1.15, 0.00, 1.82, 0.00, 54.73, 54.67
CTUN, 462, 0.00, -1.72, 0.000000, 0.00, 0, -4, 462, 0
ATT, 0.00, -1.10, 0.00, 1.90, 0.00, 54.66, 54.67
GPS, 3, 191077800, 12, 1.70, -33.7840598, 151.0681622, -0.67, 90.11, 0.03, 0.00
CTUN, 491, 0.00, -2.05, 0.000000, 0.00, 0, -4, 491, 0
ATT, 0.00, -0.98, 0.00, 1.86, 0.00, 54.22, 54.67
CTUN, 501, 0.00, -1.54, 0.000000, 0.00, 0, -5, 501, 0
ATT, 0.00, -1.10, 0.00, 1.74, 0.00, 53.80, 54.67
GPS, 3, 191078000, 12, 1.70, -33.7840598, 151.0681623, -0.83, 90.04, 0.08, 0.00
CTUN, 514, 0.00, -1.87, 0.000000, 0.00, 0, -5, 514, 0
ATT, 0.00, -0.95, 0.00, 0.95, 0.00, 53.41, 54.67
DU32, 7, 8569
CURR, 529, 7050, 1199, 1095, 4732, 5.135546
CTUN, 529, 0.00, -1.54, 0.000000, 0.00, 0, -5, 529, 0
ATT, 0.00, -0.53, 0.00, 0.33, 0.00, 52.97, 54.67
GPS, 3, 191078200, 12, 1.70, -33.7840598, 151.0681623, -0.93, 90.03, 0.12, 0.00
CTUN, 547, 0.00, -1.90, 0.000000, 0.00, 0, -4, 547, 0
ATT, 0.00, 0.24, 0.00, -0.24, 0.00, 52.58, 54.67
CTUN, 549, 0.00, -1.08, 0.000000, 0.00, 0, 0, 549, 0
ATT, 0.00, 0.49, 0.00, -0.54, 0.00, 52.15, 54.67
GPS, 3, 191078400, 12, 1.70, -33.7840596, 151.0681623, -1.00, 89.98, 0.02, 0.00
CTUN, 554, 0.00, -0.68, 0.000000, 0.00, 0, 6, 554, 0
ATT, 0.00, 0.26, 0.00, -0.30, 0.00, 51.68, 54.67
CTUN, 565, 0.00, -0.61, 0.000000, 0.00, 0, 12, 565, 0
ATT, 0.00, 0.85, 0.00, -0.19, 0.00, 51.25, 54.67
GPS, 3, 191078600, 12, 1.70, -33.7840595, 151.0681623, -0.93, 89.95, 0.01, 0.00
CTUN, 576, 0.00, -0.34, 0.000000, 0.00, 0, 19, 576, 0
ATT, 0.00, 0.60, 0.00, -0.17, 0.00, 50.76, 54.67
CTUN, 585, 0.00, -0.08, 0.000000, 0.00, 0, 26, 585, 0
ATT, 0.00, 0.92, 0.00, -0.02, 0.00, 50.20, 54.67
GPS, 3, 191078800, 12, 1.70, -33.7840595, 151.0681624, -0.80, 89.99, 0.11, 0.00
CTUN, 582, 0.00, 0.02, 0.000000, 0.00, 0, 36, 582, 0
ATT, 0.00, 0.71, 0.00, 0.20, 0.00, 49.58, 54.67
CTUN, 582, 0.00, 0.22, 0.000000, 0.00, 0, 43, 582, 0
ATT, 0.00, 0.72, 0.00, 0.43, 0.00, 48.97, 54.67
GPS, 3, 191079000, 12, 1.70, -33.7840593, 151.0681624, -0.60, 90.07, 0.07, 0.00
CTUN, 582, 0.00, 0.23, 0.000000, 0.00, 0, 48, 582, 0
ATT, 0.00, 0.64, 0.00, 0.12, 0.00, 48.48, 54.67
DU32, 7, 8569
CURR, 582, 12693, 1188, 1396, 4732, 8.759774
CTUN, 582, 0.00, 0.20, 0.000000, 0.00, 0, 51, 582, 0
ATT, 0.00, -0.10, 0.00, 0.02, 0.00, 48.18, 54.67
GPS, 3, 191079200, 12, 1.70, -33.7840594, 151.0681627, -0.41, 90.19, 0.22, 75.71
CTUN, 584, 0.00, 0.24, 0.000000, 0.00, 0, 54, 584, 0
ATT, 0.00, -0.27, 0.00, -0.01, 0.00, 48.06, 54.67
CTUN, 582, 0.00, 0.36, 0.000000, 0.00, 0, 56, 582, 0
ATT, 0.00, -0.56, 0.00, -0.01, 0.00, 48.02, 54.67
GPS, 3, 191079400, 12, 1.70, -33.7840594, 151.0681630, -0.21, 90.30, 0.16, 75.71
CTUN, 582, 0.00, 0.23, 0.000000, 0.00, 0, 58, 582, 0
ATT, 0.00, -0.61, 0.00, 0.00, 0.00, 48.02, 54.67
CTUN, 582, 0.00, 0.50, 0.000000, 0.00, 0, 60, 582, 0
ATT, 0.00, -0.48, 0.00, -0.13, 0.00, 48.11, 54.67
GPS, 3, 191079600, 12, 1.70, -33.7840597, 151.0681633, -0.03, 90.47, 0.33, 120.40
CTUN, 583, 0.00, 0.52, 0.000000, 0.00, 0, 63, 583, 0
ATT, 0.00, -0.48, 0.00, -0.26, 0.00, 48.21, 54.67
CTUN, 586, 0.00, 0.59, 0.000000, 0.00, 0, 66, 586, 0
ATT, 0.00, -0.28, 0.00, -0.51, 0.00, 48.31, 54.67
GPS, 3, 191079800, 11, 1.74, -33.7840595, 151.0681637, 0.14, 90.57, 0.17, 120.40
CTUN, 586, 0.00, 0.63, 0.000000, 0.00, 0, 68, 586, 0
ATT, 0.00, -0.28, 0.00, -0.52, 0.00, 48.36, 54.67
CTUN, 582, 0.00, 0.70, 0.000000, 0.00, 0, 69, 582, 0
ATT, 0.00, -0.14, 0.00, -0.48, 0.00, 48.34, 54.67
GPS, 3, 191080000, 12, 1.70, -33.7840597, 151.0681644, 0.35, 90.69, 0.36, 117.80
CTUN, 585, 0.00, 0.81, 0.000000, 0.00, 0, 70, 585, 0
ATT, 0.00, -0.33, 0.00, -0.33, 0.00, 48.29, 54.67
DU32, 7, 8569
CURR, 582, 18521, 1186, 1410, 4732, 12.64397
CTUN, 582, 0.00, 0.76, 0.000000, 0.00, 0, 71, 582, 0
ATT, 0.00, -0.14, 0.00, -0.11, 0.00, 48.12, 54.67
GPS, 3, 191080200, 12, 1.70, -33.7840593, 151.0681648, 0.54, 90.92, 0.24, 117.80
CTUN, 582, 0.00, 0.84, 0.000000, 0.00, 0, 69, 582, 0
ATT, 0.00, 0.00, 0.00, 0.12, 0.00, 47.89, 54.67
CTUN, 584, 0.00, 0.96, 0.000000, 0.00, 0, 70, 584, 0
ATT, 0.00, 0.08, 0.00, 0.10, 0.00, 47.66, 54.67
GPS, 3, 191080400, 12, 1.70, -33.7840592, 151.0681654, 0.72, 91.07, 0.27, 105.93
CTUN, 582, 0.00, 1.16, 0.000000, 0.00, 0, 69, 582, 0
ATT, 0.00, 0.52, 0.00, 0.15, 0.00, 47.46, 54.67
CTUN, 585, 0.00, 1.19, 0.000000, 0.00, 0, 70, 585, 0
ATT, 0.00, 0.52, 0.00, 0.15, 0.00, 47.36, 54.67
GPS, 3, 191080600, 11, 1.74, -33.7840593, 151.0681664, 0.91, 91.22, 0.41, 101.38
CTUN, 568, 0.00, 1.17, 0.000000, 0.00, 0, 72, 568, 0
ATT, -0.93, 0.75, 0.00, 0.33, 0.00, 47.35, 54.67
CTUN, 562, 0.00, 1.34, 0.000000, 0.00, 0, 69, 562, 0
ATT, -1.16, 0.76, 0.00, 0.39, 0.00, 47.52, 54.67
GPS, 3, 191080800, 11, 1.74, -33.7840595, 151.0681672, 1.08, 91.34, 0.38, 105.28
CTUN, 562, 0.00, 1.39, 0.000000, 0.00, 0, 65, 562, 0
ATT, -0.81, 0.27, 0.00, 0.25, 0.00, 47.90, 54.67
CTUN, 561, 0.00, 1.41, 0.000000, 0.00, 0, 61, 561, 0
ATT, -0.81, 0.26, 0.00, 0.16, 0.00, 48.37, 54.67
GPS, 3, 191081000, 11, 1.74, -33.7840592, 151.0681681, 1.24, 91.49, 0.39, 105.28
CTUN, 561, 0.00, 1.56, 0.000000, 0.00, 0, 57, 561, 0
ATT, -1.27, 0.11, 0.00, 0.09, 0.00, 48.88, 54.67
DU32, 7, 8569
CURR, 558, 24263, 1190, 1305, 4752, 16.41534
PM, 0, 0, 50, 0, 1000, 10251, 10, 4
CTUN, 558, 0.00, 1.53, 0.000000, 0.00, 0, 54, 558, 0
ATT, -2.32, -0.05, 0.00, -0.02, 0.00, 49.34, 54.67
CTUN, 558, 0.00, 1.59, 0.000000, 0.00, 0, 50, 558, 0
GPS, 3, 191081200, 11, 1.74, -33.7840594, 151.0681692, 1.39, 91.57, 0.46, 101.18
ATT, -4.18, -0.88, 0.00, -0.12, 0.00, 49.70, 54.67
CTUN, 558, 0.00, 1.64, 0.000000, 0.00, 0, 47, 558, 0
ATT, -7.09, -2.40, 0.00, -0.17, 0.00, 49.98, 54.67
GPS, 3, 191081400, 10, 1.89, -33.7840599, 151.0681702, 1.49, 91.70, 0.49, 112.21
CTUN, 558, 0.00, 1.63, 0.000000, 0.00, 0, 43, 558, 0
ATT, -8.13, -4.30, 0.00, -0.18, 0.00, 50.15, 54.67
CTUN, 558, 0.00, 1.75, 0.000000, 0.00, 0, 40, 558, 0
ATT, -7.44, -5.42, 0.00, -0.28, 0.00, 50.19, 54.67
GPS, 3, 191081600, 10, 1.89, -33.7840602, 151.0681713, 1.60, 91.86, 0.54, 110.32
CTUN, 558, 0.00, 1.75, 0.000000, 0.00, 0, 36, 558, 0
ATT, -7.20, -6.00, 0.00, -0.29, 0.00, 50.11, 54.67
CTUN, 558, 0.00, 1.81, 0.000000, 0.00, 0, 32, 558, 0
ATT, -6.27, -6.17, 0.00, -0.23, 0.00, 49.96, 54.67
GPS, 3, 191081800, 10, 1.89, -33.7840600, 151.0681722, 1.68, 91.94, 0.35, 97.22
CTUN, 560, 0.00, 1.94, 0.000000, 0.00, 0, 29, 560, 0
ATT, -6.04, -5.87, 0.00, -0.21, 0.00, 49.77, 54.67
CTUN, 559, 0.00, 1.89, 0.000000, 0.00, 0, 25, 559, 0
ATT, -6.16, -5.44, 0.00, -0.03, 0.00, 49.51, 54.67
GPS, 3, 191082000, 12, 1.70, -33.7840597, 151.0681731, 1.76, 91.93, 0.38, 77.51
CTUN, 558, 0.00, 1.97, 0.000000, 0.00, 0, 23, 558, 0
ATT, -6.39, -5.32, 0.00, 0.00, 0.00, 49.27, 54.67
DU32, 7, 8569
CURR, 560, 29847, 1194, 1297, 4693, 19.99912
CTUN, 557, 0.00, 1.88, 0.000000, 0.00, 0, 20, 557, 0
ATT, -6.16, -5.42, 0.00, 0.04, 0.00, 49.09, 54.67
GPS, 3, 191082200, 12, 1.70, -33.7840589, 151.0681737, 1.82, 92.06, 0.48, 58.51
CTUN, 560, 0.00, 1.96, 0.000000, 0.00, 0, 16, 560, 0
ATT, -6.27, -5.40, 0.00, 0.06, 0.00, 48.97, 54.67
CTUN, 557, 0.00, 1.99, 0.000000, 0.00, 0, 13, 557, 0
ATT, -6.04, -5.66, 0.00, 0.13, 0.00, 48.98, 54.67
GPS, 3, 191082400, 12, 1.70, -33.7840582, 151.0681744, 1.86, 92.09, 0.48, 39.57
CTUN, 559, 0.00, 1.97, 0.000000, 0.00, 0, 9, 559, 0
ATT, -5.23, -5.37, 0.00, 0.18, 0.00, 49.09, 54.67
CTUN, 559, 0.00, 2.05, 0.000000, 0.00, 0, 5, 559, 0
ATT, -3.48, -5.08, 0.00, 0.23, 0.00, 49.29, 54.67
GPS, 3, 191082600, 12, 1.70, -33.7840571, 151.0681749, 1.89, 92.11, 0.60, 22.80
CTUN, 559, 0.00, 2.07, 0.000000, 0.00, 0, 3, 559, 0
ATT, -2.32, -4.00, 0.00, 0.44, 0.00, 49.51, 54.67
CTUN, 559, 0.00, 1.90, 0.000000, 0.00, 0, 0, 559, 0
ATT, -0.81, -2.83, 0.00, 0.76, 0.00, 49.68, 54.67
GPS, 3, 191082800, 12, 1.70, -33.7840559, 151.0681752, 1.90, 92.16, 0.71, 14.99
CTUN, 559, 0.00, 1.97, 0.000000, 0.00, 0, -1, 559, 0
ATT, 0.00, -1.53, 0.00, 0.76, 0.00, 49.86, 54.67
CTUN, 559, 0.00, 2.00, 0.000000, 0.00, 0, -3, 559, 0
ATT, 0.00, -0.51, 0.00, 0.80, 0.00, 50.04, 54.67
GPS, 3, 191083000, 12, 1.70, -33.7840545, 151.0681756, 1.91, 92.17, 0.75, 9.38
CTUN, 559, 0.00, 1.93, 0.000000, 0.00, 0, -6, 559, 0
ATT, 0.00, -0.26, 0.00, 0.87, 0.00, 50.27, 54.67
DU32, 7, 8569
CURR, 559, 35434, 1186, 1279, 4712, 23.55950
CTUN, 559, 0.00, 1.95, 0.000000, 0.00, 0, -8, 559, 0
ATT, 0.00, -0.10, 0.00, 0.88, 0.00, 50.47, 54.67
GPS, 3, 191083200, 11, 1.74, -33.7840531, 151.0681757, 1.89, 92.22, 0.75, 5.83
CTUN, 559, 0.00, 1.83, 0.000000, 0.00, 0, -11, 559, 0
ATT, 0.00, -0.10, 0.00, 0.81, 0.00, 50.68, 54.67
CTUN, 559, 0.00, 1.91, 0.000000, 0.00, 0, -14, 559, 0
ATT, 0.00, -0.10, 0.00, 0.84, 0.00, 50.85, 54.67
GPS, 3, 191083400, 11, 1.74, -33.7840523, 151.0681759, 1.86, 92.16, 0.55, 4.30
CTUN, 559, 0.00, 1.95, 0.000000, 0.00, 0, -17, 559, 0
ATT, 0.00, -0.22, 0.00, 0.76, 0.00, 51.01, 54.67
CTUN, 559, 0.00, 1.85, 0.000000, 0.00, 0, -21, 559, 0
ATT, 0.00, -0.46, 0.00, 0.63, 0.00, 51.11, 54.67
GPS, 3, 191083600, 11, 1.74, -33.7840510, 151.0681760, 1.83, 92.15, 0.68, 0.64
CTUN, 559, 0.00, 1.77, 0.000000, 0.00, 0, -23, 559, 0
ATT, 0.00, -0.41, 0.00, 0.56, 0.00, 51.21, 54.67
CTUN, 559, 0.00, 1.79, 0.000000, 0.00, 0, -26, 559, 0
ATT, 0.00, -0.62, 0.00, 0.31, 0.00, 51.37, 54.67
GPS, 3, 191083800, 12, 1.69, -33.7840500, 151.0681760, 1.77, 92.07, 0.57, 358.25
CTUN, 559, 0.00, 1.82, 0.000000, 0.00, 0, -28, 559, 0
ATT, 0.00, -0.69, 0.00, 0.25, 0.00, 51.53, 54.67
CTUN, 558, 0.00, 1.65, 0.000000, 0.00, 0, -30, 558, 0
ATT, 0.00, -0.52, 0.00, 0.27, 0.00, 51.77, 54.67
GPS, 3, 191084000, 11, 1.74, -33.7840491, 151.0681761, 1.71, 92.04, 0.52, 358.59
CTUN, 559, 0.00, 1.63, 0.000000, 0.00, 0, -33, 559, 0
ATT, 0.00, -0.32, 0.00, 0.43, 0.00, 51.98, 54.67
DU32, 7, 8569
CURR, 558, 41022, 1180, 1277, 4732, 27.10940
CTUN, 567, 0.00, 1.64, 0.000000, 0.00, 0, -35, 567, 0
ATT, 0.00, 0.07, 0.00, 0.31, 0.00, 52.07, 54.67
GPS, 3, 191084200, 12, 1.69, -33.7840480, 151.0681760, 1.63, 91.99, 0.56, 356.26
CTUN, 571, 0.00, 1.60, 0.000000, 0.00, 0, -36, 571, 0
ATT, 0.00, 0.29, 0.00, 0.14, 0.00, 52.05, 54.67
CTUN, 571, 0.00, 1.57, 0.000000, 0.00, 0, -37, 571, 0
ATT, 0.00, 0.33, 0.00, 0.04, 0.00, 51.94, 54.67
GPS, 3, 191084400, 12, 1.69, -33.7840475, 151.0681760, 1.55, 91.83, 0.32, 354.54
CTUN, 580, 0.00, 1.59, 0.000000, 0.00, 0, -37, 580, 0
ATT, 0.00, 0.22, 0.00, 0.07, 0.00, 51.73, 54.67
CTUN, 596, 0.00, 1.50, 0.000000, 0.00, 0, -37, 596, 0
ATT, 0.00, 0.18, 0.00, 0.11, 0.00, 51.45, 54.67
GPS, 3, 191084600, 12, 1.69, -33.7840465, 151.0681761, 1.48, 91.73, 0.56, 355.12
CTUN, 609, 0.00, 1.39, 0.000000, 0.00, 0, -32, 609, 0
ATT, 0.00, 0.15, 0.00, 0.13, 0.00, 51.21, 54.67
CTUN, 617, 0.00, 1.55, 0.000000, 0.00, 0, -25, 617, 0
ATT, 0.00, 0.09, 0.00, 0.17, 0.00, 51.02, 54.67
GPS, 3, 191084800, 11, 1.84, -33.7840460, 151.0681763, 1.43, 91.69, 0.32, 357.14
CTUN, 634, 0.00, 1.32, 0.000000, 0.00, 0, -19, 634, 0
ATT, 0.00, 0.03, 0.00, 0.23, 0.00, 50.92, 54.67
CTUN, 636, 0.00, 1.24, 0.000000, 0.00, 0, -7, 636, 0
ATT, 0.00, -0.03, 0.00, 0.53, 0.00, 50.82, 54.67
GPS, 3, 191085000, 12, 1.69, -33.7840454, 151.0681765, 1.40, 91.59, 0.33, 1.05
CTUN, 636, 0.00, 1.39, 0.000000, 0.00, 0, 3, 636, 0
ATT, 0.00, 0.01, 0.00, 0.63, 0.00, 50.71, 54.67
DU32, 7, 8569
CURR, 636, 47006, 1167, 1588, 4752, 31.05466
CTUN, 634, 0.00, 1.34, 0.000000, 0.00, 0, 15, 634, 0
ATT, 0.00, -0.01, 0.00, 0.55, 0.00, 50.63, 54.67
GPS, 3, 191085200, 12, 1.69, -33.7840450, 151.0681767, 1.42, 91.56, 0.25, 4.97
CTUN, 611, 0.00, 1.20, 0.000000, 0.00, 0, 26, 611, 0
ATT, 0.00, -0.10, 0.00, 0.60, 0.00, 50.58, 54.67
CTUN, 606, 0.00, 1.40, 0.000000, 0.00, 0, 35, 606, 0
ATT, 0.00, -0.11, 0.00, 0.33, 0.00, 50.54, 54.67
GPS, 3, 191085400, 12, 1.69, -33.7840448, 151.0681770, 1.48, 91.60, 0.16, 4.97
CTUN, 606, 0.00, 1.27, 0.000000, 0.00, 0, 39, 606, 0
ATT, 0.00, -0.25, 0.00, -0.04, 0.00, 50.44, 54.67
CTUN, 606, 0.00, 1.43, 0.000000, 0.00, 0, 43, 606, 0
ATT, 0.00, -0.20, 0.00, -0.36, 0.00, 50.17, 54.67
GPS, 3, 191085600, 12, 1.69, -33.7840444, 151.0681773, 1.55, 91.66, 0.24, 16.05
CTUN, 606, 0.00, 1.56, 0.000000, 0.00, 0, 47, 606, 0
ATT, 0.00, -0.17, 0.00, -0.38, 0.00, 49.81, 54.67
CTUN, 606, 0.00, 1.50, 0.000000, 0.00, 0, 51, 606, 0
ATT, 0.00, -0.48, 0.00, -0.35, 0.00, 49.45, 54.67
GPS, 3, 191085800, 12, 1.69, -33.7840441, 151.0681777, 1.64, 91.80, 0.22, 25.89
CTUN, 606, 0.00, 1.58, 0.000000, 0.00, 0, 54, 606, 0
ATT, 0.00, -1.02, 0.00, -0.26, 0.00, 49.09, 54.67
CTUN, 606, 0.00, 1.54, 0.000000, 0.00, 0, 57, 606, 0
ATT, 0.00, -1.25, 0.00, -0.12, 0.00, 48.71, 54.67
GPS, 3, 191086000, 12, 1.69, -33.7840439, 151.0681781, 1.75, 91.85, 0.16, 25.89
CTUN, 600, 0.00, 1.65, 0.000000, 0.00, 0, 61, 600, 0
ATT, 0.00, -1.10, 0.00, 0.09, 0.00, 48.32, 54.67
DU32, 7, 8569
CURR, 582, 53100, 1169, 1474, 4732, 35.18735
CTUN, 582, 0.00, 1.72, 0.000000, 0.00, 0, 64, 582, 0
ATT, 0.00, -0.76, 0.00, 0.19, 0.00, 48.01, 54.67
GPS, 3, 191086200, 12, 1.69, -33.7840436, 151.0681784, 1.86, 92.03, 0.19, 25.89
CTUN, 560, 0.00, 1.71, 0.000000, 0.00, 0, 63, 560, 0
ATT, 0.00, -0.49, 0.00, 0.17, 0.00, 47.88, 54.67
CTUN, 559, 0.00, 1.76, 0.000000, 0.00, 0, 60, 559, 0
ATT, 0.46, -0.19, 0.00, 0.28, 0.00, 48.01, 54.67
GPS, 3, 191086400, 12, 1.69, -33.7840432, 151.0681789, 1.96, 92.18, 0.28, 38.28
CTUN, 512, 0.00, 1.81, 0.000000, 0.00, 0, 55, 512, 0
ATT, 0.00, -0.09, 0.00, 0.31, 0.00, 48.41, 54.67
CTUN, 472, 0.00, 1.90, 0.000000, 0.00, 0, 45, 472, 0
ATT, 0.00, 0.23, 0.00, 0.42, 0.00, 48.99, 54.67
GPS, 3, 191086600, 12, 1.69, -33.7840430, 151.0681792, 2.04, 92.30, 0.16, 38.28
CTUN, 473, 0.00, 1.99, 0.000000, 0.00, 0, 26, 473, 0
ATT, 0.00, 0.66, 0.00, 0.53, 0.00, 49.79, 54.67
CTUN, 489, 0.00, 1.94, 0.000000, 0.00, 0, 6, 489, 0
ATT, 0.00, 0.49, 0.00, 0.25, 0.00, 50.76, 54.67
GPS, 3, 191086800, 12, 1.69, -33.7840429, 151.0681797, 2.04, 92.37, 0.20, 38.28
CTUN, 513, 0.00, 2.04, 0.000000, 0.00, 0, -10, 513, 0
ATT, 0.00, 0.26, 0.00, -0.04, 0.00, 51.68, 54.67
CTUN, 520, 0.00, 2.09, 0.000000, 0.00, 0, -23, 520, 0
ATT, 0.00, -0.03, 0.00, -0.07, 0.00, 52.48, 54.67
GPS, 3, 191087000, 12, 1.69, -33.7840428, 151.0681802, 2.00, 92.29, 0.15, 38.28
CTUN, 551, 0.00, 2.02, 0.000000, 0.00, 0, -34, 551, 0
ATT, 0.00, -0.10, 0.00, -0.12, 0.00, 53.10, 54.67
DU32, 7, 8569
CURR, 551, 58322, 1182, 1180, 4712, 38.44834
CTUN, 551, 0.00, 1.92, 0.000000, 0.00, 0, -40, 551, 0
ATT, 0.00, -0.25, 0.00, -0.15, 0.00, 53.46, 54.67
GPS, 3, 191087200, 12, 1.69, -33.7840430, 151.0681807, 1.92, 92.19, 0.12, 38.28
CTUN, 551, 0.00, 1.88, 0.000000, 0.00, 0, -45, 551, 0
ATT, 0.00, -0.03, 0.00, 0.03, 0.00, 53.62, 54.67
CTUN, 551, 0.00, 1.76, 0.000000, 0.00, 0, -50, 551, 0
ATT, 0.00, 0.00, 0.00, 0.12, 0.00, 53.61, 54.67
GPS, 3, 191087400, 12, 1.69, -33.7840432, 151.0681812, 1.81, 92.10, 0.12, 38.28
CTUN, 551, 0.00, 1.69, 0.000000, 0.00, 0, -55, 551, 0
ATT, 0.00, 0.21, 0.00, 0.00, 0.00, 53.48, 54.67
CTUN, 551, 0.00, 1.67, 0.000000, 0.00, 0, -60, 551, 0
ATT, 0.00, 0.39, 0.00, -0.01, 0.00, 53.27, 54.67
GPS, 3, 191087600, 12, 1.69, -33.7840432, 151.0681815, 1.68, 91.99, 0.14, 38.28
CTUN, 576, 0.00, 1.64, 0.000000, 0.00, 0, -64, 576, 0
ATT, 0.00, 0.73, 0.00, 0.06, 0.00, 52.95, 54.67
CTUN, 576, 0.00, 1.63, 0.000000, 0.00, 0, -67, 576, 0
ATT, 0.00, 0.71, 0.00, 0.03, 0.00, 52.55, 54.67
GPS, 3, 191087800, 12, 1.69, -33.7840435, 151.0681820, 1.54, 91.87, 0.21, 70.79
CTUN, 581, 0.00, 1.56, 0.000000, 0.00, 0, -67, 581, 0
ATT, 0.00, 0.59, 0.00, -0.09, 0.00, 52.06, 54.67
CTUN, 600, 0.00, 1.50, 0.000000, 0.00, 0, -65, 600, 0
ATT, 0.00, 0.62, 0.00, -0.22, 0.00, 51.49, 54.67
GPS, 3, 191088000, 12, 1.69, -33.7840434, 151.0681823, 1.41, 91.79, 0.18, 70.79
CTUN, 609, 0.00, 1.38, 0.000000, 0.00, 0, -63, 609, 0
ATT, 0.00, 0.62, 0.00, -0.28, 0.00, 50.92, 54.67
DU32, 7, 8569
CURR, 606, 63993, 1171, 1467, 4712, 42.05303
CTUN, 609, 0.00, 1.41, 0.000000, 0.00, 0, -56, 609, 0
ATT, 0.00, 0.92, 0.00, 0.02, 0.00, 50.39, 54.67
GPS, 3, 191088200, 12, 1.69, -33.7840435, 151.0681828, 1.30, 91.77, 0.24, 88.37
CTUN, 609, 0.00, 1.28, 0.000000, 0.00, 0, -50, 609, 0
ATT, 0.00, 1.04, 0.00, 0.25, 0.00, 49.89, 54.67
CTUN, 610, 0.00, 1.21, 0.000000, 0.00, 0, -44, 610, 0
ATT, 0.00, 1.07, 0.00, 0.21, 0.00, 49.47, 54.67
GPS, 3, 191088400, 12, 1.69, -33.7840438, 151.0681832, 1.21, 91.75, 0.28, 115.35
CTUN, 607, 0.00, 1.35, 0.000000, 0.00, 0, -39, 607, 0
ATT, 0.00, 1.02, 0.00, 0.00, 0.00, 49.17, 54.67
CTUN, 610, 0.00, 1.13, 0.000000, 0.00, 0, -34, 610, 0
ATT, 0.00, 1.06, 0.00, -0.29, 0.00, 49.03, 54.67
GPS, 3, 191088600, 12, 1.69, -33.7840444, 151.0681840, 1.15, 91.68, 0.48, 128.96
CTUN, 607, 0.00, 1.07, 0.000000, 0.00, 0, -28, 607, 0
ATT, -1.16, 0.91, 0.00, -0.39, 0.00, 49.00, 54.67
CTUN, 609, 0.00, 1.08, 0.000000, 0.00, 0, -23, 609, 0
ATT, -1.27, 0.21, 0.00, -0.30, 0.00, 49.06, 54.67
GPS, 3, 191088800, 12, 1.69, -33.7840453, 151.0681849, 1.09, 91.62, 0.61, 135.15
CTUN, 607, 0.00, 1.04, 0.000000, 0.00, 0, -17, 607, 0
ATT, -1.16, -0.34, 0.00, -0.16, 0.00, 49.20, 54.67
CTUN, 607, 0.00, 1.02, 0.000000, 0.00, 0, -11, 607, 0
ATT, -1.74, -0.82, 0.00, 0.10, 0.00, 49.42, 54.67
GPS, 3, 191089000, 12, 1.69, -33.7840460, 151.0681858, 1.06, 91.61, 0.58, 134.68
CTUN, 607, 0.00, 1.03, 0.000000, 0.00, 0, -8, 607, 0
ATT, -1.27, -1.73, 0.00, 0.17, 0.00, 49.76, 54.67
DU32, 7, 8569
CURR, 610, 70074, 1170, 1470, 4732, 46.13980
CTUN, 610, 0.00, 1.06, 0.000000, 0.00, 0, -3, 610, 0
ATT, -4.18, -2.23, 0.00, 0.21, 0.00, 50.07, 54.67
GPS, 3, 191089200, 12, 1.69, -33.7840468, 151.0681868, 1.05, 91.58, 0.58, 135.22
CTUN, 607, 0.00, 0.95, 0.000000, 0.00, 0, 1, 607, 0
ATT, -4.41, -4.11, 0.00, 0.53, 0.00, 50.40, 54.67
CTUN, 609, 0.00, 1.01, 0.000000, 0.00, 0, 3, 609, 0
ATT, -4.65, -4.78, 0.00, 0.42, 0.00, 50.74, 54.67
GPS, 3, 191089400, 12, 1.69, -33.7840474, 151.0681878, 1.05, 91.53, 0.47, 133.86
CTUN, 609, 0.00, 1.12, 0.000000, 0.00, 0, 5, 609, 0
ATT, -4.65, -5.69, 0.00, 0.30, 0.00, 51.02, 54.67
CTUN, 609, 0.00, 0.88, 0.000000, 0.00, 0, 9, 609, 0
ATT, -2.09, -5.82, 0.00, 0.26, 0.00, 51.14, 54.67
GPS, 3, 191089600, 12, 1.69, -33.7840478, 151.0681886, 1.06, 91.57, 0.42, 132.09
CTUN, 609, 0.00, 0.96, 0.000000, 0.00, 0, 12, 609, 0
ATT, -2.32, -4.38, 0.00, 0.00, 0.00, 51.14, 54.67
CTUN, 606, 0.00, 1.03, 0.000000, 0.00, 0, 15, 606, 0
ATT, -2.32, -3.95, 0.00, 0.02, 0.00, 51.06, 54.67
GPS, 3, 191089800, 12, 1.69, -33.7840479, 151.0681893, 1.08, 91.60, 0.32, 125.21
CTUN, 610, 0.00, 0.85, 0.000000, 0.00, 0, 18, 610, 0
ATT, -2.09, -3.31, 0.00, -0.05, 0.00, 50.98, 54.67
CTUN, 609, 0.00, 1.12, 0.000000, 0.00, 0, 23, 609, 0
ATT, -1.97, -2.79, 0.00, 0.15, 0.00, 50.89, 54.67
GPS, 3, 191090000, 12, 1.69, -33.7840479, 151.0681898, 1.12, 91.67, 0.19, 125.21
CTUN, 606, 0.00, 1.19, 0.000000, 0.00, 0, 28, 606, 0
ATT, -1.74, -2.45, 0.00, 0.21, 0.00, 50.83, 54.67
DU32, 7, 8569
CURR, 609, 76161, 1171, 1473, 4732, 50.21612
CTUN, 609, 0.00, 1.12, 0.000000, 0.00, 0, 34, 609, 0
ATT, -1.74, -2.23, 0.00, 0.37, 0.00, 50.83, 54.67
GPS, 3, 191090200, 12, 1.69, -33.7840480, 151.0681904, 1.19, 91.67, 0.23, 125.21
CTUN, 609, 0.00, 1.15, 0.000000, 0.00, 0, 39, 609, 0
ATT, -1.74, -2.05, 0.00, 0.69, 0.00, 50.78, 54.67
CTUN, 609, 0.00, 1.23, 0.000000, 0.00, 0, 43, 609, 0
ATT, -2.32, -2.07, 0.00, 0.96, 0.00, 50.65, 54.67
GPS, 3, 191090400, 11, 1.74, -33.7840479, 151.0681908, 1.28, 91.75, 0.16, 125.21
CTUN, 607, 0.00, 1.12, 0.000000, 0.00, 0, 50, 607, 0
ATT, -2.32, -2.46, 0.00, 0.65, 0.00, 50.59, 54.67
CTUN, 607, 0.00, 1.12, 0.000000, 0.00, 0, 55, 607, 0
ATT, -3.02, -2.64, 0.00, 0.48, 0.00, 50.68, 54.67
GPS, 3, 191090600, 12, 1.69, -33.7840477, 151.0681911, 1.36, 91.89, 0.19, 125.21
CTUN, 607, 0.00, 1.43, 0.000000, 0.00, 0, 59, 607, 0
ATT, -1.86, -3.16, 0.00, 0.50, 0.00, 51.03, 54.67
CTUN, 607, 0.00, 1.42, 0.000000, 0.00, 0, 63, 607, 0
ATT, -1.16, -2.71, 0.00, 0.31, 0.00, 51.52, 54.67
GPS, 3, 191090800, 11, 1.74, -33.7840477, 151.0681913, 1.49, 91.97, 0.07, 125.21
CTUN, 591, 0.00, 1.53, 0.000000, 0.00, 0, 67, 591, 0
ATT, -0.69, -1.95, 0.00, 0.50, 0.00, 52.03, 54.67
CTUN, 586, 0.00, 1.64, 0.000000, 0.00, 0, 68, 586, 0
ATT, 0.00, -0.86, 0.00, 0.64, 0.00, 52.45, 54.67
GPS, 3, 191091000, 11, 1.74, -33.7840474, 151.0681914, 1.64, 92.17, 0.17, 125.21
CTUN, 570, 0.00, 1.44, 0.000000, 0.00, 0, 67, 570, 0
ATT, 0.00, -0.08, 0.00, 0.04, 0.00, 52.75, 54.67
DU32, 7, 8569
CURR, 557, 82174, 1172, 1355, 4732, 54.23905
PM, 0, 0, 50, 0, 1000, 10310, 10, 4
CTUN, 555, 0.00, 1.67, 0.000000, 0.00, 0, 64, 555, 0
ATT, 0.00, 0.59, 0.00, -0.51, 0.00, 53.00, 54.67
GPS, 3, 191091200, 11, 1.74, -33.7840471, 151.0681917, 1.75, 92.25, 0.24, 77.34
CTUN, 541, 0.00, 1.82, 0.000000, 0.00, 0, 58, 541, 0
ATT, 0.00, 0.78, 0.00, -0.73, 0.00, 53.25, 54.67
CTUN, 541, 0.00, 1.70, 0.000000, 0.00, 0, 50, 541, 0
ATT, 0.00, 0.87, 0.00, -1.06, 0.00, 53.48, 54.67
GPS, 3, 191091400, 11, 1.74, -33.7840467, 151.0681918, 1.85, 92.41, 0.21, 77.34
CTUN, 541, 0.00, 1.82, 0.000000, 0.00, 0, 41, 541, 0
ATT, 0.00, 0.49, 0.00, -1.04, 0.00, 53.76, 54.67
CTUN, 541, 0.00, 1.98, 0.000000, 0.00, 0, 34, 541, 0
ATT, 0.00, 0.46, 0.00, -0.82, 0.00, 54.08, 54.67
GPS, 3, 191091600, 11, 1.74, -33.7840467, 151.0681922, 1.92, 92.48, 0.14, 77.34
CTUN, 541, 0.00, 1.88, 0.000000, 0.00, 0, 26, 541, 0
ATT, 0.00, 0.44, 0.00, -0.46, 0.00, 54.49, 54.67
CTUN, 541, 0.00, 2.06, 0.000000, 0.00, 0, 18, 541, 0
ATT, 0.00, 0.38, 0.00, -0.29, 0.00, 54.97, 54.67
GPS, 3, 191091800, 11, 1.74, -33.7840466, 151.0681926, 1.96, 92.59, 0.16, 77.34
CTUN, 541, 0.00, 1.96, 0.000000, 0.00, 0, 11, 541, 0
ATT, 0.00, 0.60, 0.11, -0.15, 0.00, 55.44, 54.67
CTUN, 541, 0.00, 2.07, 0.000000, 0.00, 0, 3, 541, 0
ATT, 0.00, 0.73, 0.11, 0.07, 0.00, 55.85, 54.67
GPS, 3, 191092000, 12, 1.69, -33.7840467, 151.0681931, 1.98, 92.59, 0.15, 77.34
CTUN, 541, 0.00, 1.93, 0.000000, 0.00, 0, -4, 541, 0
ATT, 0.00, 0.56, 0.00, 0.32, 0.00, 56.11, 54.67
DU32, 7, 8569
CURR, 543, 87598, 1182, 1199, 4752, 57.59887
CTUN, 543, 0.00, 1.91, 0.000000, 0.00, 0, -11, 543, 0
ATT, 0.00, 0.64, 0.23, 0.12, 0.00, 56.14, 54.67
GPS, 3, 191092200, 11, 1.84, -33.7840467, 151.0681936, 1.95, 92.64, 0.21, 77.34
CTUN, 562, 0.00, 2.01, 0.000000, 0.00, 0, -17, 562, 0
ATT, -1.74, 0.43, 0.35, 0.11, 0.00, 56.01, 54.67
CTUN, 569, 0.00, 1.89, 0.000000, 0.00, 0, -21, 569, 0
ATT, -2.32, -0.59, 0.82, 0.34, 0.00, 55.77, 54.67
GPS, 3, 191092400, 11, 1.84, -33.7840469, 151.0681943, 1.91, 92.65, 0.23, 77.34
CTUN, 569, 0.00, 1.96, 0.000000, 0.00, 0, -24, 569, 0
ATT, -2.32, -1.26, 0.82, 1.06, 0.00, 55.46, 54.67
CTUN, 571, 0.00, 1.83, 0.000000, 0.00, 0, -24, 571, 0
ATT, -1.86, -1.57, 0.82, 1.45, 0.00, 55.09, 54.67
GPS, 3, 191092600, 11, 1.84, -33.7840471, 151.0681948, 1.86, 92.60, 0.19, 77.34
CTUN, 576, 0.00, 1.82, 0.000000, 0.00, 0, -26, 576, 0
ATT, -1.86, -1.59, 0.82, 1.49, 0.00, 54.77, 54.67
CTUN, 577, 0.00, 1.85, 0.000000, 0.00, 0, -25, 577, 0
ATT, -1.86, -1.58, 0.93, 1.58, 0.00, 54.54, 54.67
GPS, 3, 191092800, 11, 1.84, -33.7840472, 151.0681952, 1.80, 92.60, 0.13, 77.34
CTUN, 577, 0.00, 1.89, 0.000000, 0.00, 0, -27, 577, 0
ATT, -1.62, -1.57, 0.93, 1.51, 0.00, 54.44, 54.67
CTUN, 577, 0.00, 1.72, 0.000000, 0.00, 0, -27, 577, 0
ATT, -1.62, -1.48, 0.93, 1.52, 0.00, 54.47, 54.67
GPS, 3, 191093000, 11, 1.84, -33.7840475, 151.0681954, 1.75, 92.54, 0.15, 77.34
CTUN, 575, 0.00, 1.88, 0.000000, 0.00, 0, -28, 575, 0
ATT, -1.97, -1.35, 0.93, 1.55, 0.00, 54.61, 54.67
DU32, 7, 8569
CURR, 581, 93279, 1178, 1326, 4752, 61.18698
CTUN, 581, 0.00, 1.77, 0.000000, 0.00, 0, -28, 581, 0
ATT, -2.20, -1.38, 0.93, 1.35, 0.00, 54.79, 54.67
GPS, 3, 191093200, 12, 1.69, -33.7840476, 151.0681956, 1.70, 92.54, 0.10, 77.34
CTUN, 582, 0.00, 1.67, 0.000000, 0.00, 0, -29, 582, 0
ATT, -2.20, -1.53, 0.82, 1.10, 0.00, 54.96, 54.67
CTUN, 583, 0.00, 1.65, 0.000000, 0.00, 0, -29, 583, 0
ATT, -1.97, -1.62, 0.82, 0.79, 0.00, 55.13, 54.67
GPS, 3, 191093400, 12, 1.69, -33.7840479, 151.0681957, 1.64, 92.48, 0.14, 77.34
CTUN, 582, 0.00, 1.70, 0.000000, 0.00, 0, -29, 582, 0
ATT, -2.20, -1.72, 0.93, 0.57, 0.00, 55.21, 54.67
CTUN, 584, 0.00, 1.70, 0.000000, 0.00, 0, -29, 584, 0
ATT, -3.48, -1.68, 0.93, 0.38, 0.00, 55.18, 54.67
GPS, 3, 191093600, 12, 1.69, -33.7840481, 151.0681959, 1.59, 92.45, 0.07, 77.34
CTUN, 582, 0.00, 1.87, 0.000000, 0.00, 0, -29, 582, 0
ATT, -4.06, -2.40, 1.28, 0.28, 0.00, 55.03, 54.67
CTUN, 584, 0.00, 1.61, 0.000000, 0.00, 0, -30, 584, 0
ATT, -4.06, -3.41, 1.17, 0.67, 0.00, 54.79, 54.67
GPS, 3, 191093800, 11, 1.74, -33.7840483, 151.0681959, 1.56, 92.39, 0.09, 77.34
CTUN, 582, 0.00, 1.56, 0.000000, 0.00, 0, -30, 582, 0
ATT, -4.06, -3.80, 1.17, 1.09, 0.00, 54.31, 54.67
CTUN, 582, 0.00, 1.57, 0.000000, 0.00, 0, -33, 582, 0
ATT, -4.06, -4.18, 1.40, 1.36, 0.00, 53.69, 54.67
GPS, 3, 191094000, 11, 1.74, -33.7840485, 151.0681959, 1.49, 92.31, 0.08, 77.34
CTUN, 582, 0.00, 1.51, 0.000000, 0.00, 0, -32, 582, 0
ATT, -4.06, -4.37, 1.05, 1.77, 0.00, 52.95, 54.67
DU32, 7, 8569
CURR, 584, 99100, 1168, 1347, 4712, 64.91045
CTUN, 584, 0.00, 1.51, 0.000000, 0.00, 0, -31, 584, 0
ATT, -4.06, -4.59, 1.05, 1.63, 0.00, 52.13, 54.67
GPS, 3, 191094200, 11, 1.74, -33.7840485, 151.0681956, 1.43, 92.32, 0.16, 77.34
CTUN, 589, 0.00, 1.52, 0.000000, 0.00, 0, -29, 589, 0
ATT, -4.06, -4.77, 1.17, 1.56, 0.00, 51.42, 54.67
CTUN, 590, 0.00, 1.48, 0.000000, 0.00, 0, -26, 590, 0
ATT, -4.06, -4.40, 1.17, 1.66, 0.00, 50.97, 54.67
GPS, 3, 191094400, 11, 1.74, -33.7840483, 151.0681951, 1.39, 92.23, 0.30, 340.89
CTUN, 591, 0.00, 1.37, 0.000000, 0.00, 0, -23, 591, 0
ATT, -4.06, -3.30, 0.93, 2.06, 0.00, 50.75, 54.67
CTUN, 591, 0.00, 1.41, 0.000000, 0.00, 0, -21, 591, 0
ATT, -4.06, -2.50, 0.82, 2.71, 0.00, 50.90, 54.67
GPS, 3, 191094600, 11, 1.74, -33.7840481, 151.0681944, 1.34, 92.22, 0.36, 312.85
CTUN, 591, 0.00, 1.48, 0.000000, 0.00, 0, -21, 591, 0
ATT, -3.13, -1.71, 0.82, 2.33, 0.00, 51.34, 54.67
CTUN, 591, 0.00, 1.38, 0.000000, 0.00, 0, -19, 591, 0
ATT, -2.90, -1.83, 0.23, 1.43, 0.00, 51.98, 54.67
GPS, 3, 191094800, 11, 1.74, -33.7840480, 151.0681934, 1.32, 92.12, 0.50, 290.84
CTUN, 592, 0.00, 1.51, 0.000000, 0.00, 0, -18, 592, 0
ATT, -2.90, -1.79, 0.23, 0.40, 0.00, 52.62, 54.67
CTUN, 591, 0.00, 1.47, 0.000000, 0.00, 0, -19, 591, 0
ATT, -2.90, -2.45, 0.35, 0.18, 0.00, 53.13, 54.67
GPS, 3, 191095000, 11, 1.74, -33.7840478, 151.0681922, 1.30, 92.08, 0.54, 285.15
CTUN, 599, 0.00, 1.31, 0.000000, 0.00, 0, -18, 599, 0
ATT, -2.67, -2.94, 0.00, 0.61, 0.00, 53.52, 54.67
DU32, 7, 8569
CURR, 600, 105006, 1167, 1383, 4712, 68.74435
CTUN, 600, 0.00, 1.38, 0.000000, 0.00, 0, -16, 600, 0
ATT, -2.90, -2.92, 0.11, 0.49, 0.00, 53.85, 54.67
GPS, 3, 191095200, 11, 1.74, -33.7840476, 151.0681909, 1.27, 92.05, 0.58, 282.84
CTUN, 605, 0.00, 1.28, 0.000000, 0.00, 0, -13, 605, 0
ATT, -2.55, -2.78, 0.11, 0.65, 0.00, 54.01, 54.67
CTUN, 607, 0.00, 1.27, 0.000000, 0.00, 0, -10, 607, 0
ATT, -2.32, -2.52, 0.00, -0.08, 0.00, 53.94, 54.67
GPS, 3, 191095400, 11, 1.74, -33.7840474, 151.0681898, 1.25, 92.03, 0.52, 280.68
CTUN, 607, 0.00, 1.06, 0.000000, 0.00, 0, -3, 607, 0
ATT, -2.32, -2.32, 0.00, -0.32, 0.00, 53.70, 54.67
CTUN, 605, 0.00, 1.22, 0.000000, 0.00, 0, 1, 605, 0
ATT, -2.09, -2.10, 0.00, -0.03, 0.00, 53.37, 54.67
GPS, 3, 191095600, 10, 1.97, -33.7840473, 151.0681887, 1.24, 91.99, 0.56, 279.96
CTUN, 607, 0.00, 1.15, 0.000000, 0.00, 0, 4, 607, 0
ATT, 0.00, -1.59, 0.00, 0.60, 0.00, 53.03, 54.67
CTUN, 607, 0.00, 1.39, 0.000000, 0.00, 0, 8, 607, 0
ATT, 0.00, -0.72, 0.00, 0.48, 0.00, 52.95, 54.67
GPS, 3, 191095800, 10, 1.97, -33.7840470, 151.0681874, 1.26, 92.01, 0.61, 280.12
CTUN, 607, 0.00, 1.31, 0.000000, 0.00, 0, 12, 607, 0
ATT, 0.00, -0.51, 0.00, 0.80, 0.00, 53.26, 54.67
CTUN, 606, 0.00, 1.23, 0.000000, 0.00, 0, 18, 606, 0
ATT, 0.00, -0.50, 0.00, 0.97, 0.00, 53.84, 54.67
GPS, 3, 191096000, 10, 1.97, -33.7840470, 151.0681861, 1.30, 92.04, 0.64, 278.08
CTUN, 606, 0.00, 1.31, 0.000000, 0.00, 0, 23, 606, 0
ATT, 0.00, -0.64, 0.00, 1.35, 0.00, 54.47, 54.67
DU32, 7, 8569
CURR, 605, 111065, 1167, 1442, 4772, 72.74648
CTUN, 606, 0.00, 1.52, 0.000000, 0.00, 0, 27, 606, 0
ATT, -1.62, -0.48, 0.00, 0.95, 0.00, 55.04, 54.67
GPS, 3, 191096200, 11, 1.74, -33.7840470, 151.0681848, 1.37, 92.07, 0.64, 273.56
CTUN, 607, 0.00, 1.21, 0.000000, 0.00, 0, 32, 607, 0
ATT, -2.32, -0.91, 0.00, 0.58, 0.00, 55.52, 54.67
CTUN, 607, 0.00, 1.29, 0.000000, 0.00, 0, 35, 607, 0
ATT, -3.37, -1.51, 0.00, 0.20, 0.00, 55.79, 54.67
GPS, 3, 191096400, 11, 1.74, -33.7840472, 151.0681836, 1.42, 92.07, 0.60, 267.76
CTUN, 605, 0.00, 1.33, 0.000000, 0.00, 0, 39, 605, 0
ATT, -4.65, -2.19, 0.00, 0.17, 0.00, 55.93, 54.67
CTUN, 605, 0.00, 1.45, 0.000000, 0.00, 0, 43, 605, 0
ATT, -4.41, -3.11, 0.00, -0.03, 0.00, 56.00, 54.67
GPS, 3, 191096600, 11, 1.74, -33.7840474, 151.0681822, 1.50, 92.17, 0.70, 265.15
CTUN, 607, 0.00, 1.44, 0.000000, 0.00, 0, 47, 607, 0
ATT, -4.18, -3.54, 0.00, -0.12, 0.00, 55.97, 54.67
CTUN, 582, 0.00, 1.57, 0.000000, 0.00, 0, 50, 582, 0
ATT, -3.83, -4.00, 0.00, -0.34, 0.00, 55.98, 54.67
GPS, 3, 191096800, 11, 1.74, -33.7840474, 151.0681808, 1.60, 92.20, 0.66, 265.78
CTUN, 582, 0.00, 1.45, 0.000000, 0.00, 0, 50, 582, 0
ATT, -3.37, -3.78, 0.00, -0.27, 0.00, 55.99, 54.67
CTUN, 576, 0.00, 1.52, 0.000000, 0.00, 0, 49, 576, 0
ATT, -2.90, -3.94, 0.00, -0.46, 0.00, 56.13, 54.67
GPS, 3, 191097000, 12, 1.69, -33.7840472, 151.0681792, 1.68, 92.32, 0.76, 271.82
CTUN, 576, 0.00, 1.64, 0.000000, 0.00, 0, 46, 576, 0
ATT, -1.74, -3.63, 0.00, -0.56, 0.00, 56.32, 54.67
DU32, 7, 8569
CURR, 574, 117023, 1172, 1322, 4752, 76.62523
CTUN, 574, 0.00, 1.75, 0.000000, 0.00, 0, 44, 574, 0
ATT, -1.74, -3.13, 0.00, -0.36, 0.00, 56.55, 54.67
GPS, 3, 191097200, 12, 1.69, -33.7840470, 151.0681780, 1.77, 92.26, 0.66, 274.81
CTUN, 574, 0.00, 1.73, 0.000000, 0.00, 0, 41, 574, 0
ATT, -0.46, -2.65, 0.00, -0.05, 0.00, 56.76, 54.67
CTUN, 575, 0.00, 1.90, 0.000000, 0.00, 0, 38, 575, 0
ATT, 0.00, -1.31, 0.00, -0.04, 0.00, 56.85, 54.67
GPS, 3, 191097400, 12, 1.69, -33.7840465, 151.0681766, 1.85, 92.34, 0.71, 281.15
CTUN, 574, 0.00, 1.80, 0.000000, 0.00, 0, 35, 574, 0
ATT, 0.00, -0.39, 0.00, -0.11, 0.00, 56.80, 54.67
CTUN, 574, 0.00, 1.75, 0.000000, 0.00, 0, 32, 574, 0
ATT, 0.00, 0.02, -0.84, -0.31, 0.00, 56.61, 54.67
GPS, 3, 191097600, 12, 1.69, -33.7840462, 151.0681754, 1.90, 92.33, 0.64, 281.94
CTUN, 575, 0.00, 1.83, 0.000000, 0.00, 0, 29, 575, 0
ATT, 0.00, 0.16, -2.18, -0.57, 0.00, 56.33, 54.67
CTUN, 575, 0.00, 1.77, 0.000000, 0.00, 0, 26, 575, 0
ATT, 0.00, 0.31, -1.94, -1.74, 0.00, 56.07, 54.67
GPS, 3, 191097800, 12, 1.69, -33.7840459, 151.0681741, 1.94, 92.36, 0.65, 281.35
CTUN, 575, 0.00, 1.82, 0.000000, 0.00, 0, 23, 575, 0
ATT, 0.00, 0.38, -2.06, -1.76, 0.00, 55.92, 54.67
CTUN, 575, 0.00, 1.97, 0.000000, 0.00, 0, 19, 575, 0
ATT, 0.00, 0.29, -2.66, -1.65, 0.00, 55.99, 54.67
GPS, 3, 191098000, 12, 1.69, -33.7840457, 151.0681728, 1.98, 92.35, 0.66, 280.54
CTUN, 575, 0.00, 1.85, 0.000000, 0.00, 0, 16, 575, 0
ATT, 0.00, 0.14, -2.78, -1.97, 0.00, 56.22, 54.67
DU32, 7, 8569
CURR, 575, 122770, 1173, 1326, 4752, 80.28967
CTUN, 575, 0.00, 2.04, 0.000000, 0.00, 0, 14, 575, 0
ATT, 0.00, -0.03, -2.54, -2.02, 0.00, 56.65, 54.67
GPS, 3, 191098200, 12, 1.69, -33.7840455, 151.0681717, 2.00, 92.33, 0.55, 279.70
CTUN, 575, 0.00, 2.18, 0.000000, 0.00, 0, 12, 575, 0
ATT, 0.00, -0.15, -1.81, -1.77, 0.00, 57.14, 54.67
CTUN, 574, 0.00, 1.97, 0.000000, 0.00, 0, 9, 574, 0
ATT, 0.00, -0.30, -1.94, -1.35, 0.00, 57.60, 54.67
GPS, 3, 191098400, 12, 1.69, -33.7840454, 151.0681707, 2.03, 92.34, 0.52, 279.07
CTUN, 575, 0.00, 2.05, 0.000000, 0.00, 0, 6, 575, 0
ATT, 0.00, -0.30, -1.45, -1.47, 0.00, 57.97, 54.67
CTUN, 575, 0.00, 2.02, 0.000000, 0.00, 0, 5, 575, 0
ATT, 0.00, -0.52, -1.81, -1.57, 0.00, 58.27, 54.67
GPS, 3, 191098600, 12, 1.69, -33.7840454, 151.0681700, 2.04, 92.30, 0.40, 279.15
CTUN, 575, 0.00, 2.07, 0.000000, 0.00, 0, 1, 575, 0
ATT, 0.00, -0.71, -1.57, -1.62, 0.00, 58.44, 54.67
CTUN, 577, 0.00, 2.05, 0.000000, 0.00, 0, 0, 577, 0
ATT, 0.00, -1.12, -1.69, -1.60, 0.00, 58.53, 54.67
GPS, 3, 191098800, 12, 1.69, -33.7840455, 151.0681697, 2.04, 92.20, 0.26, 278.88
CTUN, 583, 0.00, 1.94, 0.000000, 0.00, 0, -1, 583, 0
ATT, 0.00, -0.67, -2.06, -1.66, 0.00, 58.47, 54.67
CTUN, 588, 0.00, 1.96, 0.000000, 0.00, 0, -2, 588, 0
ATT, 0.00, -0.56, -2.54, -1.98, 0.00, 58.24, 54.67
GPS, 3, 191099000, 12, 1.69, -33.7840453, 151.0681691, 2.02, 92.16, 0.32, 283.79
CTUN, 589, 0.00, 1.91, 0.000000, 0.00, 0, 0, 589, 0
ATT, 0.00, -0.10, -2.66, -2.36, 0.00, 57.83, 54.67
DU32, 7, 8569
CURR, 589, 128553, 1169, 1371, 4732, 83.96058
CTUN, 589, 0.00, 2.01, 0.000000, 0.00, 0, 0, 589, 0
ATT, 0.00, 0.13, -2.06, -2.57, 0.00, 57.37, 54.67
GPS, 3, 191099200, 11, 1.74, -33.7840451, 151.0681685, 2.02, 92.16, 0.33, 285.46
CTUN, 589, 0.00, 2.00, 0.000000, 0.00, 0, 1, 589, 0
ATT, 0.00, 0.11, -2.06, -2.19, 0.00, 56.98, 54.67
CTUN, 589, 0.00, 1.96, 0.000000, 0.00, 0, 3, 589, 0
ATT, 0.00, 0.42, -2.18, -2.02, 0.00, 56.71, 54.67
GPS, 3, 191099400, 11, 1.74, -33.7840451, 151.0681682, 2.02, 92.19, 0.15, 285.46
CTUN, 588, 0.00, 2.00, 0.000000, 0.00, 0, 5, 588, 0
ATT, 0.00, 0.31, -1.81, -1.67, 0.00, 56.56, 54.67
CTUN, 588, 0.00, 1.92, 0.000000, 0.00, 0, 7, 590, 0
ATT, 0.00, 0.49, -2.06, -1.45, 0.00, 56.44, 54.67
GPS, 3, 191099600, 11, 1.74, -33.7840451, 151.0681680, 2.03, 92.19, 0.07, 285.46
CTUN, 591, 0.00, 2.04, 0.000000, 0.00, 0, 9, 590, 0
ATT, 0.00, 0.37, -1.57, -1.35, 0.00, 56.30, 54.67
CTUN, 588, 0.00, 1.87, 0.000000, 0.00, 0, 10, 588, 0
ATT, 0.00, 0.08, -1.57, -1.14, 0.00, 56.14, 54.67
GPS, 3, 191099800, 11, 1.74, -33.7840452, 151.0681681, 2.04, 92.16, 0.02, 285.46
CTUN, 589, 0.00, 1.91, 0.000000, 0.00, 0, 10, 589, 0
ATT, 0.00, -0.34, -1.81, -1.01, 0.00, 56.05, 54.67
CTUN, 589, 0.00, 1.90, 0.000000, 0.00, 0, 11, 589, 0
ATT, 0.00, -0.62, -1.81, -1.18, 0.00, 56.01, 54.67
CTUN, 588, 0.00, 1.89, 0.000000, 0.00, 0, 13, 588, 0
GPS, 3, 191100000, 12, 1.69, -33.7840453, 151.0681681, 2.05, 92.14, 0.02, 285.46
ATT, 0.00, -0.67, -1.81, -1.10, 0.00, 56.03, 54.67
DU32, 7, 8569
CURR, 588, 134448, 1166, 1368, 4693, 87.74837
CTUN, 589, 0.00, 1.99, 0.000000, 0.00, 0, 14, 589, 0
ATT, 0.00, -0.39, -1.81, -1.22, 0.00, 56.09, 54.67
GPS, 3, 191100200, 12, 1.69, -33.7840454, 151.0681684, 2.06, 92.10, 0.11, 285.46
CTUN, 589, 0.00, 1.91, 0.000000, 0.00, 0, 14, 589, 0
ATT, 0.00, -0.10, -2.42, -1.75, 0.00, 56.20, 54.67
CTUN, 589, 0.00, 1.99, 0.000000, 0.00, 0, 14, 589, 0
ATT, 0.00, 0.04, -2.66, -2.65, 0.00, 56.42, 54.67
GPS, 3, 191100400, 12, 1.69, -33.7840454, 151.0681687, 2.08, 92.10, 0.07, 285.46
CTUN, 589, 0.00, 2.04, 0.000000, 0.00, 0, 15, 589, 0
ATT, 0.00, -0.05, -2.18, -3.37, 0.00, 56.76, 54.67
CTUN, 589, 0.00, 1.90, 0.000000, 0.00, 0, 15, 589, 0
ATT, 0.00, -0.48, -2.06, -3.40, 0.00, 57.19, 54.67
GPS, 3, 191100600, 11, 1.74, -33.7840454, 151.0681691, 2.09, 92.10, 0.15, 285.46
CTUN, 589, 0.00, 1.90, 0.000000, 0.00, 0, 16, 589, 0
ATT, 0.00, -0.84, -0.97, -3.11, 0.00, 57.64, 54.67
CTUN, 591, 0.00, 1.96, 0.000000, 0.00, 0, 16, 591, 0
ATT, 0.00, -1.11, 0.00, -2.27, 0.00, 58.07, 54.67
GPS, 3, 191100800, 11, 1.74, -33.7840454, 151.0681698, 2.11, 92.13, 0.29, 340.43
CTUN, 592, 0.00, 1.90, 0.000000, 0.00, 0, 17, 588, 0
ATT, 0.00, -1.32, 0.00, -1.22, 0.00, 58.35, 54.67
CTUN, 592, 0.00, 2.04, 0.000000, 0.00, 0, 17, 592, 0
ATT, 0.00, -1.36, 0.00, -0.74, 0.00, 58.51, 54.67
GPS, 3, 191101000, 11, 1.74, -33.7840454, 151.0681707, 2.13, 92.11, 0.36, 46.13
CTUN, 589, 0.00, 1.95, 0.000000, 0.00, 0, 18, 589, 0
ATT, 0.00, -1.56, 0.00, -0.34, 0.00, 58.47, 54.67
DU32, 7, 8569
CURR, 589, 140347, 1166, 1377, 4752, 91.54532
PM, 0, 0, 50, 0, 1000, 10288, 10, 4
CTUN, 591, 0.00, 1.84, 0.000000, 0.00, 0, 19, 591, 0
ATT, 0.00, -1.47, 0.00, -0.14, 0.00, 58.29, 54.67
GPS, 3, 191101200, 12, 1.69, -33.7840453, 151.0681714, 2.14, 92.11, 0.34, 59.16
CTUN, 589, 0.00, 1.88, 0.000000, 0.00, 0, 19, 589, 0
ATT, 0.00, -1.30, 0.00, 0.28, 0.00, 58.06, 54.67
CTUN, 588, 0.00, 1.99, 0.000000, 0.00, 0, 18, 588, 0
ATT, 0.00, -1.15, 0.00, 0.56, 0.00, 57.90, 54.67
GPS, 3, 191101400, 12, 1.69, -33.7840450, 151.0681723, 2.15, 92.08, 0.41, 59.60
CTUN, 589, 0.00, 2.09, 0.000000, 0.00, 0, 19, 589, 0
ATT, 0.00, -0.77, 0.00, 0.63, 0.00, 57.81, 54.67
CTUN, 589, 0.00, 1.98, 0.000000, 0.00, 0, 19, 589, 0
ATT, 0.00, -0.44, 0.00, 0.53, 0.00, 57.69, 54.67
GPS, 3, 191101600, 12, 1.69, -33.7840449, 151.0681731, 2.17, 92.05, 0.35, 62.16
CTUN, 589, 0.00, 2.07, 0.000000, 0.00, 0, 19, 589, 0
ATT, 0.00, -0.33, 0.00, 0.05, 0.00, 57.48, 54.67
CTUN, 589, 0.00, 2.02, 0.000000, 0.00, 0, 18, 589, 0
ATT, 0.00, -0.13, 0.00, -0.09, 0.00, 57.21, 54.67
GPS, 3, 191101800, 12, 1.69, -33.7840445, 151.0681740, 2.19, 92.06, 0.44, 59.08
CTUN, 591, 0.00, 1.94, 0.000000, 0.00, 0, 17, 589, 0
ATT, 0.00, -0.21, 0.00, -0.32, 0.00, 56.88, 54.67
CTUN, 589, 0.00, 2.01, 0.000000, 0.00, 0, 17, 589, 0
ATT, 0.00, -0.28, 0.00, -0.12, 0.00, 56.50, 54.67
GPS, 3, 191102000, 11, 1.74, -33.7840443, 151.0681747, 2.20, 92.08, 0.33, 60.43
CTUN, 589, 0.00, 2.07, 0.000000, 0.00, 0, 16, 589, 0
ATT, 0.00, -0.28, 0.00, 0.19, 0.00, 56.20, 54.67
DU32, 7, 8569
CURR, 589, 146235, 1167, 1363, 4732, 95.33443
CTUN, 589, 0.00, 2.10, 0.000000, 0.00, 0, 17, 589, 0
ATT, 0.00, -0.35, 0.00, 0.47, 0.00, 55.95, 54.67
GPS, 3, 191102200, 11, 1.74, -33.7840441, 151.0681757, 2.22, 92.05, 0.43, 66.25
CTUN, 589, 0.00, 2.00, 0.000000, 0.00, 0, 17, 589, 0
ATT, 0.00, -0.27, 0.00, 0.51, 0.00, 55.69, 54.67
CTUN, 589, 0.00, 2.15, 0.000000, 0.00, 0, 18, 591, 0
ATT, 0.00, -0.31, 0.00, 0.46, 0.00, 55.48, 54.67
GPS, 3, 191102400, 11, 1.74, -33.7840438, 151.0681766, 2.24, 92.07, 0.42, 63.89
CTUN, 589, 0.00, 1.97, 0.000000, 0.00, 0, 19, 589, 0
ATT, 0.00, -0.57, 0.00, 0.66, 0.00, 55.36, 54.67
CTUN, 589, 0.00, 2.04, 0.000000, 0.00, 0, 21, 589, 0
ATT, 0.00, -0.66, 0.00, 0.68, 0.00, 55.31, 54.67
GPS, 3, 191102600, 11, 1.74, -33.7840435, 151.0681774, 2.26, 92.07, 0.42, 63.66
CTUN, 589, 0.00, 2.16, 0.000000, 0.00, 0, 22, 589, 0
ATT, 0.00, -0.77, 0.00, 0.59, 0.00, 55.39, 54.67
CTUN, 589, 0.00, 2.07, 0.000000, 0.00, 0, 22, 589, 0
ATT, 0.00, -0.84, 0.00, 0.14, 0.00, 55.57, 54.67
GPS, 3, 191102800, 12, 1.69, -33.7840432, 151.0681782, 2.28, 92.10, 0.39, 62.19
CTUN, 589, 0.00, 2.05, 0.000000, 0.00, 0, 22, 591, 0
ATT, 0.00, -0.73, 0.00, -0.11, 0.00, 55.89, 54.67
CTUN, 587, 0.00, 2.16, 0.000000, 0.00, 0, 23, 587, 0
ATT, 0.00, -0.44, 0.00, -0.25, 0.00, 56.30, 54.67
GPS, 3, 191103000, 12, 1.69, -33.7840430, 151.0681790, 2.31, 92.18, 0.42, 68.22
CTUN, 582, 0.00, 2.12, 0.000000, 0.00, 0, 23, 585, 0
ATT, 0.00, -0.16, 0.00, -0.46, 0.00, 56.72, 54.67
DU32, 7, 8569
CURR, 582, 152124, 1167, 1359, 4752, 99.14231
CTUN, 582, 0.00, 2.20, 0.000000, 0.00, 0, 22, 582, 0
ATT, 0.00, 0.06, 0.00, -0.53, 0.00, 57.19, 54.67
GPS, 3, 191103200, 11, 1.74, -33.7840426, 151.0681798, 2.33, 92.23, 0.41, 64.28
CTUN, 582, 0.00, 2.16, 0.000000, 0.00, 0, 21, 583, 0
ATT, 0.00, 0.08, 0.00, -0.43, 0.00, 57.63, 54.67
CTUN, 581, 0.00, 2.12, 0.000000, 0.00, 0, 21, 581, 0
ATT, 0.00, 0.17, 0.00, -0.10, 0.00, 58.04, 54.67
GPS, 3, 191103400, 11, 1.74, -33.7840420, 151.0681805, 2.35, 92.28, 0.45, 56.55
CTUN, 584, 0.00, 2.19, 0.000000, 0.00, 0, 20, 582, 0
ATT, 0.00, 0.05, 0.00, 0.03, 0.00, 58.39, 54.67
CTUN, 582, 0.00, 2.17, 0.000000, 0.00, 0, 20, 582, 0
ATT, 0.00, 0.01, 0.00, -0.07, 0.00, 58.58, 54.67
GPS, 3, 191103600, 11, 1.74, -33.7840417, 151.0681814, 2.37, 92.34, 0.46, 61.23
CTUN, 581, 0.00, 2.22, 0.000000, 0.00, 0, 20, 581, 0
ATT, 0.00, -0.19, 0.00, -0.33, 0.00, 58.60, 54.67
CTUN, 582, 0.00, 2.22, 0.000000, 0.00, 0, 19, 582, 0
ATT, 0.00, -0.28, 0.00, -0.55, 0.00, 58.47, 54.67
GPS, 3, 191103800, 12, 1.69, -33.7840413, 151.0681825, 2.39, 92.38, 0.51, 60.93
CTUN, 577, 0.00, 2.22, 0.000000, 0.00, 0, 20, 577, 0
ATT, 0.00, -0.50, 0.00, -0.71, 0.00, 58.25, 54.67
CTUN, 569, 0.00, 2.16, 0.000000, 0.00, 0, 19, 569, 0
