dump 1

ArduCopter V3.1-rc4.1
Free RAM: 1215
APM 2
FMT, 128, 89, FMT, BBnNZ, Type,Length,Name,Format
FMT, 129, 23, PARM, Nf, Name,Value
FMT, 130, 35, GPS, BIBcLLeeEe, Status,Time,NSats,HDop,Lat,Lng,RelAlt,Alt,Spd,GCrs
FMT, 131, 27, IMU, ffffff, GyrX,GyrY,GyrZ,AccX,AccY,AccZ
FMT, 132, 67, MSG, Z, Message
FMT, 9, 19, CURR, hIhhhf, Thr,ThrInt,Volt,Curr,Vcc,CurrTot
FMT, 11, 11, MOT, hhhh, Mot1,Mot2,Mot3,Mot4
FMT, 12, 28, OF, hhBccffee, Dx,Dy,SQual,X,Y,Lat,Lng,Roll,Pitch
FMT, 5, 49, NTUN, Ecffffffffee, WPDst,WPBrg,PErX,PErY,DVelX,DVelY,VelX,VelY,DAcX,DAcY,DRol,DPit
FMT, 4, 25, CTUN, hcefchhhh, ThrIn,SonAlt,BarAlt,WPAlt,DesSonAlt,AngBst,CRate,ThrOut,DCRate
FMT, 15, 21, MAG, hhhhhhhhh, MagX,MagY,MagZ,OfsX,OfsY,OfsZ,MOfsX,MOfsY,MOfsZ
FMT, 6, 17, PM, BBBHHIhB, RenCnt,RenBlw,FixCnt,NLon,NLoop,MaxT,PMT,I2CErr
FMT, 8, 20, CMD, BBBBBeLL, CTot,CNum,CId,COpt,Prm1,Alt,Lat,Lng
FMT, 1, 17, ATT, cccccCC, RollIn,Roll,PitchIn,Pitch,YawIn,Yaw,NavYaw
FMT, 17, 37, INAV, cccfffiiff, BAlt,IAlt,IClb,ACorrX,ACorrY,ACorrZ,GLat,GLng,ILat,ILng
FMT, 3, 6, MODE, Mh, Mode,ThrCrs
FMT, 10, 3, STRT, , 
FMT, 13, 4, EV, B, Id
FMT, 20, 6, D16, Bh, Id,Value
FMT, 21, 6, DU16, BH, Id,Value
FMT, 22, 8, D32, Bi, Id,Value
FMT, 23, 8, DU32, BI, Id,Value
FMT, 24, 8, DFLT, Bf, Id,Value
FMT, 14, 28, PID, Biiiiif, Id,Error,P,I,D,Out,Gain
FMT, 18, 25, CAM, ILLeccC, GPSTime,Lat,Lng,Alt,Roll,Pitch,Yaw
FMT, 19, 5, ERR, BB, Subsys,ECode
D32, 9, 5902
CMD, 1, 0, 16, 0, 0, 0.00, -33.7841090, 151.0681877
EV, 10
GPS, 3, 175024800, 7, 2.41, -33.7841089, 151.0681878, 0.97, 95.60, 0.02, 186.77
CTUN, 0, 0.00, 0.04, 0.000000, 0.00, 0, 0, 0, 0
ATT, 0.00, -0.90, 0.00, 2.23, 0.00, 59.00, 59.00
DU32, 7, 8793
CURR, 0, 0, 1222, 1, 4793, 0.038623
GPS, 3, 175032000, 7, 2.41, -33.7841063, 151.0681890, 0.95, 95.28, 0.00, 186.77
CTUN, 0, 0.00, 0.08, 0.000000, 0.00, 0, 0, 0, 0
ATT, 0.00, -0.85, 0.00, 2.29, 0.00, 59.04, 59.04
CTUN, 0, 0.00, -0.07, 0.000000, 0.00, 0, -1, 0, 0
ATT, 0.00, -0.86, 0.00, 2.36, 0.00, 59.04, 59.04
GPS, 3, 175032200, 7, 2.41, -33.7841063, 151.0681890, 0.83, 95.28, 0.02, 186.77
CTUN, 0, 0.00, -0.03, 0.000000, 0.00, 0, -2, 0, 0
ATT, 0.00, -0.85, 0.00, 2.43, 0.00, 59.06, 59.06
CTUN, 0, 0.00, -0.09, 0.000000, 0.00, 0, -3, 0, 0
ATT, 0.00, -0.84, 0.00, 2.51, 0.00, 59.06, 59.06
GPS, 3, 175032400, 7, 2.41, -33.7841062, 151.0681890, 0.72, 95.27, 0.01, 186.77
CTUN, 0, 0.00, -0.06, 0.000000, 0.00, 0, -4, 0, 0
ATT, 0.00, -0.82, 0.00, 2.57, 0.00, 59.08, 59.08
CTUN, 0, 0.00, -0.10, 0.000000, 0.00, 0, -5, 0, 0
ATT, 0.00, -0.81, 0.00, 2.63, 0.00, 59.10, 59.10
GPS, 3, 175032600, 7, 2.41, -33.7841062, 151.0681890, 0.62, 95.26, 0.02, 186.77
CTUN, 0, 0.00, -0.03, 0.000000, 0.00, 0, -6, 0, 0
ATT, 0.00, -0.80, 0.00, 2.71, 0.00, 59.12, 59.12
CTUN, 0, 0.00, -0.11, 0.000000, 0.00, 0, -7, 0, 0
ATT, 0.00, -0.79, 0.00, 2.78, 0.00, 59.13, 59.13
GPS, 3, 175032800, 7, 2.41, -33.7841061, 151.0681890, 0.52, 95.24, 0.01, 186.77
CTUN, 0, 0.00, -0.26, 0.000000, 0.00, 0, -8, 0, 0
ATT, 0.00, -0.78, 0.00, 2.84, 0.00, 59.15, 59.15
CTUN, 0, 0.00, -0.18, 0.000000, 0.00, 0, -9, 0, 0
ATT, 0.00, -0.77, 0.00, 2.91, 0.00, 59.17, 59.17
DU32, 7, 8793
CURR, 0, 0, 1215, 72, 4772, 0.236969
GPS, 3, 175033000, 7, 2.41, -33.7841061, 151.0681891, 0.42, 95.24, 0.01, 186.77
CTUN, 0, 0.00, -0.09, 0.000000, 0.00, 0, -10, 0, 0
ATT, 0.00, -0.76, 0.00, 2.97, 0.00, 59.18, 59.18
CTUN, 0, 0.00, -0.07, 0.000000, 0.00, 0, -10, 0, 0
ATT, 0.00, -0.74, 0.00, 3.02, 0.00, 59.21, 59.21
GPS, 3, 175033200, 7, 2.41, -33.7841060, 151.0681891, 0.34, 95.22, 0.03, 186.77
CTUN, 0, 0.00, -0.10, 0.000000, 0.00, 0, -11, 0, 0
ATT, 0.00, -0.74, 0.00, 3.09, 0.00, 59.22, 59.22
CTUN, 0, 0.00, -0.16, 0.000000, 0.00, 0, -12, 0, 0
ATT, 0.00, -0.74, 0.00, 3.14, 0.00, 59.24, 59.24
GPS, 3, 175033400, 7, 2.41, -33.7841059, 151.0681891, 0.26, 95.21, 0.02, 186.77
CTUN, 0, 0.00, -0.14, 0.000000, 0.00, 0, -12, 0, 0
ATT, 0.00, -0.72, 0.00, 3.20, 0.00, 59.26, 59.26
CTUN, 0, 0.00, -0.02, 0.000000, 0.00, 0, -13, 0, 0
ATT, 0.00, -0.69, 0.00, 3.27, 0.00, 59.29, 59.29
GPS, 3, 175033600, 7, 2.41, -33.7841058, 151.0681892, 0.19, 95.20, 0.00, 186.77
CTUN, 0, 0.00, -0.09, 0.000000, 0.00, 0, -13, 0, 0
ATT, 0.00, -0.68, 0.00, 3.33, 0.00, 59.31, 59.31
CTUN, 0, 0.00, 0.04, 0.000000, 0.00, 0, -14, 0, 0
ATT, 0.00, -0.68, 0.00, 3.39, 0.00, 59.33, 59.33
GPS, 3, 175033800, 7, 2.41, -33.7841057, 151.0681892, 0.14, 95.19, 0.00, 186.77
CTUN, 0, 0.00, -0.18, 0.000000, 0.00, 0, -14, 0, 0
ATT, 0.00, -0.67, 0.00, 3.46, 0.00, 59.37, 59.37
CTUN, 0, 0.00, -0.05, 0.000000, 0.00, 0, -14, 0, 0
ATT, 0.00, -0.66, 0.00, 3.51, 0.00, 59.39, 59.39
DU32, 7, 8793
CURR, 0, 0, 1212, 64, 4793, 0.422397
GPS, 3, 175034000, 7, 2.41, -33.7841057, 151.0681891, 0.08, 95.18, 0.01, 186.77
CTUN, 0, 0.00, -0.02, 0.000000, 0.00, 0, -15, 0, 0
ATT, 0.00, -0.65, 0.00, 3.58, 0.00, 59.42, 59.42
CTUN, 0, 0.00, 0.01, 0.000000, 0.00, 0, -15, 0, 0
ATT, 0.00, -0.63, 0.00, 3.65, 0.00, 59.46, 59.46
GPS, 3, 175034200, 7, 2.41, -33.7841056, 151.0681892, 0.04, 95.17, 0.01, 186.77
CTUN, 0, 0.00, -0.03, 0.000000, 0.00, 0, -15, 0, 0
ATT, 0.00, -0.63, 0.00, 3.70, 0.00, 59.48, 59.48
CTUN, 0, 0.00, -0.06, 0.000000, 0.00, 0, -16, 0, 0
ATT, 0.00, -0.62, 0.00, 3.75, 0.00, 59.51, 59.51
GPS, 3, 175034400, 7, 2.41, -33.7841055, 151.0681892, 0.00, 95.17, 0.01, 186.77
CTUN, 0, 0.00, -0.24, 0.000000, 0.00, 0, -16, 0, 0
ATT, 0.00, -0.60, 0.00, 3.80, 0.00, 59.55, 59.55
CTUN, 0, 0.00, -0.09, 0.000000, 0.00, 0, -16, 0, 0
ATT, 0.00, -0.59, 0.00, 3.86, 0.00, 59.58, 59.58
GPS, 3, 175034600, 7, 2.41, -33.7841054, 151.0681892, -0.04, 95.16, 0.02, 186.77
CTUN, 0, 0.00, -0.09, 0.000000, 0.00, 0, -16, 0, 0
ATT, 0.00, -0.59, 0.00, 3.92, 0.00, 59.61, 59.61
CTUN, 0, 0.00, -0.10, 0.000000, 0.00, 0, -16, 0, 0
ATT, 0.00, -0.58, 0.00, 3.97, 0.00, 59.64, 59.64
GPS, 3, 175034800, 7, 2.41, -33.7841053, 151.0681892, -0.08, 95.17, 0.01, 186.77
CTUN, 0, 0.00, -0.09, 0.000000, 0.00, 0, -17, 0, 0
ATT, 0.00, -0.57, 0.00, 4.02, 0.00, 59.69, 59.69
CTUN, 0, 0.00, -0.09, 0.000000, 0.00, 0, -17, 0, 0
ATT, 0.00, -0.55, 0.00, 4.08, 0.00, 59.72, 59.72
DU32, 7, 8793
CURR, 0, 0, 1212, 67, 4772, 0.607831
GPS, 3, 175035000, 7, 2.41, -33.7841052, 151.0681891, -0.12, 95.16, 0.02, 186.77
CTUN, 0, 0.00, -0.15, 0.000000, 0.00, 0, -17, 0, 0
ATT, 0.00, -0.55, 0.00, 4.12, 0.00, 59.76, 59.76
CTUN, 0, 0.00, -0.18, 0.000000, 0.00, 0, -17, 0, 0
ATT, 0.00, -0.55, 0.00, 4.19, 0.00, 59.80, 59.80
GPS, 3, 175035200, 7, 2.41, -33.7841053, 151.0681891, -0.15, 95.18, 0.07, 186.77
CTUN, 0, 0.00, -0.08, 0.000000, 0.00, 0, -17, 0, 0
ATT, 0.00, -0.52, 0.00, 4.26, 0.00, 59.84, 59.84
CTUN, 0, 0.00, -0.01, 0.000000, 0.00, 0, -18, 0, 0
ATT, 0.00, -0.49, 0.00, 4.31, 0.00, 59.87, 59.87
GPS, 3, 175035400, 7, 2.41, -33.7841052, 151.0681891, -0.18, 95.18, 0.03, 186.77
CTUN, 0, 0.00, -0.15, 0.000000, 0.00, 0, -17, 0, 0
ATT, 0.00, -0.49, 0.00, 4.36, 0.00, 59.91, 59.91
CTUN, 0, 0.00, -0.22, 0.000000, 0.00, 0, -17, 0, 0
ATT, 0.00, -0.49, 0.00, 4.41, 0.00, 59.95, 59.95
GPS, 3, 175035600, 7, 2.41, -33.7841051, 151.0681891, -0.21, 95.18, 0.02, 186.77
CTUN, 0, 0.00, -0.03, 0.000000, 0.00, 0, -18, 0, 0
ATT, 0.00, -0.49, 0.00, 4.44, 0.00, 59.98, 59.98
CTUN, 0, 0.00, -0.05, 0.000000, 0.00, 0, -18, 0, 0
ATT, 0.00, -0.49, 0.00, 4.48, 0.00, 60.02, 60.02
GPS, 3, 175035800, 7, 2.41, -33.7841050, 151.0681890, -0.23, 95.19, 0.00, 186.77
CTUN, 0, 0.00, -0.04, 0.000000, 0.00, 0, -18, 0, 0
ATT, 0.00, -0.48, 0.00, 4.54, 0.00, 60.06, 60.06
CTUN, 0, 0.00, -0.08, 0.000000, 0.00, 0, -18, 0, 0
ATT, 0.00, -0.47, 0.00, 4.59, 0.00, 60.10, 60.10
DU32, 7, 8793
CURR, 0, 0, 1210, 63, 4793, 0.792538
GPS, 3, 175036000, 7, 2.41, -33.7841049, 151.0681890, -0.24, 95.18, 0.01, 186.77
CTUN, 0, 0.00, -0.05, 0.000000, 0.00, 0, -18, 0, 0
ATT, 0.00, -0.46, 0.00, 4.63, 0.00, 60.14, 60.14
CTUN, 0, 0.00, 0.01, 0.000000, 0.00, 0, -18, 0, 0
ATT, 0.00, -0.45, 0.00, 4.68, 0.00, 60.18, 60.18
GPS, 3, 175036200, 7, 2.41, -33.7841049, 151.0681889, -0.26, 95.19, 0.02, 186.77
CTUN, 0, 0.00, -0.03, 0.000000, 0.00, 0, -18, 0, 0
ATT, 0.00, -0.44, 0.00, 4.74, 0.00, 60.22, 60.22
CTUN, 0, 0.00, 0.01, 0.000000, 0.00, 0, -17, 0, 0
ATT, 0.00, -0.43, 0.00, 4.79, 0.00, 60.26, 60.26
GPS, 3, 175036400, 7, 2.41, -33.7841048, 151.0681889, -0.26, 95.20, 0.02, 186.77
CTUN, 0, 0.00, -0.07, 0.000000, 0.00, 0, -17, 0, 0
ATT, 0.00, -0.42, 0.00, 4.83, 0.00, 60.31, 60.31
CTUN, 0, 0.00, -0.09, 0.000000, 0.00, 0, -17, 0, 0
ATT, 0.00, -0.42, 0.00, 4.87, 0.00, 60.35, 60.35
GPS, 3, 175036600, 7, 2.41, -33.7841047, 151.0681889, -0.27, 95.20, 0.01, 186.77
CTUN, 0, 0.00, 0.00, 0.000000, 0.00, 0, -17, 0, 0
ATT, 0.00, -0.41, 0.00, 4.92, 0.00, 60.39, 60.39
CTUN, 0, 0.00, -0.03, 0.000000, 0.00, 0, -17, 0, 0
ATT, 0.00, -0.39, 0.00, 4.97, 0.00, 60.44, 60.44
GPS, 3, 175036800, 7, 2.41, -33.7841046, 151.0681889, -0.28, 95.20, 0.01, 186.77
CTUN, 0, 0.00, -0.06, 0.000000, 0.00, 0, -17, 0, 0
ATT, 0.00, -0.38, 0.00, 5.01, 0.00, 60.49, 60.49
CTUN, 0, 0.00, 0.00, 0.000000, 0.00, 0, -17, 0, 0
ATT, 0.00, -0.37, 0.00, 5.05, 0.00, 60.53, 60.53
DU32, 7, 8793
CURR, 0, 0, 1212, 68, 4732, 0.977218
GPS, 3, 175037000, 7, 2.41, -33.7841045, 151.0681889, -0.28, 95.20, 0.01, 186.77
CTUN, 0, 0.00, -0.05, 0.000000, 0.00, 0, -17, 0, 0
ATT, 0.00, -0.36, 0.00, 5.09, 0.00, 60.57, 60.57
CTUN, 0, 0.00, -0.07, 0.000000, 0.00, 0, -17, 0, 0
ATT, 0.00, -0.35, 0.00, 5.13, 0.00, 60.62, 60.62
GPS, 3, 175037200, 7, 2.41, -33.7841043, 151.0681889, -0.29, 95.20, 0.01, 186.77
CTUN, 0, 0.00, 0.06, 0.000000, 0.00, 0, -17, 0, 0
ATT, 0.00, -0.34, 0.00, 5.18, 0.00, 60.66, 60.66
CTUN, 0, 0.00, -0.03, 0.000000, 0.00, 0, -17, 0, 0
ATT, 0.00, -0.34, 0.00, 5.22, 0.00, 60.70, 60.70
GPS, 3, 175037400, 7, 2.41, -33.7841042, 151.0681889, -0.29, 95.21, 0.01, 186.77
CTUN, 0, 0.00, -0.19, 0.000000, 0.00, 0, -16, 0, 0
ATT, 0.00, -0.33, 0.00, 5.26, 0.00, 60.75, 60.75
CTUN, 0, 0.00, -0.04, 0.000000, 0.00, 0, -16, 0, 0
ATT, 0.00, -0.32, 0.00, 5.30, 0.00, 60.79, 60.79
GPS, 3, 175037600, 7, 2.41, -33.7841041, 151.0681889, -0.30, 95.22, 0.02, 186.77
CTUN, 0, 0.00, -0.13, 0.000000, 0.00, 0, -16, 0, 0
ATT, 0.00, -0.30, 0.00, 5.34, 0.00, 60.83, 60.83
CTUN, 0, 0.00, 0.01, 0.000000, 0.00, 0, -16, 0, 0
ATT, 0.00, -0.28, 0.00, 5.37, 0.00, 60.88, 60.88
GPS, 3, 175037800, 7, 2.41, -33.7841040, 151.0681890, -0.30, 95.23, 0.01, 186.77
CTUN, 0, 0.00, -0.09, 0.000000, 0.00, 0, -16, 0, 0
ATT, 0.00, -0.28, 0.00, 5.42, 0.00, 60.93, 60.93
CTUN, 0, 0.00, -0.18, 0.000000, 0.00, 0, -16, 0, 0
ATT, 0.00, -0.28, 0.00, 5.45, 0.00, 60.96, 60.96
DU32, 7, 8793
CURR, 0, 0, 1208, 64, 4752, 1.159285
GPS, 3, 175038000, 7, 2.41, -33.7841039, 151.0681890, -0.31, 95.23, 0.00, 186.77
CTUN, 0, 0.00, -0.12, 0.000000, 0.00, 0, -16, 0, 0
ATT, 0.00, -0.27, 0.00, 5.48, 0.00, 61.02, 61.02
CTUN, 0, 0.00, -0.13, 0.000000, 0.00, 0, -16, 0, 0
PM, 0, 0, 50, 5, 1001, 7327840, 17, 4
ATT, 0.00, -0.26, 0.00, 5.53, 0.00, 61.07, 61.07
GPS, 3, 175038200, 7, 2.41, -33.7841038, 151.0681890, -0.32, 95.24, 0.01, 186.77
CTUN, 0, 0.00, -0.09, 0.000000, 0.00, 0, -16, 0, 0
ATT, 0.00, -0.25, 0.00, 5.56, 0.00, 61.11, 61.11
CTUN, 0, 0.00, -0.15, 0.000000, 0.00, 0, -16, 0, 0
ATT, 0.00, -0.25, 0.00, 5.59, 0.00, 61.16, 61.16
GPS, 3, 175038400, 7, 2.41, -33.7841037, 151.0681890, -0.33, 95.24, 0.01, 186.77
CTUN, 0, 0.00, -0.14, 0.000000, 0.00, 0, -16, 0, 0
ATT, 0.00, -0.23, 0.00, 5.64, 0.00, 61.21, 61.21
CTUN, 0, 0.00, -0.21, 0.000000, 0.00, 0, -16, 0, 0
ATT, 0.00, -0.22, 0.00, 5.67, 0.00, 61.25, 61.25
GPS, 3, 175038600, 7, 2.41, -33.7841036, 151.0681890, -0.34, 95.25, 0.01, 186.77
CTUN, 0, 0.00, -0.24, 0.000000, 0.00, 0, -16, 0, 0
ATT, 0.00, -0.22, 0.00, 5.70, 0.00, 61.30, 61.30
CTUN, 0, 0.00, -0.27, 0.000000, 0.00, 0, -17, 0, 0
ATT, 0.00, -0.21, 0.00, 5.73, 0.00, 61.35, 61.35
GPS, 3, 175038800, 7, 2.41, -33.7841035, 151.0681890, -0.37, 95.26, 0.00, 186.77
CTUN, 0, 0.00, -0.18, 0.000000, 0.00, 0, -17, 0, 0
ATT, 0.00, -0.20, 0.00, 5.77, 0.00, 61.41, 61.41
CTUN, 0, 0.00, -0.09, 0.000000, 0.00, 0, -17, 0, 0
ATT, 0.00, -0.19, 0.00, 5.80, 0.00, 61.46, 61.46
DU32, 7, 8793
CURR, 0, 0, 1207, 65, 4772, 1.346369
GPS, 3, 175039000, 7, 2.41, -33.7841035, 151.0681889, -0.38, 95.26, 0.00, 186.77
CTUN, 0, 0.00, -0.12, 0.000000, 0.00, 0, -17, 0, 0
ATT, 0.00, -0.18, 0.00, 5.83, 0.00, 61.51, 61.51
CTUN, 0, 0.00, -0.20, 0.000000, 0.00, 0, -17, 0, 0
ATT, 0.00, -0.17, 0.00, 5.86, 0.00, 61.56, 61.56
GPS, 3, 175039200, 7, 2.41, -33.7841034, 151.0681889, -0.38, 95.28, 0.01, 186.77
CTUN, 0, 0.00, -0.09, 0.000000, 0.00, 0, -17, 0, 0
ATT, 0.00, -0.17, 0.00, 5.88, 0.00, 61.62, 61.62
CTUN, 0, 0.00, -0.21, 0.000000, 0.00, 0, -17, 0, 0
ATT, 0.00, -0.16, 0.00, 5.91, 0.00, 61.66, 61.66
GPS, 3, 175039400, 7, 2.41, -33.7841033, 151.0681889, -0.39, 95.29, 0.01, 186.77
CTUN, 0, 0.00, -0.15, 0.000000, 0.00, 0, -17, 0, 0
ATT, 0.00, -0.15, 0.00, 5.94, 0.00, 61.72, 61.72
CTUN, 0, 0.00, -0.19, 0.000000, 0.00, 0, -17, 0, 0
ATT, 0.00, -0.16, 0.00, 5.97, 0.00, 61.77, 61.77
GPS, 3, 175039600, 7, 2.41, -33.7841033, 151.0681889, -0.40, 95.29, 0.01, 186.77
CTUN, 0, 0.00, -0.28, 0.000000, 0.00, 0, -17, 0, 0
ATT, 0.00, -0.15, 0.00, 6.00, 0.00, 61.82, 61.82
CTUN, 0, 0.00, -0.07, 0.000000, 0.00, 0, -17, 0, 0
ATT, 0.00, -0.13, 0.00, 6.02, 0.00, 61.87, 61.87
GPS, 3, 175039800, 7, 2.41, -33.7841032, 151.0681888, -0.41, 95.31, 0.01, 186.77
CTUN, 0, 0.00, -0.11, 0.000000, 0.00, 0, -17, 0, 0
ATT, 0.00, -0.13, 0.00, 6.05, 0.00, 61.91, 61.91
CTUN, 0, 0.00, -0.23, 0.000000, 0.00, 0, -17, 0, 0
ATT, 0.00, -0.13, 0.00, 6.08, 0.00, 61.97, 61.97
DU32, 7, 8793
CURR, 0, 0, 1211, 65, 4793, 1.531105
GPS, 3, 175040000, 7, 2.41, -33.7841031, 151.0681888, -0.41, 95.32, 0.01, 186.77
CTUN, 0, 0.00, -0.10, 0.000000, 0.00, 0, -17, 0, 0
ATT, 0.00, -0.12, 0.00, 6.10, 0.00, 62.02, 62.02
CTUN, 0, 0.00, -0.22, 0.000000, 0.00, 0, -17, 0, 0
ATT, 0.00, -0.11, 0.00, 6.13, 0.00, 62.07, 62.07
GPS, 3, 175040200, 7, 2.41, -33.7841030, 151.0681888, -0.41, 95.33, 0.00, 186.77
CTUN, 0, 0.00, -0.19, 0.000000, 0.00, 0, -17, 0, 0
ATT, 0.00, -0.11, 0.00, 6.16, 0.00, 62.12, 62.12
CTUN, 0, 0.00, -0.13, 0.000000, 0.00, 0, -17, 0, 0
ATT, 0.00, -0.10, 0.00, 6.18, 0.00, 62.17, 62.17
GPS, 3, 175040400, 7, 2.41, -33.7841030, 151.0681888, -0.42, 95.33, 0.01, 186.77
CTUN, 0, 0.00, -0.12, 0.000000, 0.00, 0, -17, 0, 0
ATT, 0.00, -0.10, 0.00, 6.22, 0.00, 62.22, 62.22
CTUN, 0, 0.00, -0.23, 0.000000, 0.00, 0, -17, 0, 0
ATT, 0.00, -0.10, 0.00, 6.25, 0.00, 62.27, 62.27
GPS, 3, 175040600, 7, 2.41, -33.7841029, 151.0681888, -0.42, 95.33, 0.00, 186.77
CTUN, 0, 0.00, -0.20, 0.000000, 0.00, 0, -17, 0, 0
ATT, 0.00, -0.09, 0.00, 6.27, 0.00, 62.32, 62.32
CTUN, 0, 0.00, -0.33, 0.000000, 0.00, 0, -17, 0, 0
ATT, 0.00, -0.09, 0.00, 6.29, 0.00, 62.38, 62.38
GPS, 3, 175040800, 7, 2.41, -33.7841028, 151.0681888, -0.43, 95.34, 0.01, 186.77
CTUN, 0, 0.00, -0.25, 0.000000, 0.00, 0, -17, 0, 0
ATT, 0.00, -0.08, 0.00, 6.32, 0.00, 62.42, 62.42
CTUN, 0, 0.00, -0.23, 0.000000, 0.00, 0, -17, 0, 0
ATT, 0.00, -0.07, 0.00, 6.34, 0.00, 62.47, 62.47
DU32, 7, 8793
CURR, 0, 0, 1206, 60, 4793, 1.715121
GPS, 3, 175041000, 7, 2.41, -33.7841027, 151.0681888, -0.45, 95.34, 0.01, 186.77
CTUN, 132, 0.00, -0.22, 0.000000, 0.00, 0, -17, 0, 0
EV, 15
ATT, 0.00, -0.06, 0.00, 6.36, 0.00, 62.53, 62.53
CTUN, 142, 0.00, -0.37, 0.000000, 0.00, 0, -17, 142, 0
ATT, 0.00, -0.05, 0.00, 6.37, 0.00, 62.58, 62.58
GPS, 3, 175041200, 7, 2.41, -33.7841027, 151.0681888, -0.46, 95.35, 0.01, 186.77
CTUN, 168, 0.00, -0.50, 0.000000, 0.00, 0, -17, 165, 0
ATT, 0.00, -0.03, 0.00, 6.38, 0.00, 62.64, 62.64
CTUN, 178, 0.00, -0.72, 0.000000, 0.00, 0, -18, 171, 0
GPS, 3, 175041400, 7, 2.41, -33.7841026, 151.0681888, -0.50, 95.34, 0.02, 186.77
ATT, 0.00, 0.00, 0.00, 6.38, 0.00, 62.72, 62.72
EV, 28
CTUN, 178, 0.00, -0.89, 0.000000, 0.00, 0, -18, 178, 0
ATT, 0.00, 0.04, 0.00, 6.37, 0.00, 62.78, 62.72
CTUN, 179, 0.00, -0.65, 0.000000, 0.00, 0, -19, 179, 0
GPS, 3, 175041600, 7, 2.41, -33.7841018, 151.0681889, -0.57, 95.39, 0.38, 186.77
ATT, 0.00, 0.00, 0.00, 6.36, 0.00, 62.83, 62.72
CTUN, 179, 0.00, -0.57, 0.000000, 0.00, 0, -20, 179, 0
ATT, 0.00, -0.07, 0.00, 6.32, 0.00, 62.84, 62.72
CTUN, 178, 0.00, -0.70, 0.000000, 0.00, 0, -20, 177, 0
GPS, 3, 175041800, 7, 2.41, -33.7841015, 151.0681888, -0.61, 95.43, 0.16, 186.77
CTUN, 198, 0.00, -0.73, 0.000000, 0.00, 0, -21, 198, 0
ATT, 0.00, -0.09, 0.00, 6.33, 0.00, 62.91, 62.72
CTUN, 230, 0.00, -0.64, 0.000000, 0.00, 0, -21, 230, 0
ATT, 0.00, -0.03, 0.00, 6.41, 0.00, 62.95, 62.72
GPS, 3, 175042000, 7, 2.41, -33.7841007, 151.0681888, -0.67, 95.49, 0.32, 186.77
CTUN, 290, 0.00, -0.61, 0.000000, 0.00, 0, -21, 272, 0
DU32, 7, 8313
CURR, 290, 1657, 1191, 374, 4752, 2.537997
ATT, 0.00, -0.01, 0.00, 6.41, 0.00, 62.96, 62.72
CTUN, 329, 0.00, -0.84, 0.000000, 0.00, 1, -22, 328, 0
ATT, 0.00, -0.05, 0.00, 6.36, 0.00, 63.03, 62.72
GPS, 3, 175042200, 7, 2.41, -33.7841000, 151.0681887, -0.71, 95.57, 0.33, 186.77
CTUN, 368, 0.00, -0.98, 0.000000, 0.00, 1, -23, 358, 0
ATT, 0.00, -0.10, 0.00, 6.34, 0.00, 63.08, 62.72
CTUN, 387, 0.00, -0.99, 0.000000, 0.00, 1, -23, 388, 0
GPS, 3, 175042400, 7, 2.41, -33.7840998, 151.0681888, -0.78, 95.60, 0.10, 186.77
ATT, 0.00, -0.06, 0.00, 6.35, 0.00, 63.14, 62.72
CTUN, 439, 0.00, -1.04, 0.000000, 0.00, 1, -23, 433, 0
ATT, 0.00, -0.07, 0.00, 6.32, 0.00, 63.04, 62.72
CTUN, 452, 0.00, -1.45, 0.000000, 0.00, 1, -24, 450, 0
GPS, 3, 175042600, 7, 2.41, -33.7840989, 151.0681888, -0.87, 95.68, 0.43, 186.77
ATT, 0.00, -0.19, 0.00, 6.22, 0.00, 62.95, 62.72
CTUN, 472, 0.00, -1.83, 0.000000, 0.00, 1, -26, 467, 0
ATT, 0.00, -0.31, 0.00, 6.13, 0.00, 62.78, 62.72
CTUN, 482, 0.00, -1.82, 0.000000, 0.00, 2, -27, 482, 0
GPS, 3, 175042800, 7, 2.41, -33.7840988, 151.0681888, -1.00, 95.71, 0.09, 186.77
CTUN, 502, 0.00, -1.56, 0.000000, 0.00, 1, -28, 499, 0
ATT, 0.00, -0.29, 0.00, 5.47, 0.00, 63.30, 62.72
CTUN, 513, 0.00, -1.47, 0.000000, 0.00, 1, -28, 506, 0
ATT, 0.00, -0.18, 0.00, 4.72, 0.00, 64.01, 62.72
GPS, 3, 175043000, 7, 2.41, -33.7841000, 151.0681887, -1.14, 95.62, 0.42, 186.77
CTUN, 525, 0.00, -1.58, 0.000000, 0.00, 0, -28, 523, 0
DU32, 7, 8313
CURR, 525, 5594, 1132, 1093, 4732, 4.900023
ATT, 0.00, 0.03, 0.00, 2.87, 0.00, 64.64, 62.72
CTUN, 525, 0.00, -1.09, 0.000000, 0.00, 0, -28, 525, 0
ATT, 0.00, 0.07, 0.00, 1.10, 0.00, 64.60, 62.72
GPS, 3, 175043200, 7, 2.41, -33.7841010, 151.0681887, -1.23, 95.32, 0.41, 186.77
CTUN, 531, 0.00, -1.00, 0.000000, 0.00, 0, -27, 530, 0
ATT, 0.00, 0.11, 0.00, 0.21, 0.00, 64.07, 62.72
CTUN, 537, 0.00, -0.91, 0.000000, 0.00, 0, -25, 532, 0
GPS, 3, 175043400, 7, 2.41, -33.7841014, 151.0681886, -1.26, 95.26, 0.28, 186.77
ATT, 0.00, -0.30, 0.00, -0.24, 0.00, 63.19, 62.72
CTUN, 555, 0.00, -0.63, 0.000000, 0.00, 0, -25, 551, 0
ATT, 0.00, -0.14, 0.00, -0.43, 0.00, 62.17, 62.72
CTUN, 581, 0.00, -0.63, 0.000000, 0.00, 0, -21, 581, 0
GPS, 3, 175043600, 7, 2.41, -33.7841012, 151.0681887, -1.24, 95.52, 0.24, 186.77
ATT, 0.00, 0.18, 0.00, -0.30, 0.00, 60.91, 62.72
CTUN, 605, 0.00, -0.47, 0.000000, 0.00, 0, -12, 586, 0
ATT, 0.00, 0.53, 0.00, -0.06, 0.00, 59.87, 62.72
CTUN, 609, 0.00, -0.49, 0.000000, 0.00, 0, -4, 609, 0
GPS, 3, 175043800, 8, 2.01, -33.7841001, 151.0681890, -1.16, 95.89, 0.19, 186.77
CTUN, 615, 0.00, -0.22, 0.000000, 0.00, 0, 7, 615, 0
ATT, 0.00, 0.06, 0.00, 0.64, 0.00, 58.73, 62.72
CTUN, 615, 0.00, -0.11, 0.000000, 0.00, 0, 17, 615, 0
ATT, 0.00, -0.63, 0.00, 1.11, 0.00, 57.75, 62.72
GPS, 3, 175044000, 8, 2.01, -33.7840987, 151.0681896, -1.04, 96.20, 0.50, 96.52
CTUN, 614, 0.00, -0.01, 0.000000, 0.00, 0, 28, 614, 0
DU32, 7, 8313
CURR, 614, 10757, 1104, 1419, 4752, 8.368383
ATT, 0.00, -1.01, 0.00, 1.44, 0.00, 56.63, 62.72
CTUN, 615, 0.00, 0.11, 0.000000, 0.00, 0, 35, 615, 0
ATT, 0.00, -1.59, 0.00, 1.32, 0.00, 55.71, 62.72
GPS, 3, 175044200, 8, 2.01, -33.7840971, 151.0681907, -0.86, 96.39, 0.92, 45.79
CTUN, 615, 0.00, 0.16, 0.000000, 0.00, 0, 40, 613, 0
ATT, 0.00, -2.06, 0.00, 1.20, 0.00, 54.79, 62.72
CTUN, 615, 0.00, 0.33, 0.000000, 0.00, 0, 45, 615, 0
ATT, 0.00, -2.06, 0.00, 0.85, 0.00, 54.27, 62.72
GPS, 3, 175044400, 8, 2.01, -33.7840957, 151.0681922, -0.63, 96.55, 1.01, 45.07
CTUN, 615, 0.00, 0.31, 0.000000, 0.00, 0, 50, 615, 0
ATT, 0.00, -1.87, 0.93, 0.76, 0.00, 54.12, 62.72
CTUN, 615, 0.00, 0.37, 0.000000, 0.00, 0, 54, 615, 0
GPS, 3, 175044600, 8, 2.01, -33.7840946, 151.0681938, -0.41, 96.53, 0.97, 48.76
ATT, 1.38, -1.32, 2.46, 1.45, 0.00, 54.34, 62.72
CTUN, 615, 0.00, 0.61, 0.000000, 0.00, 0, 56, 615, 0
ATT, 2.30, -0.53, 2.92, 2.25, 0.00, 54.67, 62.72
CTUN, 615, 0.00, 0.55, 0.000000, 0.00, 0, 59, 615, 0
GPS, 3, 175044800, 8, 2.01, -33.7840931, 151.0681954, -0.19, 96.60, 1.08, 45.06
CTUN, 615, 0.00, 0.68, 0.000000, 0.00, 0, 60, 615, 0
ATT, 2.30, 1.06, 2.69, 3.67, 0.00, 55.16, 62.72
CTUN, 615, 0.00, 0.73, 0.000000, 0.00, 1, 62, 616, 0
ATT, 2.53, 1.54, 3.63, 4.32, 0.00, 55.50, 62.72
GPS, 3, 175045000, 8, 2.01, -33.7840915, 151.0681966, 0.00, 96.65, 1.03, 40.36
CTUN, 614, 0.00, 0.86, 0.000000, 0.00, 2, 64, 615, 0
DU32, 7, 8313
CURR, 614, 16292, 1103, 1420, 4752, 12.35544
ATT, 2.30, 1.86, 4.68, 5.46, 0.00, 55.78, 62.72
CTUN, 615, 0.00, 0.89, 0.000000, 0.00, 2, 65, 617, 0
ATT, 2.65, 1.77, 6.21, 6.70, 0.00, 55.84, 62.72
GPS, 3, 175045200, 8, 2.01, -33.7840898, 151.0681987, 0.22, 96.76, 1.31, 42.79
CTUN, 615, 0.00, 1.01, 0.000000, 0.00, 4, 67, 618, 0
ATT, 2.42, 1.32, 7.50, 8.25, 0.00, 55.70, 62.72
CTUN, 615, 0.00, 1.07, 0.000000, 0.00, 5, 68, 620, 0
ATT, 1.96, 0.89, 7.38, 9.80, 0.00, 55.57, 62.72
GPS, 3, 175045400, 8, 2.01, -33.7840880, 151.0682000, 0.47, 96.86, 1.12, 39.99
CTUN, 615, 0.00, 1.21, 0.000000, 0.00, 7, 70, 620, 0
ATT, 0.00, 0.66, 5.62, 10.52, 0.00, 55.30, 62.72
CTUN, 607, 0.00, 1.35, 0.000000, 0.00, 8, 71, 615, 0
GPS, 3, 175045600, 8, 2.01, -33.7840860, 151.0682010, 0.69, 96.91, 1.16, 33.95
ATT, 0.00, -0.26, 3.75, 9.26, 0.00, 54.88, 62.72
CTUN, 596, 0.00, 1.39, 0.000000, 0.00, 6, 72, 613, 0
ATT, 0.00, -0.20, 1.64, 7.76, 0.00, 54.29, 62.72
CTUN, 578, 0.00, 1.40, 0.000000, 0.00, 4, 73, 582, 0
GPS, 3, 175045800, 7, 2.40, -33.7840845, 151.0682020, 0.87, 97.00, 0.94, 33.76
CTUN, 578, 0.00, 1.40, 0.000000, 0.00, 2, 70, 580, 0
ATT, 0.00, 0.77, 0.11, 5.30, 0.00, 53.32, 62.72
CTUN, 578, 0.00, 1.63, 0.000000, 0.00, 1, 66, 579, 0
ATT, 0.00, 1.16, 1.28, 3.30, 0.00, 52.64, 62.64
GPS, 3, 175046000, 8, 2.01, -33.7840839, 151.0682025, 1.09, 97.21, 0.37, 40.30
CTUN, 578, 0.00, 1.75, 0.000000, 0.00, 0, 61, 578, 0
DU32, 7, 8313
CURR, 578, 21719, 1105, 1304, 4712, 16.16024
ATT, 1.61, 1.70, 4.57, 2.62, 0.00, 52.04, 62.04
CTUN, 581, 0.00, 1.71, 0.000000, 0.00, 1, 57, 579, 0
ATT, 1.96, 3.09, 7.61, 4.51, 0.00, 51.50, 61.50
GPS, 3, 175046200, 8, 2.01, -33.7840832, 151.0682032, 1.29, 97.24, 0.47, 52.71
CTUN, 578, 0.00, 1.87, 0.000000, 0.00, 3, 53, 580, 0
ATT, 1.50, 3.42, 8.55, 6.79, 0.00, 51.17, 61.17
CTUN, 578, 0.00, 1.93, 0.000000, 0.00, 4, 49, 582, 0
ATT, 0.57, 2.66, 8.55, 7.95, 0.00, 51.08, 61.07
GPS, 3, 175046400, 8, 2.01, -33.7840822, 151.0682044, 1.46, 97.40, 0.70, 55.76
CTUN, 566, 0.00, 2.06, 0.000000, 0.00, 4, 45, 572, 0
ATT, 0.00, 1.24, 8.90, 8.57, 0.00, 51.28, 61.07
CTUN, 566, 0.00, 1.91, 0.000000, 0.00, 4, 41, 570, 0
ATT, 0.00, -0.14, 10.19, 8.51, 0.00, 51.77, 61.07
GPS, 3, 175046600, 8, 2.01, -33.7840816, 151.0682055, 1.60, 97.44, 0.61, 60.80
CTUN, 542, 0.00, 2.06, 0.000000, 0.00, 4, 33, 545, 0
ATT, 0.00, -0.65, 10.78, 8.63, 0.00, 52.44, 61.07
CTUN, 542, 0.00, 2.17, 0.000000, 0.00, 4, 24, 546, 0
ATT, 0.00, -0.72, 12.07, 9.13, 0.00, 53.20, 61.07
GPS, 3, 175046800, 8, 2.01, -33.7840813, 151.0682066, 1.70, 97.58, 0.57, 73.46
CTUN, 540, 0.00, 2.18, 0.000000, 0.00, 5, 15, 546, 0
ATT, 0.00, -1.24, 12.30, 9.71, 0.00, 54.07, 61.07
CTUN, 542, 0.00, 2.34, 0.000000, 0.00, 6, 3, 548, 0
GPS, 3, 175047000, 8, 2.01, -33.7840812, 151.0682074, 1.78, 97.57, 0.45, 83.57
ATT, 0.00, -1.29, 11.48, 10.00, 0.00, 54.92, 61.07
DU32, 7, 8313
CURR, 542, 26786, 1114, 1173, 4712, 19.45015
CTUN, 542, 0.00, 2.22, 0.000000, 0.00, 6, -7, 548, 0
ATT, 0.00, -1.58, 11.71, 9.78, 0.00, 55.54, 61.07
CTUN, 542, 0.00, 2.34, 0.000000, 0.00, 6, -16, 548, 0
GPS, 3, 175047200, 8, 2.01, -33.7840811, 151.0682081, 1.81, 97.63, 0.36, 89.77
ATT, 0.00, -1.60, 11.25, 9.64, 0.00, 56.03, 61.07
CTUN, 541, 0.00, 2.30, 0.000000, 0.00, 6, -25, 548, 0
ATT, 0.00, -1.74, 5.74, 9.30, 0.00, 56.24, 61.07
CTUN, 542, 0.00, 2.31, 0.000000, 0.00, 5, -33, 547, 0
GPS, 3, 175047400, 8, 2.01, -33.7840813, 151.0682085, 1.81, 97.59, 0.27, 108.34
ATT, 0.00, -1.87, 1.05, 6.67, 0.00, 56.27, 61.07
CTUN, 542, 0.00, 2.28, 0.000000, 0.00, 3, -42, 545, 0
ATT, 0.00, -1.94, 0.00, 3.48, 0.00, 56.13, 61.07
CTUN, 558, 0.00, 2.36, 0.000000, 0.00, 1, -48, 557, 0
GPS, 3, 175047600, 8, 2.01, -33.7840812, 151.0682085, 1.79, 97.56, 0.11, 108.34
ATT, 0.00, -1.50, 0.00, 1.30, 0.00, 55.79, 61.07
CTUN, 577, 0.00, 2.32, 0.000000, 0.00, 0, -53, 576, 0
ATT, 0.00, -1.01, 0.00, 0.49, 0.00, 55.21, 61.07
CTUN, 583, 0.00, 2.18, 0.000000, 0.00, 0, -55, 580, 0
GPS, 3, 175047800, 8, 2.01, -33.7840810, 151.0682085, 1.74, 97.50, 0.06, 108.34
CTUN, 584, 0.00, 2.26, 0.000000, 0.00, 0, -56, 584, 0
ATT, 0.00, -0.50, 0.11, 0.47, 0.00, 54.28, 61.07
CTUN, 588, 0.00, 2.01, 0.000000, 0.00, 0, -54, 584, 0
ATT, 0.00, 0.19, 2.92, 0.99, 0.00, 53.19, 61.07
GPS, 3, 175048000, 8, 2.01, -33.7840807, 151.0682086, 1.68, 97.42, 0.17, 108.34
DU32, 7, 8313
CURR, 589, 32412, 1100, 1345, 4772, 23.12690
CTUN, 589, 0.00, 2.18, 0.000000, 0.00, 0, -54, 589, 0
ATT, 0.00, 0.03, 7.14, 2.52, 0.00, 51.84, 61.07
PM, 0, 0, 50, 0, 1002, 10436, 10, 4
CTUN, 589, 0.00, 2.10, 0.000000, 0.00, 0, -53, 589, 0
ATT, 0.00, 0.13, 9.49, 5.66, 0.00, 50.75, 60.75
GPS, 3, 175048200, 8, 2.01, -33.7840801, 151.0682090, 1.63, 97.28, 0.29, 108.34
CTUN, 589, 0.00, 1.94, 0.000000, 0.00, 3, -50, 592, 0
ATT, 0.00, -0.08, 9.37, 8.77, 0.00, 49.70, 59.70
CTUN, 590, 0.00, 1.97, 0.000000, 0.00, 5, -49, 594, 0
GPS, 3, 175048400, 8, 2.01, -33.7840797, 151.0682097, 1.58, 97.23, 0.39, 87.30
ATT, 0.00, -1.31, 9.96, 9.68, 0.00, 48.62, 58.62
CTUN, 589, 0.00, 1.78, 0.000000, 0.00, 6, -46, 595, 0
ATT, 0.00, -1.68, 8.90, 10.17, 0.00, 47.66, 57.66
CTUN, 589, 0.00, 1.92, 0.000000, 0.00, 7, -47, 596, 0
GPS, 3, 175048600, 8, 2.01, -33.7840791, 151.0682105, 1.52, 97.10, 0.44, 72.76
ATT, 0.00, -2.13, 8.78, 9.87, 0.00, 46.36, 56.36
CTUN, 589, 0.00, 1.95, 0.000000, 0.00, 7, -48, 596, 0
ATT, 0.00, -2.36, 9.72, 9.31, 0.00, 45.20, 55.20
CTUN, 589, 0.00, 1.79, 0.000000, 0.00, 6, -48, 595, 0
GPS, 3, 175048800, 8, 2.01, -33.7840787, 151.0682109, 1.48, 96.97, 0.30, 72.76
CTUN, 589, 0.00, 1.91, 0.000000, 0.00, 6, -49, 595, 0
ATT, 0.00, -2.04, 10.54, 9.72, 0.00, 43.68, 53.68
CTUN, 589, 0.00, 1.71, 0.000000, 0.00, 7, -49, 596, 0
ATT, 0.00, -2.19, 11.13, 10.37, 0.00, 42.09, 52.09
GPS, 3, 175049000, 8, 2.01, -33.7840785, 151.0682109, 1.42, 96.84, 0.12, 72.76
DU32, 7, 8313
CURR, 589, 37762, 1092, 1393, 4732, 26.94790
CTUN, 589, 0.00, 1.76, 0.000000, 0.00, 8, -51, 597, 0
ATT, 0.00, -1.89, 10.42, 10.79, 0.00, 40.28, 50.28
CTUN, 589, 0.00, 1.81, 0.000000, 0.00, 8, -51, 597, 0
ATT, 0.00, -1.61, 11.13, 10.72, 0.00, 38.47, 48.47
GPS, 3, 175049200, 8, 2.01, -33.7840781, 151.0682108, 1.36, 96.68, 0.10, 72.76
CTUN, 589, 0.00, 1.80, 0.000000, 0.00, 8, -52, 597, 0
ATT, 0.00, -1.57, 9.49, 10.45, 6.84, 37.05, 47.05
CTUN, 588, 0.00, 1.74, 0.000000, 0.00, 7, -51, 596, 0
GPS, 3, 175049400, 8, 2.01, -33.7840775, 151.0682106, 1.31, 96.50, 0.24, 72.76
ATT, 0.00, -1.31, 7.61, 9.57, 11.16, 37.05, 47.05
CTUN, 589, 0.00, 1.59, 0.000000, 0.00, 6, -48, 595, 0
ATT, 0.00, -1.71, 6.79, 7.90, 10.44, 38.55, 48.55
CTUN, 589, 0.00, 1.59, 0.000000, 0.00, 4, -46, 593, 0
GPS, 3, 175049600, 8, 2.01, -33.7840771, 151.0682101, 1.25, 96.27, 0.20, 72.76
ATT, 0.00, -1.89, 4.80, 5.78, 9.24, 41.10, 51.10
CTUN, 589, 0.00, 1.49, 0.000000, 0.00, 2, -45, 591, 0
ATT, 0.00, -1.66, 4.68, 4.42, 8.40, 43.93, 53.93
CTUN, 589, 0.00, 1.46, 0.000000, 0.00, 1, -44, 590, 0
GPS, 3, 175049800, 8, 2.01, -33.7840766, 151.0682098, 1.19, 96.04, 0.19, 72.76
ATT, 0.00, -1.19, 4.57, 3.99, 7.08, 47.43, 57.35
CTUN, 589, 0.00, 1.43, 0.000000, 0.00, 1, -44, 590, 0
ATT, 0.00, -0.98, 5.27, 3.86, 6.00, 50.79, 60.13
CTUN, 589, 0.00, 1.48, 0.000000, 0.00, 1, -43, 590, 0
GPS, 3, 175050000, 8, 2.01, -33.7840767, 151.0682098, 1.14, 95.87, 0.07, 72.76
DU32, 7, 8313
CURR, 589, 43100, 1092, 1322, 4712, 30.70572
CTUN, 589, 0.00, 1.39, 0.000000, 0.00, 1, -44, 590, 0
ATT, 0.00, -1.12, 5.27, 3.91, 5.28, 54.91, 63.02
CTUN, 589, 0.00, 1.39, 0.000000, 0.00, 1, -45, 590, 0
ATT, 0.00, -1.15, 5.50, 4.10, 4.08, 58.68, 65.38
GPS, 3, 175050200, 8, 2.01, -33.7840770, 151.0682095, 1.09, 95.82, 0.03, 72.76
CTUN, 589, 0.00, 1.53, 0.000000, 0.00, 1, -47, 590, 0
ATT, 0.00, -1.40, 5.50, 3.99, 3.12, 61.99, 67.14
CTUN, 589, 0.00, 1.35, 0.000000, 0.00, 1, -48, 590, 0
ATT, 0.00, -1.25, 5.97, 4.30, 0.00, 64.44, 67.58
GPS, 3, 175050400, 8, 2.01, -33.7840774, 151.0682094, 1.03, 95.70, 0.22, 72.76
CTUN, 589, 0.00, 1.41, 0.000000, 0.00, 1, -50, 590, 0
ATT, 0.00, -0.83, 6.44, 4.85, 0.00, 65.51, 67.58
CTUN, 588, 0.00, 1.39, 0.000000, 0.00, 1, -52, 589, 0
GPS, 3, 175050600, 8, 2.01, -33.7840773, 151.0682096, 0.98, 95.62, 0.12, 72.76
ATT, 0.00, -0.61, 5.62, 5.43, 0.00, 65.56, 67.58
CTUN, 589, 0.00, 1.37, 0.000000, 0.00, 2, -53, 591, 0
ATT, 0.00, -0.56, 4.68, 5.82, 0.00, 64.80, 67.58
CTUN, 589, 0.00, 1.42, 0.000000, 0.00, 2, -54, 591, 0
GPS, 3, 175050800, 8, 2.01, -33.7840772, 151.0682097, 0.92, 95.49, 0.11, 72.76
ATT, 0.00, -0.79, 6.09, 5.46, 0.00, 63.05, 67.58
CTUN, 589, 0.00, 1.16, 0.000000, 0.00, 2, -53, 591, 0
ATT, 0.00, -1.23, 10.42, 6.34, 0.00, 60.97, 67.58
CTUN, 589, 0.00, 1.08, 0.000000, 0.00, 2, -52, 591, 0
GPS, 3, 175051000, 8, 2.01, -33.7840773, 151.0682097, 0.86, 95.39, 0.07, 72.76
DU32, 7, 8313
CURR, 589, 48414, 1089, 1383, 4772, 34.36404
ATT, 0.00, -1.31, 11.13, 9.00, 0.00, 58.48, 67.58
CTUN, 589, 0.00, 1.17, 0.000000, 0.00, 5, -51, 594, 0
ATT, 0.00, -0.77, 12.07, 10.59, 0.00, 56.42, 66.42
CTUN, 589, 0.00, 1.24, 0.000000, 0.00, 7, -50, 596, 0
GPS, 3, 175051200, 8, 2.01, -33.7840772, 151.0682100, 0.80, 95.27, 0.17, 72.76
CTUN, 589, 0.00, 1.11, 0.000000, 0.00, 9, -49, 598, 0
ATT, 0.00, -1.46, 13.00, 11.30, 0.00, 54.49, 64.49
CTUN, 589, 0.00, 0.97, 0.000000, 0.00, 9, -49, 598, 0
ATT, 0.00, -2.23, 13.94, 11.51, 0.00, 52.64, 62.64
GPS, 3, 175051400, 8, 2.01, -33.7840774, 151.0682098, 0.73, 95.19, 0.13, 72.76
CTUN, 589, 0.00, 0.99, 0.000000, 0.00, 10, -48, 599, 0
ATT, 0.00, -1.63, 12.18, 11.89, 0.00, 50.78, 60.78
CTUN, 588, 0.00, 1.02, 0.000000, 0.00, 9, -46, 597, 0
ATT, 0.00, -0.97, 12.18, 11.53, 0.00, 49.17, 59.17
GPS, 3, 175051600, 8, 2.01, -33.7840784, 151.0682090, 0.67, 95.17, 0.49, 135.29
CTUN, 589, 0.00, 0.98, 0.000000, 0.00, 9, -46, 598, 0
ATT, 0.00, -0.42, 12.65, 11.02, 0.00, 48.08, 58.08
CTUN, 589, 0.00, 1.01, 0.000000, 0.00, 8, -48, 597, 0
GPS, 3, 175051800, 8, 2.01, -33.7840788, 151.0682082, 0.62, 95.10, 0.42, 135.29
ATT, 0.00, -0.07, 12.30, 10.93, 0.00, 47.54, 57.54
CTUN, 589, 0.00, 1.03, 0.000000, 0.00, 8, -49, 597, 0
ATT, 0.00, 0.21, 12.30, 10.69, 0.00, 47.60, 57.49
CTUN, 589, 0.00, 0.95, 0.000000, 0.00, 8, -50, 597, 0
GPS, 3, 175052000, 8, 2.01, -33.7840802, 151.0682072, 0.57, 95.07, 0.78, 175.40
ATT, 0.00, -0.35, 12.30, 10.20, 0.00, 48.53, 57.49
DU32, 7, 8313
CURR, 589, 53788, 1086, 1350, 4752, 38.13558
CTUN, 589, 0.00, 0.84, 0.000000, 0.00, 7, -52, 596, 0
ATT, 0.00, 0.13, 11.48, 9.88, 0.00, 49.82, 57.49
CTUN, 589, 0.00, 0.68, 0.000000, 0.00, 6, -55, 595, 0
GPS, 3, 175052200, 8, 2.01, -33.7840809, 151.0682059, 0.50, 95.00, 0.72, 196.36
CTUN, 589, 0.00, 0.72, 0.000000, 0.00, 6, -57, 595, 0
ATT, 0.00, 0.00, 12.07, 9.62, 0.00, 51.54, 57.49
CTUN, 590, 0.00, 0.65, 0.000000, 0.00, 6, -60, 595, 0
ATT, -0.58, -0.31, 12.07, 9.82, 0.00, 53.09, 57.49
GPS, 3, 175052400, 7, 2.40, -33.7840817, 151.0682044, 0.40, 94.90, 0.91, 213.45
CTUN, 589, 0.00, 0.50, 0.000000, 0.00, 6, -62, 595, 0
ATT, -0.69, -0.86, 12.07, 9.88, 0.00, 55.05, 57.49
CTUN, 589, 0.00, 0.53, 0.000000, 0.00, 7, -62, 596, 0
ATT, -1.04, -1.99, 12.30, 10.84, 0.00, 56.54, 57.49
GPS, 3, 175052600, 8, 2.01, -33.7840832, 151.0682033, 0.30, 94.71, 1.00, 215.45
CTUN, 589, 0.00, 0.63, 0.000000, 0.00, 9, -64, 598, 0
ATT, -1.04, -2.23, 12.07, 11.10, 0.00, 57.62, 57.49
CTUN, 589, 0.00, 0.48, 0.000000, 0.00, 8, -65, 596, 0
GPS, 3, 175052800, 8, 2.01, -33.7840855, 151.0682025, 0.20, 94.49, 1.23, 205.11
ATT, 0.00, -2.22, 9.49, 10.65, 0.00, 58.31, 57.49
CTUN, 600, 0.00, 0.50, 0.000000, 0.00, 8, -68, 608, 0
ATT, 0.00, -1.28, 5.74, 9.08, 0.00, 58.63, 57.49
CTUN, 600, 0.00, 0.39, 0.000000, 0.00, 5, -68, 605, 0
GPS, 3, 175053000, 8, 2.01, -33.7840868, 151.0682011, 0.10, 94.24, 1.09, 209.99
ATT, 0.00, -1.39, 0.00, 5.84, 0.00, 58.78, 57.49
CTUN, 600, 0.00, 0.50, 0.000000, 0.00, 2, -68, 602, 0
DU32, 7, 8313
CURR, 600, 59172, 1091, 1349, 4693, 41.78784
ATT, 0.00, -1.69, 0.00, 2.42, 0.00, 58.69, 57.49
CTUN, 600, 0.00, 0.48, 0.000000, 0.00, 0, -67, 601, 0
GPS, 3, 175053200, 8, 2.01, -33.7840878, 151.0681994, 0.02, 93.96, 1.07, 219.55
CTUN, 600, 0.00, 0.36, 0.000000, 0.00, 0, -65, 600, 0
ATT, 0.00, -1.99, 0.00, 0.58, 0.00, 58.41, 57.49
CTUN, 600, 0.00, 0.32, 0.000000, 0.00, 0, -64, 600, 0
ATT, 0.00, -1.99, 0.00, 0.48, 0.00, 58.10, 57.49
GPS, 3, 175053400, 8, 2.01, -33.7840888, 151.0681976, -0.06, 93.75, 1.03, 226.16
CTUN, 600, 0.00, 0.21, 0.000000, 0.00, 0, -64, 600, 0
ATT, 0.00, -1.96, 0.00, 0.77, 0.00, 57.53, 57.49
CTUN, 600, 0.00, 0.14, 0.000000, 0.00, 0, -63, 600, 0
ATT, 0.00, -1.32, 0.00, 0.96, 0.00, 56.97, 57.49
GPS, 3, 175053600, 8, 2.01, -33.7840895, 151.0681961, -0.15, 93.55, 0.77, 229.53
CTUN, 599, 0.00, -0.02, 0.000000, 0.00, 0, -62, 600, 0
ATT, 0.00, -0.87, 0.00, 1.45, 0.00, 56.65, 57.49
CTUN, 604, 0.00, -0.06, 0.000000, 0.00, 0, -60, 604, 0
EV, 16
GPS, 3, 175053800, 8, 2.01, -33.7840898, 151.0681951, -0.25, 93.48, 0.41, 229.53
ATT, 0.00, -0.97, 0.00, 1.85, 0.00, 56.62, 57.49
CTUN, 605, 0.00, -0.01, 0.000000, 0.00, 0, -58, 605, 0
ATT, 0.00, -1.09, 0.00, 2.58, 0.00, 56.49, 57.49
CTUN, 606, 0.00, -0.20, 0.000000, 0.00, 0, -55, 606, 0
GPS, 3, 175054000, 8, 2.01, -33.7840901, 151.0681944, -0.34, 93.30, 0.37, 229.53
ATT, 0.00, -1.06, 0.00, 2.93, 0.00, 56.15, 57.49
CTUN, 606, 0.00, -0.24, 0.000000, 0.00, 0, -48, 606, 0
DU32, 7, 8569
CURR, 606, 64589, 1086, 1336, 4752, 45.47039
ATT, 0.00, -0.83, 0.00, 2.95, 0.00, 55.86, 57.49
CTUN, 606, 0.00, -0.46, 0.000000, 0.00, 0, -42, 606, 0
GPS, 3, 175054200, 8, 2.01, -33.7840900, 151.0681933, -0.41, 93.28, 0.28, 229.53
CTUN, 606, 0.00, -0.48, 0.000000, 0.00, 0, -32, 606, 0
ATT, 0.00, -0.79, 0.00, 2.70, 0.00, 55.67, 57.49
CTUN, 606, 0.00, -0.74, 0.000000, 0.00, 0, -24, 606, 0
ATT, 0.00, -0.58, 0.00, 2.43, 0.00, 55.71, 57.49
GPS, 3, 175054400, 8, 2.01, -33.7840899, 151.0681924, -0.48, 93.31, 0.24, 229.53
CTUN, 606, 0.00, -0.85, 0.000000, 0.00, 0, -15, 604, 0
ATT, 0.00, -1.02, 0.00, 2.13, 0.00, 56.03, 57.49
CTUN, 552, 0.00, -0.81, 0.000000, 0.00, 0, -7, 604, 0
ATT, 0.00, -0.99, 0.00, 1.76, 0.00, 56.77, 57.49
GPS, 3, 175054600, 8, 2.01, -33.7840896, 151.0681920, -0.54, 93.35, 0.15, 229.53
CTUN, 384, 0.00, -0.65, 0.000000, 0.00, 0, -1, 446, 0
ATT, 0.00, -0.64, 0.00, 1.92, 0.00, 57.62, 57.49
CTUN, 196, 0.00, -0.57, 0.000000, 0.00, 0, -17, 257, 0
GPS, 3, 175054800, 8, 2.01, -33.7840894, 151.0681917, -0.58, 93.43, 0.14, 229.53
ATT, 0.00, 0.46, 0.00, 1.37, 0.00, 58.63, 57.49
CTUN, 151, 0.00, -0.74, 0.000000, 0.00, 0, -57, 161, 0
ATT, 0.00, -1.12, 0.00, 6.72, 0.00, 59.78, 59.78
CTUN, 0, 0.00, -1.14, 0.000000, 0.00, 0, 6, 0, 0
GPS, 3, 175055000, 8, 2.01, -33.7840891, 151.0681919, -0.66, 93.40, 0.24, 229.53
ATT, 0.00, 6.18, 0.00, 8.55, 0.00, 58.77, 58.77
CTUN, 0, 0.00, -0.89, 0.000000, 0.00, 0, -18, 0, 0
DU32, 7, 8537
CURR, 0, 68481, 1171, 48, 4772, 48.27333
ATT, 0.00, -0.26, 0.00, 7.00, 0.00, 56.98, 56.98
CTUN, 0, 0.00, -0.81, 0.000000, 0.00, 0, -12, 0, 0
GPS, 3, 175055200, 7, 2.20, -33.7840887, 151.0681919, -0.74, 93.39, 0.19, 229.53
ATT, 0.00, -0.37, 0.00, 7.15, 0.00, 58.67, 58.67
CTUN, 0, 0.00, -0.73, 0.000000, 0.00, 0, -22, 0, 0
ATT, 0.00, -0.62, 0.00, 7.41, 0.00, 60.43, 60.43
CTUN, 0, 0.00, -0.74, 0.000000, 0.00, 0, -21, 0, 0
GPS, 3, 175055400, 7, 2.20, -33.7840885, 151.0681920, -0.79, 93.39, 0.16, 229.53
ATT, 0.00, -0.68, 0.00, 7.01, 0.00, 60.21, 60.21
CTUN, 0, 0.00, -0.67, 0.000000, 0.00, 0, -19, 0, 0
ATT, 0.00, -0.72, 0.00, 7.02, 0.00, 60.35, 60.35
CTUN, 0, 0.00, -0.59, 0.000000, 0.00, 0, -20, 0, 0
GPS, 3, 175055600, 7, 2.20, -33.7840887, 151.0681917, -0.82, 93.45, 0.03, 229.53
ATT, 0.00, -0.65, 0.00, 7.01, 0.00, 60.33, 60.33
CTUN, 0, 0.00, -0.55, 0.000000, 0.00, 0, -20, 0, 0
ATT, 0.00, -0.64, 0.00, 7.06, 0.00, 60.24, 60.24
CTUN, 0, 0.00, -0.61, 0.000000, 0.00, 0, -20, 0, 0
GPS, 3, 175055800, 7, 2.20, -33.7840888, 151.0681916, -0.83, 93.47, 0.05, 229.53
ATT, 0.00, -0.67, 0.00, 7.13, 0.00, 60.15, 60.15
CTUN, 0, 0.00, -0.61, 0.000000, 0.00, 0, -19, 0, 0
ATT, 0.00, -0.64, 0.00, 7.12, 0.00, 60.07, 60.07
CTUN, 0, 0.00, -0.55, 0.000000, 0.00, 0, -19, 0, 0
GPS, 3, 175056000, 7, 2.20, -33.7840887, 151.0681915, -0.84, 93.48, 0.01, 229.53
ATT, 0.00, -0.64, 0.00, 7.13, 0.00, 59.99, 59.99
CTUN, 0, 0.00, -0.53, 0.000000, 0.00, 0, -19, 0, 0
DU32, 7, 8537
CURR, 0, 68481, 1173, 58, 4793, 48.43995
ATT, 0.00, -0.69, 0.00, 7.15, 0.00, 59.91, 59.91
CTUN, 0, 0.00, -0.57, 0.000000, 0.00, 0, -19, 0, 0
GPS, 3, 175056200, 7, 2.20, -33.7840885, 151.0681914, -0.84, 93.45, 0.05, 229.53
ATT, 0.00, -0.71, 0.00, 7.14, 0.00, 59.83, 59.83
CTUN, 0, 0.00, -0.54, 0.000000, 0.00, 0, -19, 0, 0
ATT, 0.00, -0.73, 0.00, 7.15, 0.00, 59.76, 59.76
CTUN, 0, 0.00, -0.53, 0.000000, 0.00, 0, -18, 0, 0
GPS, 3, 175056400, 7, 2.20, -33.7840883, 151.0681913, -0.84, 93.43, 0.03, 229.53
ATT, 0.00, -0.77, 0.00, 7.16, 0.00, 59.68, 59.68
CTUN, 0, 0.00, -0.52, 0.000000, 0.00, 0, -18, 0, 0
ATT, 0.00, -0.77, 0.00, 7.15, 0.00, 59.60, 59.60
CTUN, 0, 0.00, -0.52, 0.000000, 0.00, 0, -18, 0, 0
GPS, 3, 175056600, 7, 2.20, -33.7840884, 151.0681912, -0.84, 93.44, 0.02, 229.53
ATT, 0.00, -0.76, 0.00, 7.15, 0.00, 59.54, 59.54
CTUN, 0, 0.00, -0.58, 0.000000, 0.00, 0, -18, 0, 0
ATT, 0.00, -0.77, 0.00, 7.17, 0.00, 59.46, 59.46
CTUN, 0, 0.00, -0.56, 0.000000, 0.00, 0, -17, 0, 0
GPS, 3, 175056800, 7, 2.20, -33.7840885, 151.0681911, -0.84, 93.47, 0.05, 229.53
ATT, 0.00, -0.77, 0.00, 7.17, 0.00, 59.40, 59.40
CTUN, 0, 0.00, -0.50, 0.000000, 0.00, 0, -17, 0, 0
ATT, 0.00, -0.77, 0.00, 7.19, 0.00, 59.34, 59.34
CTUN, 0, 0.00, -0.53, 0.000000, 0.00, 0, -17, 0, 0
EV, 18
GPS, 3, 175057000, 7, 2.20, -33.7840883, 151.0681909, -0.84, 93.43, 0.02, 229.53
ATT, 0.00, -0.77, 0.00, 7.19, 0.00, 59.26, 59.26
CTUN, 0, 0.00, -0.56, 0.000000, 0.00, 0, -17, 0, 0
DU32, 7, 9049
CURR, 0, 68481, 1183, 65, 4732, 48.61760
ATT, 0.00, -0.81, 0.00, 7.19, 0.00, 59.20, 59.20
CTUN, 0, 0.00, -0.58, 0.000000, 0.00, 0, -16, 0, 0
GPS, 3, 175057200, 7, 2.20, -33.7840883, 151.0681908, -0.84, 93.43, 0.01, 229.53
ATT, 0.00, -0.84, 0.00, 7.20, 0.00, 59.12, 59.12
CTUN, 0, 0.00, -0.57, 0.000000, 0.00, 0, -16, 0, 0
ATT, 0.00, -0.84, 0.00, 7.19, 0.00, 59.06, 59.06
EV, 15
CTUN, 185, 0.00, -0.47, 0.000000, 0.00, 0, -16, 145, 0
EV, 28
GPS, 3, 175057400, 7, 2.20, -33.7840884, 151.0681906, -0.84, 93.45, 0.07, 229.53
ATT, 0.00, -0.84, 0.00, 7.19, 0.00, 58.98, 59.00
CTUN, 239, 0.00, -0.63, 0.000000, 0.00, 0, -16, 221, 0
ATT, 0.00, -0.83, 0.00, 7.18, 0.00, 58.91, 59.00
CTUN, 267, 0.00, -1.00, 0.000000, 0.00, 1, -15, 267, 0
GPS, 3, 175057600, 7, 2.20, -33.7840883, 151.0681905, -0.84, 93.45, 0.02, 229.53
ATT, 0.00, -0.84, 0.00, 7.20, 0.00, 58.82, 59.00
CTUN, 267, 0.00, -1.49, 0.000000, 0.00, 1, -15, 268, 0
ATT, 0.00, -0.85, 0.00, 7.19, 0.00, 58.75, 59.00
CTUN, 266, 0.00, -1.44, 0.000000, 0.00, 1, -15, 267, 0
GPS, 3, 175057800, 7, 2.20, -33.7840879, 151.0681902, -0.92, 93.41, 0.12, 229.53
ATT, 0.00, -0.86, 0.00, 7.20, 0.00, 58.64, 59.00
CTUN, 314, 0.00, -1.71, 0.000000, 0.00, 1, -16, 300, 0
ATT, 0.00, -0.91, 0.00, 7.12, 0.00, 58.49, 59.00
CTUN, 408, 0.00, -1.53, 0.000000, 0.00, 1, -17, 379, 0
GPS, 3, 175058000, 7, 2.20, -33.7840871, 151.0681899, -1.04, 93.33, 0.28, 229.53
CTUN, 474, 0.00, -1.98, 0.000000, 0.00, 2, -18, 458, 0
ATT, 0.00, -1.00, 0.00, 7.03, 0.00, 58.45, 59.00
DU32, 7, 8569
CURR, 474, 70381, 1141, 680, 4772, 49.54575
PM, 0, 0, 50, 0, 1000, 10460, 10, 4
CTUN, 545, 0.00, -2.31, 0.000000, 0.00, 3, -18, 544, 0
ATT, 0.00, -1.20, 0.00, 6.80, 0.00, 58.40, 59.00
GPS, 3, 175058200, 8, 2.09, -33.7840836, 151.0681906, -1.18, 93.24, 1.34, 343.99
CTUN, 601, 0.00, -3.06, 0.000000, 0.00, 2, -17, 603, 0
ATT, 0.00, -1.07, 0.00, 4.63, 0.00, 58.61, 59.00
CTUN, 606, 0.00, -2.44, 0.000000, 0.00, 0, -11, 606, 0
GPS, 3, 175058400, 8, 2.08, -33.7840826, 151.0681906, -1.37, 93.17, 0.73, 348.29
ATT, 0.00, -1.77, 0.00, 2.27, 0.00, 58.07, 59.00
CTUN, 626, 0.00, -1.30, 0.000000, 0.00, 0, -1, 626, 0
ATT, 0.00, -1.30, 0.00, 2.11, 0.00, 57.17, 59.00
CTUN, 631, 0.00, -0.73, 0.000000, 0.00, 0, 13, 631, 0
GPS, 3, 175058600, 8, 2.08, -33.7840832, 151.0681908, -1.40, 93.19, 0.19, 348.29
ATT, 0.00, -1.02, 0.00, 1.85, 0.00, 55.86, 59.00
CTUN, 631, 0.00, -0.59, 0.000000, 0.00, 0, 27, 630, 0
ATT, 0.00, -1.04, 0.00, 1.64, 0.00, 54.64, 59.00
CTUN, 632, 0.00, -0.43, 0.000000, 0.00, 0, 36, 632, 0
GPS, 3, 175058800, 8, 2.08, -33.7840838, 151.0681905, -1.27, 93.35, 0.22, 348.29
ATT, 0.00, -1.12, 0.00, 1.53, 0.00, 53.09, 59.00
CTUN, 631, 0.00, -0.43, 0.000000, 0.00, 0, 44, 631, 0
ATT, 0.00, -1.27, 0.00, 1.61, 0.00, 52.04, 59.00
CTUN, 631, 0.00, -0.21, 0.000000, 0.00, 0, 48, 631, 0
GPS, 3, 175059000, 8, 2.08, -33.7840842, 151.0681907, -1.06, 93.48, 0.27, 348.29
CTUN, 631, 0.00, -0.25, 0.000000, 0.00, 0, 51, 631, 0
ATT, 0.00, -1.07, 0.00, 1.80, 0.00, 51.11, 59.00
DU32, 7, 8569
CURR, 631, 75855, 1084, 1437, 4752, 53.29254
CTUN, 631, 0.00, -0.09, 0.000000, 0.00, 0, 55, 631, 0
ATT, 0.00, -1.11, 0.00, 1.97, 0.00, 50.66, 59.00
GPS, 3, 175059200, 8, 2.08, -33.7840840, 151.0681909, -0.86, 93.77, 0.30, 348.29
CTUN, 631, 0.00, 0.03, 0.000000, 0.00, 0, 58, 631, 0
ATT, 0.00, -0.91, 0.00, 1.81, 0.00, 50.68, 59.00
CTUN, 631, 0.00, 0.06, 0.000000, 0.00, 0, 60, 631, 0
GPS, 3, 175059400, 8, 2.08, -33.7840840, 151.0681911, -0.65, 94.13, 0.30, 348.29
ATT, 0.00, -0.67, 0.00, 1.82, 0.00, 51.12, 59.00
CTUN, 631, 0.00, 0.18, 0.000000, 0.00, 0, 63, 631, 0
ATT, 0.00, -0.61, 0.00, 2.17, 0.00, 51.60, 59.00
CTUN, 631, 0.00, 0.30, 0.000000, 0.00, 0, 66, 631, 0
GPS, 3, 175059600, 9, 1.86, -33.7840836, 151.0681919, -0.43, 94.39, 0.52, 26.78
ATT, 0.00, -0.07, 0.00, 2.53, 0.00, 52.07, 59.00
CTUN, 631, 0.00, 0.39, 0.000000, 0.00, 0, 69, 631, 0
ATT, 0.00, 0.40, 0.00, 2.83, 0.00, 52.37, 59.00
CTUN, 631, 0.00, 0.49, 0.000000, 0.00, 0, 71, 629, 0
GPS, 3, 175059800, 9, 1.86, -33.7840830, 151.0681928, -0.22, 94.55, 0.54, 40.08
ATT, 0.00, 0.62, 0.00, 3.18, 0.00, 52.71, 59.00
CTUN, 631, 0.00, 0.56, 0.000000, 0.00, 0, 73, 631, 0
ATT, 0.00, 0.75, 0.00, 3.10, 0.00, 52.86, 59.00
CTUN, 631, 0.00, 0.59, 0.000000, 0.00, 0, 75, 631, 0
GPS, 3, 175060000, 9, 1.86, -33.7840820, 151.0681940, 0.02, 94.76, 0.81, 44.21
CTUN, 631, 0.00, 0.64, 0.000000, 0.00, 0, 78, 631, 0
ATT, 0.00, 0.91, 0.00, 3.00, 0.00, 53.13, 59.00
DU32, 7, 8569
CURR, 631, 81534, 1079, 1447, 4752, 57.26579
CTUN, 631, 0.00, 0.68, 0.000000, 0.00, 0, 81, 631, 0
ATT, 0.00, 0.90, 0.00, 2.85, 0.00, 53.36, 59.00
GPS, 3, 175060200, 9, 1.86, -33.7840810, 151.0681952, 0.25, 94.86, 0.75, 45.77
CTUN, 631, 0.00, 0.74, 0.000000, 0.00, 0, 83, 631, 0
ATT, 0.00, 0.85, 0.00, 2.61, 0.00, 53.57, 59.00
CTUN, 631, 0.00, 0.95, 0.000000, 0.00, 0, 84, 631, 0
GPS, 3, 175060400, 9, 1.86, -33.7840795, 151.0681963, 0.47, 94.98, 0.86, 43.41
ATT, 0.00, 0.41, 0.00, 2.69, 0.00, 53.83, 59.00
CTUN, 631, 0.00, 1.06, 0.000000, 0.00, 0, 87, 629, 0
ATT, 0.00, 0.64, 0.00, 2.88, 0.00, 54.02, 59.00
CTUN, 629, 0.00, 1.19, 0.000000, 0.00, 0, 89, 630, 0
GPS, 3, 175060600, 9, 1.86, -33.7840782, 151.0681976, 0.70, 95.10, 0.82, 44.50
ATT, 0.00, -0.11, 0.00, 3.26, 0.00, 54.13, 59.00
CTUN, 631, 0.00, 1.22, 0.000000, 0.00, 0, 91, 631, 0
ATT, 0.00, -0.62, 0.00, 3.27, 0.00, 54.07, 59.00
CTUN, 631, 0.00, 1.27, 0.000000, 0.00, 0, 93, 631, 0
GPS, 3, 175060800, 9, 1.86, -33.7840770, 151.0681991, 0.92, 95.21, 0.91, 47.65
ATT, 0.00, -0.90, 0.00, 3.73, 0.00, 53.91, 59.00
CTUN, 631, 0.00, 1.44, 0.000000, 0.00, 1, 96, 632, 0
ATT, 0.00, -1.02, 0.00, 4.01, 0.00, 53.79, 59.00
CTUN, 631, 0.00, 1.49, 0.000000, 0.00, 1, 98, 632, 0
GPS, 3, 175061000, 9, 1.86, -33.7840758, 151.0682007, 1.18, 95.41, 0.95, 50.05
CTUN, 629, 0.00, 1.69, 0.000000, 0.00, 1, 102, 632, 0
ATT, 0.00, -1.11, 0.00, 4.21, 0.00, 53.79, 59.00
DU32, 7, 8569
CURR, 629, 87212, 1077, 1414, 4752, 61.19689
CTUN, 629, 0.00, 1.68, 0.000000, 0.00, 1, 105, 630, 0
ATT, 0.00, -1.26, 0.11, 4.16, 0.00, 54.01, 59.00
GPS, 3, 175061200, 9, 1.86, -33.7840744, 151.0682026, 1.43, 95.52, 1.01, 55.07
CTUN, 603, 0.00, 1.85, 0.000000, 0.00, 1, 107, 625, 0
ATT, 0.00, -0.81, 1.75, 4.05, 0.00, 54.49, 59.00
CTUN, 592, 0.00, 1.90, 0.000000, 0.00, 1, 109, 593, 0
GPS, 3, 175061400, 9, 1.86, -33.7840731, 151.0682038, 1.68, 95.72, 0.80, 50.45
ATT, 0.00, -0.29, 4.10, 5.02, 0.00, 55.08, 59.00
CTUN, 592, 0.00, 2.11, 0.000000, 0.00, 1, 106, 593, 0
ATT, 0.00, -0.13, 5.97, 6.23, 0.00, 55.58, 59.00
CTUN, 592, 0.00, 2.20, 0.000000, 0.00, 3, 103, 595, 0
GPS, 3, 175061600, 9, 1.86, -33.7840719, 151.0682053, 1.93, 95.91, 0.82, 51.41
ATT, 0.00, -0.04, 8.20, 7.61, 0.00, 55.96, 59.00
CTUN, 568, 0.00, 2.28, 0.000000, 0.00, 4, 99, 573, 0
ATT, 0.00, -0.16, 9.60, 8.73, 0.00, 56.14, 59.00
CTUN, 568, 0.00, 2.34, 0.000000, 0.00, 5, 96, 573, 0
GPS, 3, 175061800, 9, 1.86, -33.7840704, 151.0682066, 2.13, 96.01, 0.85, 46.07
ATT, 0.00, -0.22, 9.02, 10.18, 0.00, 56.13, 59.00
CTUN, 568, 0.00, 2.61, 0.000000, 0.00, 6, 87, 572, 0
ATT, 0.00, -0.54, 8.78, 9.98, 0.00, 56.03, 59.00
CTUN, 566, 0.00, 2.60, 0.000000, 0.00, 6, 82, 572, 0
GPS, 3, 175062000, 9, 1.86, -33.7840695, 151.0682077, 2.36, 96.16, 0.68, 46.92
ATT, 0.00, -0.40, 8.67, 10.05, 0.00, 55.78, 59.00
CTUN, 568, 0.00, 2.70, 0.000000, 0.00, 6, 74, 572, 0
DU32, 7, 8569
CURR, 568, 92546, 1094, 1223, 4772, 64.73318
ATT, 0.00, -0.21, 8.90, 9.81, 0.00, 55.59, 59.00
CTUN, 566, 0.00, 2.75, 0.000000, 0.00, 6, 68, 572, 0
GPS, 3, 175062200, 9, 1.86, -33.7840689, 151.0682086, 2.54, 96.31, 0.56, 48.56
ATT, 0.00, -0.39, 7.85, 9.50, 0.00, 55.38, 59.00
CTUN, 552, 0.00, 2.90, 0.000000, 0.00, 6, 62, 565, 0
ATT, 0.00, 0.00, 6.32, 8.63, 0.00, 55.18, 59.00
CTUN, 537, 0.00, 2.93, 0.000000, 0.00, 4, 54, 541, 0
GPS, 3, 175062400, 9, 1.86, -33.7840679, 151.0682090, 2.69, 96.37, 0.47, 32.56
CTUN, 523, 0.00, 2.97, 0.000000, 0.00, 3, 45, 526, 0
ATT, 0.00, 0.26, 3.75, 7.13, 0.00, 55.07, 59.00
CTUN, 520, 0.00, 3.14, 0.000000, 0.00, 1, 31, 521, 0
ATT, 0.00, 0.74, 2.92, 4.98, 0.00, 55.20, 59.00
GPS, 3, 175062600, 9, 1.86, -33.7840673, 151.0682093, 2.80, 96.47, 0.23, 28.72
CTUN, 520, 0.00, 3.16, 0.000000, 0.00, 1, 15, 521, 0
ATT, 0.00, 0.88, 5.03, 3.78, 0.00, 55.55, 59.00
CTUN, 520, 0.00, 3.12, 0.000000, 0.00, 0, 0, 520, 0
ATT, 0.00, 0.85, 5.15, 3.92, 0.00, 56.03, 59.00
GPS, 3, 175062800, 9, 1.86, -33.7840666, 151.0682095, 2.86, 96.46, 0.16, 28.72
CTUN, 520, 0.00, 3.21, 0.000000, 0.00, 1, -12, 521, 0
ATT, 0.00, 0.90, 6.79, 4.92, 0.00, 56.58, 59.00
CTUN, 520, 0.00, 3.10, 0.000000, 0.00, 1, -28, 521, 0
GPS, 3, 175063000, 9, 1.86, -33.7840660, 151.0682099, 2.86, 96.39, 0.18, 28.72
ATT, -6.16, 0.19, 6.44, 6.25, 0.00, 57.11, 59.00
CTUN, 520, 0.00, 3.01, 0.000000, 0.00, 2, -42, 522, 0
DU32, 7, 8569
CURR, 520, 97912, 1100, 1044, 4712, 67.91655
ATT, -9.06, -2.27, 6.32, 6.50, 0.00, 57.67, 59.00
CTUN, 520, 0.00, 2.98, 0.000000, 0.00, 3, -58, 525, 0
GPS, 3, 175063200, 9, 1.86, -33.7840652, 151.0682103, 2.78, 96.23, 0.22, 28.72
ATT, -11.74, -6.33, 8.55, 6.46, 0.00, 58.44, 59.00
CTUN, 520, 0.00, 2.97, 0.000000, 0.00, 5, -73, 525, 0
ATT, -11.86, -9.18, 9.14, 7.45, 0.00, 59.13, 59.00
CTUN, 545, 0.00, 2.80, 0.000000, 0.00, 9, -86, 539, 0
GPS, 3, 175063400, 9, 1.86, -33.7840643, 151.0682104, 2.65, 96.04, 0.27, 7.55
ATT, -12.55, -10.70, 9.60, 7.61, 0.00, 60.23, 59.00
CTUN, 558, 0.00, 2.79, 0.000000, 0.00, 11, -100, 569, 0
ATT, -10.11, -11.25, 8.08, 7.69, 0.00, 61.41, 59.00
GPS, 3, 175063600, 9, 1.86, -33.7840632, 151.0682104, 2.49, 95.78, 0.42, 358.71
CTUN, 590, 0.00, 2.56, 0.000000, 0.00, 12, -110, 596, 0
ATT, -8.02, -9.69, 7.85, 7.18, 0.00, 62.81, 59.00
CTUN, 592, 0.00, 2.60, 0.000000, 0.00, 9, -113, 601, 0
ATT, -7.90, -8.61, 7.85, 7.01, 0.00, 63.82, 59.00
GPS, 3, 175063800, 9, 1.86, -33.7840615, 151.0682102, 2.30, 95.55, 0.83, 353.09
CTUN, 592, 0.00, 2.42, 0.000000, 0.00, 8, -113, 600, 0
ATT, -4.06, -7.31, 6.67, 6.66, 0.00, 64.39, 59.00
CTUN, 597, 0.00, 2.26, 0.000000, 0.00, 5, -115, 602, 0
ATT, -4.06, -4.49, 6.56, 5.51, 0.00, 64.49, 59.00
GPS, 3, 175064000, 9, 1.86, -33.7840585, 151.0682094, 2.06, 95.31, 1.53, 347.35
CTUN, 600, 0.00, 2.22, 0.000000, 0.00, 3, -117, 603, 0
ATT, 0.00, -3.71, 6.09, 4.11, 0.00, 64.27, 59.00
DU32, 7, 8569
CURR, 603, 103075, 1084, 1288, 4712, 71.10213
CTUN, 605, 0.00, 1.99, 0.000000, 0.00, 1, -120, 604, 0
ATT, 0.00, -1.53, 5.50, 3.91, 0.00, 63.58, 59.00
GPS, 3, 175064200, 9, 1.86, -33.7840548, 151.0682080, 1.84, 95.04, 2.05, 343.85
CTUN, 610, 0.00, 1.84, 0.000000, 0.00, 1, -121, 611, 0
ATT, 0.00, -0.21, 5.97, 4.85, 0.00, 62.53, 59.00
CTUN, 612, 0.00, 1.70, 0.000000, 0.00, 1, -121, 613, 0
GPS, 3, 175064400, 9, 1.86, -33.7840516, 151.0682030, 1.60, 94.56, 2.66, 325.85
ATT, 0.11, 0.77, 6.91, 7.05, 0.00, 61.12, 59.00
CTUN, 612, 0.00, 1.48, 0.000000, 0.00, 3, -122, 615, 0
ATT, 3.11, 0.84, 8.43, 9.69, 0.00, 59.82, 59.00
CTUN, 640, 0.00, 1.30, 0.000000, 0.00, 7, -123, 645, 0
GPS, 3, 175064600, 9, 1.86, -33.7840453, 151.0682006, 1.35, 93.90, 3.32, 332.81
CTUN, 642, 0.00, 1.37, 0.000000, 0.00, 12, -122, 654, 0
ATT, 4.84, 2.63, 10.42, 12.30, 0.00, 58.07, 59.00
CTUN, 645, 0.00, 1.17, 0.000000, 0.00, 14, -120, 659, 0
ATT, 4.96, 3.11, 9.96, 13.55, 0.00, 56.56, 59.00
GPS, 3, 175064800, 9, 1.86, -33.7840425, 151.0682006, 1.13, 92.97, 2.20, 336.84
CTUN, 644, 0.00, 1.06, 0.000000, 0.00, 16, -115, 660, 0
ATT, 4.96, 3.80, 8.20, 13.51, 0.00, 55.11, 59.00
CTUN, 654, 0.00, 0.88, 0.000000, 0.00, 15, -111, 669, 0
ATT, 5.30, 4.23, 6.32, 12.57, 0.00, 54.47, 59.00
GPS, 3, 175065000, 9, 1.86, -33.7840396, 151.0681991, 0.88, 92.44, 1.82, 336.83
CTUN, 673, 0.00, 0.71, 0.000000, 0.00, 13, -107, 675, 0
ATT, 5.53, 4.71, 4.80, 10.52, 0.00, 54.17, 59.00
DU32, 7, 8569
CURR, 677, 108832, 1068, 1532, 4732, 75.00423
CTUN, 677, 0.00, 0.56, 0.000000, 0.00, 10, -100, 687, 0
ATT, 5.07, 4.31, 3.16, 9.03, 0.00, 54.20, 59.00
GPS, 3, 175065200, 9, 1.86, -33.7840379, 151.0681970, 0.66, 92.06, 1.51, 331.81
CTUN, 687, 0.00, 0.60, 0.000000, 0.00, 7, -89, 690, 0
ATT, 4.84, 4.14, 3.04, 7.46, 0.00, 54.18, 59.00
CTUN, 686, 0.00, 0.47, 0.000000, 0.00, 6, -77, 691, 0
GPS, 3, 175065400, 9, 1.86, -33.7840365, 151.0681956, 0.50, 91.68, 1.18, 327.26
ATT, 7.15, 4.32, 3.51, 6.19, 0.00, 54.16, 59.00
CTUN, 687, 0.00, 0.46, 0.000000, 0.00, 4, -60, 691, 0
ATT, 7.50, 5.26, 3.75, 5.48, 0.00, 54.07, 59.00
CTUN, 700, 0.00, 0.38, 0.000000, 0.00, 5, -46, 704, 0
GPS, 3, 175065600, 9, 1.86, -33.7840356, 151.0681942, 0.39, 91.30, 0.93, 321.60
CTUN, 700, 0.00, 0.40, 0.000000, 0.00, 4, -30, 704, 0
ATT, 7.50, 5.67, 3.51, 4.96, 0.00, 53.84, 59.00
CTUN, 700, 0.00, 0.28, 0.000000, 0.00, 4, -17, 704, 0
ATT, 7.26, 5.70, 3.98, 4.73, 0.00, 53.55, 59.00
GPS, 3, 175065800, 8, 2.17, -33.7840358, 151.0681937, 0.35, 91.11, 0.43, 321.60
CTUN, 703, 0.00, 0.16, 0.000000, 0.00, 4, -2, 704, 0
ATT, 7.38, 5.51, 4.45, 4.68, 0.00, 53.20, 59.00
CTUN, 702, 0.00, 0.32, 0.000000, 0.00, 4, 10, 706, 0
ATT, 8.76, 5.60, 5.27, 4.92, 0.00, 52.95, 59.00
GPS, 3, 175066000, 8, 2.17, -33.7840356, 151.0681923, 0.35, 91.26, 0.53, 317.62
CTUN, 702, 0.00, 0.41, 0.000000, 0.00, 5, 19, 707, 0
ATT, 10.03, 5.94, 5.97, 5.40, 0.00, 52.84, 59.00
DU32, 7, 8569
CURR, 701, 115120, 1054, 1673, 4712, 79.55844
CTUN, 700, 0.00, 0.26, 0.000000, 0.00, 5, 34, 706, 0
ATT, 9.92, 6.23, 5.97, 5.79, 0.00, 52.84, 59.00
GPS, 3, 175066200, 9, 1.86, -33.7840359, 151.0681920, 0.42, 91.28, 0.14, 317.62
CTUN, 679, 0.00, 0.25, 0.000000, 0.00, 6, 51, 685, 0
ATT, 10.96, 6.33, 5.97, 6.17, 0.00, 52.93, 59.00
CTUN, 669, 0.00, 0.44, 0.000000, 0.00, 6, 59, 675, 0
GPS, 3, 175066400, 9, 1.86, -33.7840368, 151.0681923, 0.51, 91.20, 0.28, 317.62
ATT, 11.07, 6.72, 5.74, 6.25, 0.00, 52.97, 59.00
CTUN, 649, 0.00, 0.49, 0.000000, 0.00, 6, 67, 655, 0
ATT, 9.23, 6.82, 4.68, 5.97, 0.00, 52.93, 59.00
CTUN, 648, 0.00, 0.53, 0.000000, 0.00, 6, 70, 655, 0
GPS, 3, 175066600, 9, 1.86, -33.7840368, 151.0681917, 0.65, 90.99, 0.25, 317.62
CTUN, 635, 0.00, 0.68, 0.000000, 0.00, 5, 73, 643, 0
ATT, 7.50, 5.86, 3.04, 5.27, 0.00, 52.82, 59.00
CTUN, 619, 0.00, 0.76, 0.000000, 0.00, 3, 74, 631, 0
ATT, 4.84, 4.81, 1.05, 3.92, 0.00, 52.61, 59.00
GPS, 3, 175066800, 9, 1.86, -33.7840375, 151.0681916, 0.79, 90.72, 0.31, 317.62
CTUN, 607, 0.00, 0.76, 0.000000, 0.00, 1, 74, 608, 0
ATT, 4.26, 3.09, 0.23, 1.97, 0.00, 52.43, 59.00
CTUN, 607, 0.00, 1.06, 0.000000, 0.00, 0, 70, 607, 0
ATT, 5.65, 2.73, 0.00, 0.71, 0.00, 52.39, 59.00
GPS, 3, 175067000, 8, 2.17, -33.7840388, 151.0681923, 0.94, 90.55, 0.57, 317.62
CTUN, 606, 0.00, 0.94, 0.000000, 0.00, 0, 67, 604, 0
ATT, 8.30, 2.99, 0.23, -0.04, 0.00, 52.35, 59.00
DU32, 7, 8569
CURR, 606, 120955, 1073, 1313, 4732, 83.66702
CTUN, 606, 0.00, 1.13, 0.000000, 0.00, 0, 63, 606, 0
ATT, 9.92, 4.66, 0.82, -0.15, 0.00, 52.30, 59.00
GPS, 3, 175067200, 9, 1.86, -33.7840394, 151.0681928, 1.07, 90.11, 0.45, 317.62
CTUN, 606, 0.00, 1.17, 0.000000, 0.00, 1, 58, 607, 0
ATT, 10.15, 6.10, 1.40, 0.36, 0.00, 52.27, 59.00
CTUN, 606, 0.00, 1.17, 0.000000, 0.00, 2, 55, 607, 0
GPS, 3, 175067400, 9, 1.86, -33.7840409, 151.0681950, 1.19, 89.60, 0.97, 317.62
ATT, 10.03, 7.01, 3.63, 1.58, 0.00, 52.45, 59.00
CTUN, 606, 0.00, 1.23, 0.000000, 0.00, 3, 51, 609, 0
ATT, 8.42, 7.01, 6.67, 2.87, 0.00, 52.73, 59.00
CTUN, 607, 0.00, 1.29, 0.000000, 0.00, 4, 49, 608, 0
GPS, 3, 175067600, 8, 2.00, -33.7840425, 151.0681990, 1.29, 89.42, 1.60, 90.56
CTUN, 605, 0.00, 1.37, 0.000000, 0.00, 4, 44, 609, 0
ATT, 2.65, 5.92, 10.78, 5.23, 0.00, 53.27, 59.00
CTUN, 605, 0.00, 1.41, 0.000000, 0.00, 5, 41, 610, 0
ATT, 0.00, 3.08, 13.35, 8.31, 0.00, 53.84, 59.00
GPS, 3, 175067800, 7, 2.59, -33.7840430, 151.0682032, 1.38, 88.95, 1.82, 94.17
CTUN, 605, 0.00, 1.52, 0.000000, 0.00, 9, 36, 614, 0
ATT, 0.00, -0.44, 14.41, 11.88, 0.00, 54.42, 59.00
CTUN, 605, 0.00, 1.62, 0.000000, 0.00, 13, 31, 618, 0
ATT, 0.00, -1.68, 14.88, 14.26, 0.00, 54.94, 59.00
GPS, 3, 175068000, 7, 2.59, -33.7840408, 151.0682071, 1.45, 88.52, 1.91, 84.77
CTUN, 605, 0.00, 1.77, 0.000000, 0.00, 18, 26, 623, 0
ATT, 0.00, -2.57, 15.23, 15.76, 0.00, 55.62, 59.00
DU32, 7, 8569
CURR, 606, 127071, 1076, 1355, 4712, 87.65617
CTUN, 606, 0.00, 1.65, 0.000000, 0.00, 20, 22, 626, 0
PM, 0, 0, 50, 0, 1000, 10468, 10, 4
ATT, 0.00, -3.03, 16.64, 16.24, 0.00, 56.22, 59.00
GPS, 3, 175068200, 6, 3.06, -33.7840381, 151.0682087, 1.54, 88.15, 1.65, 71.28
CTUN, 606, 0.00, 1.68, 0.000000, 0.00, 20, 18, 626, 0
ATT, -0.58, -2.39, 17.34, 17.16, 0.00, 56.80, 59.00
CTUN, 606, 0.00, 1.67, 0.000000, 0.00, 23, 15, 629, 0
ATT, -2.32, -2.08, 17.10, 17.95, 0.00, 57.22, 59.00
GPS, 3, 175068400, 7, 2.34, -33.7840349, 151.0682056, 1.58, 87.76, 1.46, 71.28
CTUN, 606, 0.00, 1.79, 0.000000, 0.00, 25, 11, 631, 0
ATT, -5.11, -2.72, 16.75, 18.18, 0.00, 57.55, 59.00
CTUN, 606, 0.00, 1.80, 0.000000, 0.00, 25, 8, 631, 0
GPS, 3, 175068600, 7, 2.34, -33.7840375, 151.0682055, 1.62, 87.49, 0.14, 71.28
ATT, -5.69, -4.23, 16.05, 17.48, 0.00, 57.87, 59.00
CTUN, 604, 0.00, 1.72, 0.000000, 0.00, 24, 3, 628, 0
ATT, -6.74, -4.58, 14.06, 16.07, 0.00, 58.24, 59.00
CTUN, 604, 0.00, 1.89, 0.000000, 0.00, 21, 0, 625, 0
GPS, 3, 175068800, 7, 2.34, -33.7840399, 151.0682056, 1.65, 87.57, 0.60, 71.28
CTUN, 604, 0.00, 1.92, 0.000000, 0.00, 16, -1, 620, 0
ATT, -7.09, -6.02, 6.91, 13.30, 0.00, 58.64, 59.00
CTUN, 604, 0.00, 1.69, 0.000000, 0.00, 11, -4, 615, 0
ATT, -7.09, -6.53, 3.75, 8.82, 0.00, 58.95, 59.00
GPS, 3, 175069000, 7, 2.34, -33.7840419, 151.0682041, 1.66, 87.70, 0.89, 148.77
CTUN, 604, 0.00, 1.84, 0.000000, 0.00, 5, -4, 609, 0
ATT, -8.83, -6.87, 1.40, 3.74, 0.00, 58.86, 59.00
DU32, 7, 8569
CURR, 604, 132674, 1074, 1296, 4752, 91.38992
CTUN, 604, 0.00, 1.83, 0.000000, 0.00, 4, -5, 608, 0
ATT, -8.83, -7.68, 1.87, 0.91, 0.00, 58.51, 59.00
GPS, 3, 175069200, 7, 2.34, -33.7840431, 151.0682006, 1.67, 87.88, 1.36, 219.74
CTUN, 604, 0.00, 1.88, 0.000000, 0.00, 4, -6, 608, 0
ATT, -9.88, -8.34, 2.57, -0.02, 0.00, 57.77, 59.00
CTUN, 604, 0.00, 1.84, 0.000000, 0.00, 5, -7, 609, 0
ATT, -10.11, -8.60, 3.51, 0.11, 0.00, 57.00, 59.00
GPS, 3, 175069400, 7, 2.34, -33.7840453, 151.0681982, 1.68, 87.52, 1.66, 227.23
CTUN, 604, 0.00, 1.87, 0.000000, 0.00, 5, -9, 609, 0
ATT, -11.04, -8.29, 4.45, 0.86, 0.00, 56.21, 59.00
CTUN, 603, 0.00, 1.85, 0.000000, 0.00, 5, -10, 609, 0
GPS, 3, 175069600, 7, 2.34, -33.7840468, 151.0681971, 1.68, 87.80, 0.92, 226.35
ATT, -11.27, -8.08, 4.57, 2.03, 0.00, 55.46, 59.00
CTUN, 604, 0.00, 1.84, 0.000000, 0.00, 5, -11, 609, 0
ATT, -11.27, -7.92, 4.80, 2.64, 0.00, 55.09, 59.00
CTUN, 604, 0.00, 1.77, 0.000000, 0.00, 5, -12, 609, 0
GPS, 3, 175069800, 7, 2.34, -33.7840468, 151.0681958, 1.67, 87.76, 0.71, 244.87
CTUN, 604, 0.00, 1.79, 0.000000, 0.00, 5, -13, 609, 0
ATT, -10.93, -7.81, 4.21, 3.48, 0.00, 54.87, 59.00
CTUN, 604, 0.00, 1.76, 0.000000, 0.00, 5, -15, 609, 0
ATT, -8.60, -7.70, 1.52, 3.78, 0.00, 54.82, 59.00
GPS, 3, 175070000, 7, 2.34, -33.7840466, 151.0681947, 1.65, 87.95, 0.67, 281.62
CTUN, 606, 0.00, 1.83, 0.000000, 0.00, 4, -17, 608, 0
ATT, -5.46, -5.99, 0.00, 2.43, 0.00, 54.88, 59.00
DU32, 7, 8569
CURR, 604, 138150, 1073, 1316, 4732, 95.03448
CTUN, 604, 0.00, 1.82, 0.000000, 0.00, 2, -18, 605, 0
ATT, -3.37, -4.17, 0.00, 1.07, 0.00, 54.85, 59.00
GPS, 3, 175070200, 7, 2.34, -33.7840461, 151.0681936, 1.64, 88.09, 0.84, 299.14
CTUN, 603, 0.00, 1.83, 0.000000, 0.00, 1, -18, 605, 0
ATT, -1.62, -2.22, 0.00, 0.65, 0.00, 54.77, 59.00
CTUN, 607, 0.00, 1.66, 0.000000, 0.00, 0, -20, 603, 0
ATT, 0.00, -0.32, 0.00, 0.60, 0.00, 54.79, 59.00
GPS, 3, 175070400, 7, 2.34, -33.7840453, 151.0681927, 1.61, 88.16, 1.02, 313.57
CTUN, 604, 0.00, 1.63, 0.000000, 0.00, 0, -21, 606, 0
ATT, 0.00, 1.15, 0.00, 0.73, 0.00, 54.92, 59.00
CTUN, 604, 0.00, 1.61, 0.000000, 0.00, 0, -22, 604, 0
GPS, 3, 175070600, 7, 2.34, -33.7840439, 151.0681924, 1.57, 88.21, 1.18, 334.78
ATT, 0.00, 1.75, 0.00, 1.04, 0.00, 55.17, 59.00
CTUN, 604, 0.00, 1.55, 0.000000, 0.00, 0, -24, 604, 0
ATT, 0.00, 1.94, 0.00, 1.37, 0.00, 55.44, 59.00
CTUN, 604, 0.00, 1.69, 0.000000, 0.00, 0, -25, 604, 0
GPS, 3, 175070800, 7, 2.34, -33.7840424, 151.0681920, 1.53, 88.28, 1.35, 340.66
CTUN, 604, 0.00, 1.55, 0.000000, 0.00, 0, -28, 604, 0
ATT, 0.00, 1.80, 0.00, 1.90, 0.00, 55.78, 59.00
CTUN, 604, 0.00, 1.61, 0.000000, 0.00, 0, -29, 604, 0
ATT, 0.00, 1.63, 0.00, 2.19, 0.00, 56.04, 59.00
GPS, 3, 175071000, 7, 2.34, -33.7840408, 151.0681921, 1.48, 88.36, 1.35, 348.82
CTUN, 604, 0.00, 1.48, 0.000000, 0.00, 0, -31, 604, 0
ATT, 0.00, 1.53, 0.00, 2.37, 0.00, 56.32, 59.00
DU32, 7, 8569
CURR, 604, 143588, 1076, 1294, 4712, 98.63043
CTUN, 604, 0.00, 1.49, 0.000000, 0.00, 0, -31, 604, 0
ATT, 0.00, 1.40, 0.00, 2.48, 0.00, 56.60, 59.00
GPS, 3, 175071200, 9, 1.86, -33.7840388, 151.0681927, 1.42, 88.14, 1.35, 354.82
CTUN, 604, 0.00, 1.43, 0.000000, 0.00, 0, -32, 604, 0
ATT, 0.00, 1.25, 0.00, 2.77, 0.00, 56.96, 59.00
CTUN, 606, 0.00, 1.31, 0.000000, 0.00, 0, -34, 604, 0
ATT, 0.00, 0.97, 0.00, 2.75, 0.00, 57.31, 59.00
