dump 2

ArduCopter V3.1-rc3.1
Free RAM: 1138
APM 2
FMT, 128, 89, FMT, BBnNZ, Type,Length,Name,Format
FMT, 129, 23, PARM, Nf, Name,Value
FMT, 130, 35, GPS, BIBcLLeeEe, Status,Time,NSats,HDop,Lat,Lng,RelAlt,Alt,Spd,GCrs
FMT, 131, 27, IMU, ffffff, GyrX,GyrY,GyrZ,AccX,AccY,AccZ
FMT, 132, 67, MSG, Z, Message
FMT, 9, 19, CURR, hIhhhf, Thr,ThrInt,Volt,Curr,Vcc,CurrTot
FMT, 11, 11, MOT, hhhh, Mot1,Mot2,Mot3,Mot4
FMT, 12, 28, OF, hhBccffee, Dx,Dy,SQual,X,Y,Lat,Lng,Roll,Pitch
FMT, 5, 49, NTUN, Ecffffffffee, WPDst,WPBrg,PErX,PErY,DVelX,DVelY,VelX,VelY,DAcX,DAcY,DRol,DPit
FMT, 4, 25, CTUN, hcefchhhh, ThrIn,SonAlt,BarAlt,WPAlt,DesSonAlt,AngBst,CRate,ThrOut,DCRate
FMT, 15, 21, MAG, hhhhhhhhh, MagX,MagY,MagZ,OfsX,OfsY,OfsZ,MOfsX,MOfsY,MOfsZ
FMT, 6, 17, PM, BBBHHIhB, RenCnt,RenBlw,FixCnt,NLon,NLoop,MaxT,PMT,I2CErr
FMT, 8, 20, CMD, BBBBBeLL, CTot,CNum,CId,COpt,Prm1,Alt,Lat,Lng
FMT, 1, 17, ATT, cccccCC, RollIn,Roll,PitchIn,Pitch,YawIn,Yaw,NavYaw
FMT, 17, 37, INAV, cccfffiiff, BAlt,IAlt,IClb,ACorrX,ACorrY,ACorrZ,GLat,GLng,ILat,ILng
FMT, 3, 6, MODE, Mh, Mode,ThrCrs
FMT, 10, 3, STRT, , 
FMT, 13, 4, EV, B, Id
FMT, 20, 6, D16, Bh, Id,Value
FMT, 21, 6, DU16, BH, Id,Value
FMT, 22, 8, D32, Bi, Id,Value
FMT, 23, 8, DU32, BI, Id,Value
FMT, 24, 8, DFLT, Bf, Id,Value
FMT, 14, 28, PID, Biiiiif, Id,Error,P,I,D,Out,Gain
FMT, 18, 25, CAM, ILLeccC, GPSTime,Lat,Lng,Alt,Roll,Pitch,Yaw
FMT, 19, 5, ERR, BB, Subsys,ECode
D32, 9, 7015
CMD, 6, 0, 16, 0, 0, 0.00, -33.7840503, 151.0681911
EV, 10
GPS, 3, 369238200, 10, 1.64, -33.7840500, 151.0681911, 0.16, 93.85, 0.02, 323.28
CTUN, 178, 0.00, 0.03, 0.000000, 0.00, 0, 1, 0, 0
EV, 15
GPS, 3, 369245400, 10, 1.64, -33.7840502, 151.0681876, 0.16, 94.36, 0.02, 323.28
EV, 28
ATT, 0.00, 0.26, 0.00, 1.07, 0.00, 70.19, 70.18
CTUN, 177, 0.00, 0.06, 0.000000, 0.00, 0, 1, 177, 0
ATT, 0.00, 0.27, 0.00, 1.07, 0.00, 70.15, 70.18
CTUN, 176, 0.00, 0.05, 0.000000, 0.00, 0, 0, 176, 0
GPS, 3, 369245600, 10, 1.64, -33.7840502, 151.0681875, 0.15, 94.38, 0.04, 323.28
ATT, 0.00, 0.31, 0.00, 1.09, 0.00, 70.11, 70.18
CTUN, 176, 0.00, -0.13, 0.000000, 0.00, 0, 0, 176, 0
ATT, 0.00, 0.33, 0.00, 1.08, 0.00, 70.11, 70.18
CTUN, 178, 0.00, -0.47, 0.000000, 0.00, 0, 0, 177, 0
GPS, 3, 369245800, 10, 1.64, -33.7840502, 151.0681874, 0.12, 94.40, 0.02, 323.28
ATT, 0.00, 0.34, 0.00, 1.08, 0.00, 70.10, 70.18
CTUN, 177, 0.00, -0.56, 0.000000, 0.00, 0, 0, 176, 0
ATT, 0.00, 0.32, 0.00, 1.07, 0.00, 70.12, 70.18
GPS, 3, 369246000, 10, 1.64, -33.7840502, 151.0681874, 0.06, 94.41, 0.01, 323.28
CTUN, 177, 0.00, -0.49, 0.000000, 0.00, 0, 0, 177, 0
ATT, 0.00, 0.31, 0.00, 1.12, 0.00, 70.13, 70.18
PM, 0, 0, 52, 16, 1000, 7329904, 17, 4
CTUN, 177, 0.00, -0.33, 0.000000, 0.00, 0, -1, 177, 0
DU32, 7, 8313
CURR, 179, 1237, 1212, 269, 4752, 0.620774
ATT, 0.00, 0.32, 0.00, 1.10, 0.00, 70.12, 70.18
GPS, 3, 369246200, 10, 1.64, -33.7840502, 151.0681874, -0.01, 94.42, 0.01, 323.28
CTUN, 177, 0.00, -0.52, 0.000000, 0.00, 0, -2, 178, 0
ATT, 0.00, 0.32, 0.00, 1.09, 0.00, 70.15, 70.18
CTUN, 177, 0.00, -0.36, 0.000000, 0.00, 0, -3, 177, 0
ATT, 0.00, 0.31, 0.00, 1.06, 0.00, 70.16, 70.18
GPS, 3, 369246400, 10, 1.64, -33.7840502, 151.0681873, -0.06, 94.44, 0.02, 323.28
CTUN, 178, 0.00, -0.52, 0.000000, 0.00, 0, -3, 177, 0
ATT, 0.00, 0.34, 0.00, 1.10, 0.00, 70.19, 70.18
CTUN, 177, 0.00, -0.50, 0.000000, 0.00, 0, -4, 177, 0
ATT, 0.00, 0.32, 0.00, 1.11, 0.00, 70.19, 70.18
GPS, 3, 369246600, 10, 1.64, -33.7840503, 151.0681872, -0.12, 94.47, 0.00, 323.28
CTUN, 178, 0.00, -0.40, 0.000000, 0.00, 0, -4, 178, 0
ATT, 0.00, 0.32, 0.00, 1.11, 0.00, 70.20, 70.18
CTUN, 178, 0.00, -0.52, 0.000000, 0.00, 0, -4, 177, 0
ATT, 0.00, 0.32, 0.00, 1.13, 0.00, 70.21, 70.18
GPS, 3, 369246800, 10, 1.64, -33.7840503, 151.0681872, -0.17, 94.49, 0.03, 323.28
CTUN, 177, 0.00, -0.56, 0.000000, 0.00, 0, -5, 177, 0
ATT, 0.00, 0.35, 0.00, 1.15, 0.00, 70.21, 70.18
CTUN, 177, 0.00, -0.36, 0.000000, 0.00, 0, -6, 178, 0
ATT, 0.00, 0.35, 0.00, 1.14, 0.00, 70.24, 70.18
GPS, 3, 369247000, 10, 1.64, -33.7840503, 151.0681871, -0.22, 94.50, 0.00, 323.28
CTUN, 177, 0.00, -0.45, 0.000000, 0.00, 0, -6, 177, 0
ATT, 0.00, 0.34, 0.00, 1.13, 0.00, 70.21, 70.18
CTUN, 177, 0.00, -0.39, 0.000000, 0.00, 0, -6, 177, 0
DU32, 7, 8313
CURR, 176, 3010, 1209, 269, 4732, 1.409047
GPS, 3, 369247200, 10, 1.64, -33.7840502, 151.0681871, -0.25, 94.53, 0.01, 323.28
ATT, 0.00, 0.34, 0.00, 1.16, 0.00, 70.22, 70.18
CTUN, 178, 0.00, -0.33, 0.000000, 0.00, 0, -6, 178, 0
ATT, 0.00, 0.34, 0.00, 1.15, 0.00, 70.22, 70.18
CTUN, 178, 0.00, -0.30, 0.000000, 0.00, 0, -7, 178, 0
GPS, 3, 369247400, 9, 1.82, -33.7840502, 151.0681871, -0.28, 94.53, 0.02, 323.28
ATT, 0.00, 0.32, 0.00, 1.13, 0.00, 70.26, 70.18
CTUN, 176, 0.00, -0.17, 0.000000, 0.00, 0, -6, 176, 0
ATT, 0.00, 0.32, 0.00, 1.13, 0.00, 70.26, 70.18
CTUN, 178, 0.00, -0.26, 0.000000, 0.00, 0, -6, 176, 0
GPS, 3, 369247600, 10, 1.64, -33.7840501, 151.0681870, -0.28, 94.56, 0.01, 323.28
CTUN, 178, 0.00, -0.48, 0.000000, 0.00, 0, -6, 178, 0
ATT, 0.00, 0.34, 0.00, 1.15, 0.00, 70.25, 70.18
CTUN, 177, 0.00, -0.31, 0.000000, 0.00, 0, -7, 176, 0
ATT, 0.00, 0.32, 0.00, 1.14, 0.00, 70.28, 70.18
GPS, 3, 369247800, 10, 1.64, -33.7840500, 151.0681869, -0.31, 94.58, 0.02, 323.28
CTUN, 177, 0.00, -0.33, 0.000000, 0.00, 0, -7, 177, 0
ATT, 0.00, 0.35, 0.00, 1.17, 0.00, 70.28, 70.18
CTUN, 178, 0.00, -0.32, 0.000000, 0.00, 0, -7, 177, 0
ATT, 0.00, 0.35, 0.00, 1.15, 0.00, 70.30, 70.18
GPS, 3, 369248000, 10, 1.64, -33.7840500, 151.0681869, -0.32, 94.60, 0.01, 323.28
CTUN, 177, 0.00, -0.33, 0.000000, 0.00, 0, -7, 177, 0
ATT, 0.00, 0.34, 0.00, 1.13, 0.00, 70.30, 70.18
CTUN, 177, 0.00, -0.24, 0.000000, 0.00, 0, -6, 177, 0
ATT, 0.00, 0.34, 0.00, 1.13, 0.00, 70.32, 70.18
DU32, 7, 8313
CURR, 177, 4606, 1207, 276, 4772, 2.145514
GPS, 3, 369248200, 10, 1.64, -33.7840500, 151.0681868, -0.34, 94.61, 0.01, 323.28
CTUN, 177, 0.00, -0.23, 0.000000, 0.00, 0, -6, 178, 0
ATT, 0.00, 0.35, 0.00, 1.12, 0.00, 70.31, 70.18
CTUN, 177, 0.00, -0.29, 0.000000, 0.00, 0, -7, 177, 0
ATT, 0.00, 0.34, 0.00, 1.13, 0.00, 70.32, 70.18
GPS, 3, 369248400, 10, 1.64, -33.7840499, 151.0681867, -0.34, 94.62, 0.02, 323.28
CTUN, 177, 0.00, -0.26, 0.000000, 0.00, 0, -6, 177, 0
ATT, 0.00, 0.34, 0.00, 1.13, 0.00, 70.34, 70.18
CTUN, 178, 0.00, -0.48, 0.000000, 0.00, 0, -6, 178, 0
GPS, 3, 369248600, 10, 1.64, -33.7840499, 151.0681867, -0.35, 94.62, 0.01, 323.28
ATT, 0.00, 0.34, 0.00, 1.13, 0.00, 70.34, 70.18
CTUN, 176, 0.00, -0.47, 0.000000, 0.00, 0, -7, 177, 0
ATT, 0.00, 0.36, 0.00, 1.16, 0.00, 70.35, 70.18
CTUN, 177, 0.00, -0.33, 0.000000, 0.00, 0, -7, 176, 0
GPS, 3, 369248800, 10, 1.64, -33.7840499, 151.0681866, -0.38, 94.64, 0.01, 323.28
ATT, 0.00, 0.35, 0.00, 1.15, 0.00, 70.34, 70.18
CTUN, 176, 0.00, -0.32, 0.000000, 0.00, 0, -7, 177, 0
ATT, 0.00, 0.35, 0.00, 1.11, 0.00, 70.37, 70.18
CTUN, 177, 0.00, -0.40, 0.000000, 0.00, 0, -7, 176, 0
GPS, 3, 369249000, 10, 1.64, -33.7840498, 151.0681864, -0.39, 94.65, 0.02, 323.28
ATT, 0.00, 0.39, 0.00, 1.12, 0.00, 70.37, 70.18
CTUN, 177, 0.00, -0.33, 0.000000, 0.00, 0, -7, 177, 0
ATT, 0.00, 0.38, 0.00, 1.17, 0.00, 70.38, 70.18
CTUN, 179, 0.00, -0.31, 0.000000, 0.00, 0, -7, 177, 0
GPS, 3, 369249200, 10, 1.64, -33.7840498, 151.0681863, -0.40, 94.66, 0.02, 323.28
DU32, 7, 8313
CURR, 179, 6379, 1208, 277, 4772, 2.967459
CTUN, 180, 0.00, -0.37, 0.000000, 0.00, 0, -7, 180, 0
ATT, 0.00, 0.37, 0.00, 1.09, 0.00, 70.40, 70.18
CTUN, 192, 0.00, -0.34, 0.000000, 0.00, 0, -7, 189, 0
ATT, 0.00, 0.40, 0.00, 1.08, 0.00, 70.40, 70.18
GPS, 3, 369249400, 9, 1.82, -33.7840498, 151.0681864, -0.41, 94.65, 0.03, 323.28
CTUN, 221, 0.00, -0.35, 0.000000, 0.00, 0, -8, 221, 0
ATT, 0.00, 0.37, 0.00, 1.08, 0.00, 70.42, 70.18
EV, 16
CTUN, 276, 0.00, -0.62, 0.000000, 0.00, 0, -8, 276, 0
ATT, 0.00, 0.42, 0.00, 1.08, 0.00, 70.38, 70.18
GPS, 3, 369249600, 10, 1.64, -33.7840497, 151.0681862, -0.42, 94.67, 0.03, 323.28
CTUN, 309, 0.00, -0.53, 0.000000, 0.00, 0, -7, 288, 0
ATT, 0.00, 0.45, 0.00, 1.14, 0.00, 70.41, 70.18
CTUN, 316, 0.00, -0.59, 0.000000, 0.00, 0, -8, 313, 0
GPS, 3, 369249800, 9, 1.82, -33.7840497, 151.0681863, -0.46, 94.66, 0.05, 323.28
ATT, 0.00, 0.41, 0.00, 1.11, 0.00, 70.40, 70.18
CTUN, 320, 0.00, -0.80, 0.000000, 0.00, 0, -8, 321, 0
ATT, 0.00, 0.36, 0.00, 1.04, 0.00, 70.41, 70.18
CTUN, 319, 0.00, -0.78, 0.000000, 0.00, 0, -9, 320, 0
GPS, 3, 369250000, 9, 1.82, -33.7840497, 151.0681862, -0.51, 94.65, 0.02, 323.28
ATT, 0.00, 0.42, 0.00, 1.11, 0.00, 70.37, 70.18
CTUN, 328, 0.00, -0.93, 0.000000, 0.00, 0, -10, 326, 0
ATT, 0.00, 0.46, 0.00, 1.14, 0.00, 70.37, 70.18
CTUN, 396, 0.00, -0.90, 0.000000, 0.00, 0, -10, 396, 0
GPS, 3, 369250200, 9, 1.82, -33.7840498, 151.0681862, -0.56, 94.65, 0.00, 323.28
DU32, 7, 8569
CURR, 473, 9019, 1184, 719, 4752, 4.338051
ATT, 0.00, 0.28, 0.00, 0.92, 0.00, 70.35, 70.18
CTUN, 482, 0.00, -0.93, 0.000000, 0.00, 0, -11, 482, 0
ATT, 0.00, 0.11, 0.00, 0.74, 0.00, 70.09, 70.18
CTUN, 539, 0.00, -1.30, 0.000000, 0.00, 0, -11, 523, 0
GPS, 3, 369250400, 9, 1.82, -33.7840498, 151.0681861, -0.62, 94.64, 0.01, 323.28
CTUN, 567, 0.00, -1.50, 0.000000, 0.00, 0, -8, 567, 0
ATT, 0.00, -0.75, 0.00, 0.92, 0.00, 68.92, 70.18
CTUN, 574, 0.00, -1.29, 0.000000, 0.00, 0, 0, 574, 0
ATT, 0.00, -0.68, 0.00, 1.01, 0.00, 67.10, 70.18
GPS, 3, 369250600, 9, 1.82, -33.7840498, 151.0681860, -0.74, 94.63, 0.02, 323.28
CTUN, 605, 0.00, -1.09, 0.000000, 0.00, 0, 12, 605, 0
ATT, 0.00, -0.33, 0.00, 1.44, 0.00, 64.55, 70.18
CTUN, 605, 0.00, -0.58, 0.000000, 0.00, 0, 26, 605, 0
ATT, 0.00, 0.48, 0.00, 1.81, 0.00, 62.35, 70.18
GPS, 3, 369250800, 9, 1.82, -33.7840498, 151.0681860, -0.73, 94.64, 0.01, 323.28
CTUN, 605, 0.00, -0.21, 0.000000, 0.00, 0, 40, 605, 0
ATT, 0.00, 0.61, 0.00, 2.24, 0.00, 60.36, 70.18
CTUN, 605, 0.00, -0.04, 0.000000, 0.00, 0, 51, 604, 0
ATT, 0.00, 0.53, -1.33, 1.85, 0.00, 58.56, 68.56
GPS, 3, 369251000, 9, 1.82, -33.7840495, 151.0681858, -0.59, 94.69, 0.15, 323.28
CTUN, 605, 0.00, 0.14, 0.000000, 0.00, 0, 61, 604, 0
ATT, 0.00, 0.21, -2.91, 0.78, 0.00, 56.87, 66.87
CTUN, 571, 0.00, 0.27, 0.000000, 0.00, 0, 68, 571, 0
ATT, 0.00, 0.14, -5.57, -0.69, 0.00, 55.38, 65.38
GPS, 3, 369251200, 10, 1.64, -33.7840500, 151.0681854, -0.38, 94.77, 0.32, 323.28
DU32, 7, 8569
CURR, 571, 14207, 1137, 1488, 4772, 7.909809
CTUN, 571, 0.00, 0.34, 0.000000, 0.00, 0, 68, 571, 0
ATT, 0.00, 0.30, -10.18, -2.84, 0.00, 54.12, 64.12
CTUN, 571, 0.00, 0.41, 0.000000, 0.00, 0, 68, 572, 0
GPS, 3, 369251400, 9, 1.81, -33.7840505, 151.0681847, -0.17, 94.90, 0.40, 323.28
ATT, 0.00, 0.62, -10.43, -5.97, 0.00, 53.00, 63.00
CTUN, 571, 0.00, 0.46, 0.000000, 0.00, 3, 66, 575, 0
ATT, 0.00, 0.46, -10.30, -7.81, 0.00, 52.10, 62.10
CTUN, 571, 0.00, 0.73, 0.000000, 0.00, 4, 65, 575, 0
GPS, 3, 369251600, 9, 1.81, -33.7840500, 151.0681849, 0.03, 95.04, 0.13, 323.28
ATT, 0.00, 1.19, -9.82, -8.61, 3.72, 51.16, 61.16
CTUN, 571, 0.00, 0.66, 0.000000, 0.00, 5, 65, 575, 0
ATT, 0.00, 1.84, -9.09, -8.60, 9.72, 51.04, 61.04
CTUN, 571, 0.00, 0.88, 0.000000, 0.00, 5, 66, 576, 0
GPS, 3, 369251800, 9, 1.81, -33.7840500, 151.0681848, 0.24, 95.15, 0.03, 323.28
ATT, 0.00, 3.00, -8.24, -7.63, 10.20, 52.25, 62.25
CTUN, 571, 0.00, 0.93, 0.000000, 0.00, 4, 70, 575, 0
ATT, 0.00, 3.18, -7.52, -6.67, 10.56, 54.09, 64.09
CTUN, 570, 0.00, 1.01, 0.000000, 0.00, 3, 72, 574, 0
GPS, 3, 369252000, 9, 1.81, -33.7840496, 151.0681847, 0.45, 95.37, 0.10, 323.28
ATT, 0.00, 2.53, -6.42, -5.91, 3.00, 56.63, 66.50
CTUN, 571, 0.00, 1.11, 0.000000, 0.00, 2, 72, 573, 0
ATT, 0.00, 1.22, -5.70, -5.87, 2.04, 58.25, 67.50
GPS, 3, 369252200, 10, 1.76, -33.7840495, 151.0681854, 0.63, 95.57, 0.37, 323.28
CTUN, 571, 0.00, 1.12, 0.000000, 0.00, 2, 71, 573, 0
DU32, 7, 8569
CURR, 571, 19946, 1137, 1345, 4732, 12.03909
ATT, 0.00, 0.83, -6.54, -5.12, 0.12, 59.23, 67.74
CTUN, 572, 0.00, 1.19, 0.000000, 0.00, 1, 73, 572, 0
ATT, 0.00, 1.45, -8.24, -4.62, 0.00, 59.50, 67.74
GPS, 3, 369252400, 10, 1.76, -33.7840489, 151.0681861, 0.86, 95.75, 0.39, 6.73
CTUN, 570, 0.00, 1.17, 0.000000, 0.00, 1, 75, 571, 0
ATT, 0.00, 1.70, -7.52, -4.89, 0.00, 59.74, 67.74
CTUN, 572, 0.00, 1.37, 0.000000, 0.00, 1, 78, 571, 0
ATT, 0.00, 1.52, -4.12, -4.59, 0.00, 59.96, 67.74
GPS, 3, 369252600, 10, 1.76, -33.7840487, 151.0681875, 1.06, 95.90, 0.67, 51.94
CTUN, 572, 0.00, 1.47, 0.000000, 0.00, 1, 81, 573, 0
ATT, 0.00, 0.52, 0.00, -2.30, 0.00, 60.03, 67.74
CTUN, 570, 0.00, 1.54, 0.000000, 0.00, 0, 83, 572, 0
GPS, 3, 369252800, 10, 1.76, -33.7840483, 151.0681888, 1.27, 96.08, 0.66, 64.97
ATT, 0.00, 0.53, 0.00, 0.76, 0.00, 59.86, 67.74
CTUN, 572, 0.00, 1.66, 0.000000, 0.00, 0, 85, 570, 0
ATT, 0.00, -0.10, -1.21, 1.89, 0.00, 59.67, 67.74
CTUN, 571, 0.00, 1.65, 0.000000, 0.00, 0, 82, 571, 0
GPS, 3, 369253000, 10, 1.76, -33.7840482, 151.0681899, 1.47, 96.26, 0.54, 70.40
CTUN, 558, 0.00, 1.85, 0.000000, 0.00, 0, 78, 558, 0
ATT, -1.04, -0.78, -3.76, 1.35, 0.00, 59.36, 67.74
CTUN, 534, 0.00, 1.75, 0.000000, 0.00, 0, 75, 536, 0
ATT, -2.09, -1.57, -4.48, -0.47, 0.00, 59.21, 67.74
GPS, 3, 369253200, 11, 1.59, -33.7840479, 151.0681911, 1.64, 96.41, 0.59, 70.41
CTUN, 534, 0.00, 1.83, 0.000000, 0.00, 0, 69, 534, 0
DU32, 7, 8569
CURR, 534, 25016, 1145, 1208, 4732, 15.72751
ATT, -3.13, -1.97, -5.21, -2.25, 0.00, 59.16, 67.74
CTUN, 534, 0.00, 1.81, 0.000000, 0.00, 0, 61, 534, 0
ATT, -2.44, -2.25, -5.82, -3.50, 0.00, 59.10, 67.74
GPS, 3, 369253400, 11, 1.59, -33.7840477, 151.0681923, 1.79, 96.51, 0.53, 71.94
CTUN, 529, 0.00, 2.03, 0.000000, 0.00, 1, 51, 534, 0
ATT, -0.23, -2.11, -5.94, -5.12, 0.00, 58.97, 67.74
CTUN, 525, 0.00, 2.02, 0.000000, 0.00, 1, 40, 526, 0
ATT, 0.00, -0.97, -5.82, -5.20, 0.00, 58.81, 67.74
GPS, 3, 369253600, 11, 1.59, -33.7840473, 151.0681933, 1.90, 96.63, 0.50, 68.02
CTUN, 525, 0.00, 2.06, 0.000000, 0.00, 1, 31, 525, 0
ATT, 0.00, 0.16, -5.70, -4.37, 0.00, 58.70, 67.74
CTUN, 529, 0.00, 1.96, 0.000000, 0.00, 1, 22, 526, 0
ATT, -0.81, -0.29, -5.94, -3.91, 0.00, 58.79, 67.74
GPS, 3, 369253800, 11, 1.59, -33.7840469, 151.0681947, 1.96, 96.67, 0.63, 66.16
CTUN, 527, 0.00, 1.90, 0.000000, 0.00, 0, 15, 529, 0
ATT, -1.74, -1.20, -5.94, -3.82, 0.00, 58.89, 67.74
CTUN, 529, 0.00, 1.95, 0.000000, 0.00, 0, 4, 528, 0
GPS, 3, 369254000, 11, 1.59, -33.7840465, 151.0681960, 1.97, 96.64, 0.63, 62.16
ATT, -1.62, -1.77, -4.97, -3.51, 0.00, 58.97, 67.74
CTUN, 529, 0.00, 1.92, 0.000000, 0.00, 0, -3, 527, 0
ATT, -2.20, -1.52, -4.24, -2.68, 0.00, 59.05, 67.74
CTUN, 549, 0.00, 1.98, 0.000000, 0.00, 0, -8, 537, 0
GPS, 3, 369254200, 11, 1.59, -33.7840461, 151.0681973, 1.96, 96.57, 0.69, 61.58
ATT, -3.02, -1.51, -3.51, -1.79, 0.00, 59.18, 67.74
DU32, 7, 8569
CURR, 555, 29784, 1139, 1210, 4772, 18.93131
CTUN, 565, 0.00, 1.96, 0.000000, 0.00, 0, -16, 555, 0
ATT, -2.20, -2.19, -2.66, -1.25, 0.00, 59.41, 67.74
CTUN, 565, 0.00, 1.91, 0.000000, 0.00, 0, -16, 563, 0
GPS, 3, 369254400, 11, 1.59, -33.7840456, 151.0681986, 1.93, 96.43, 0.73, 57.06
ATT, -1.74, -1.72, -1.33, -0.58, 0.00, 59.61, 67.74
CTUN, 574, 0.00, 1.84, 0.000000, 0.00, 0, -15, 567, 0
ATT, -1.74, -1.37, 0.00, 0.51, 0.00, 59.84, 67.74
CTUN, 591, 0.00, 1.84, 0.000000, 0.00, 0, -13, 591, 0
GPS, 3, 369254600, 11, 1.59, -33.7840451, 151.0681997, 1.89, 96.33, 0.59, 56.65
ATT, -1.74, -1.39, -0.36, 1.89, 0.00, 60.17, 67.74
CTUN, 591, 0.00, 1.90, 0.000000, 0.00, 0, -7, 591, 0
ATT, -1.39, -1.48, -0.36, 2.29, 0.00, 60.49, 67.74
CTUN, 590, 0.00, 1.98, 0.000000, 0.00, 0, -1, 590, 0
GPS, 3, 369254800, 11, 1.59, -33.7840444, 151.0682008, 1.88, 96.25, 0.71, 49.85
CTUN, 590, 0.00, 2.05, 0.000000, 0.00, 0, 1, 591, 0
ATT, -0.69, -1.33, -1.81, 2.29, 0.00, 60.93, 67.74
CTUN, 592, 0.00, 2.09, 0.000000, 0.00, 0, 2, 591, 0
ATT, 0.00, -0.70, -4.36, 1.07, 0.00, 61.39, 67.74
GPS, 3, 369255000, 11, 1.59, -33.7840437, 151.0682014, 1.90, 96.23, 0.52, 44.91
CTUN, 591, 0.00, 1.91, 0.000000, 0.00, 0, 2, 591, 0
ATT, -0.46, -0.68, -3.88, -0.63, 0.00, 61.86, 67.74
CTUN, 591, 0.00, 1.81, 0.000000, 0.00, 0, 2, 591, 0
GPS, 3, 369255200, 11, 1.59, -33.7840433, 151.0682018, 1.91, 96.18, 0.35, 40.32
ATT, -0.46, -0.62, -3.39, -1.02, 0.00, 62.29, 67.74
DU32, 7, 8569
CURR, 590, 35021, 1126, 1385, 4752, 22.71024
CTUN, 591, 0.00, 1.86, 0.000000, 0.00, 0, 2, 590, 0
ATT, -0.46, -0.80, -2.06, -1.18, 0.00, 62.58, 67.74
CTUN, 591, 0.00, 1.78, 0.000000, 0.00, 0, 3, 591, 0
GPS, 3, 369255400, 11, 1.59, -33.7840428, 151.0682020, 1.91, 96.15, 0.35, 31.56
ATT, -2.44, -0.60, 0.00, -1.25, 0.00, 62.72, 67.74
CTUN, 595, 0.00, 1.83, 0.000000, 0.00, 0, 4, 591, 0
ATT, -2.79, -1.27, 0.00, -0.41, 0.00, 62.70, 67.74
CTUN, 591, 0.00, 1.90, 0.000000, 0.00, 0, 8, 591, 0
GPS, 3, 369255600, 11, 1.59, -33.7840424, 151.0682022, 1.91, 96.10, 0.31, 28.72
ATT, -2.79, -1.50, 0.00, 0.01, 0.00, 62.41, 67.74
CTUN, 591, 0.00, 1.76, 0.000000, 0.00, 0, 10, 591, 0
ATT, -2.44, -1.73, 0.00, -0.13, 0.00, 62.00, 67.74
CTUN, 590, 0.00, 1.79, 0.000000, 0.00, 0, 11, 591, 0
GPS, 3, 369255800, 11, 1.59, -33.7840419, 151.0682022, 1.92, 96.08, 0.39, 16.62
CTUN, 591, 0.00, 1.85, 0.000000, 0.00, 0, 12, 591, 0
ATT, -2.32, -1.61, 0.00, -0.37, 0.00, 61.39, 67.74
CTUN, 591, 0.00, 1.85, 0.000000, 0.00, 0, 13, 591, 0
ATT, -3.13, -1.36, 0.00, -0.87, 0.00, 60.82, 67.74
GPS, 3, 369256000, 11, 1.59, -33.7840413, 151.0682022, 1.94, 96.04, 0.34, 10.38
CTUN, 592, 0.00, 1.86, 0.000000, 0.00, 0, 14, 592, 0
PM, 0, 0, 50, 0, 1000, 10460, 10, 4
ATT, -2.90, -1.35, 0.00, -1.06, 0.00, 60.36, 67.74
CTUN, 591, 0.00, 1.85, 0.000000, 0.00, 0, 16, 591, 0
GPS, 3, 369256200, 11, 1.59, -33.7840408, 151.0682023, 1.96, 96.06, 0.25, 10.38
ATT, -3.02, -1.31, 0.00, -0.83, 0.00, 60.09, 67.74
DU32, 7, 8569
CURR, 591, 40339, 1125, 1402, 4732, 26.59003
CTUN, 591, 0.00, 1.89, 0.000000, 0.00, 0, 18, 591, 0
ATT, -2.09, -1.83, -0.48, -0.56, 0.00, 60.24, 67.74
CTUN, 592, 0.00, 1.82, 0.000000, 0.00, 0, 20, 592, 0
GPS, 3, 369256400, 11, 1.59, -33.7840400, 151.0682023, 1.98, 96.09, 0.47, 6.54
ATT, -1.39, -1.80, -0.72, -0.81, 0.00, 60.55, 67.74
CTUN, 590, 0.00, 1.83, 0.000000, 0.00, 0, 22, 591, 0
ATT, -1.04, -1.71, -1.09, -0.94, 0.00, 60.85, 67.74
CTUN, 591, 0.00, 1.79, 0.000000, 0.00, 0, 22, 591, 0
GPS, 3, 369256600, 11, 1.59, -33.7840392, 151.0682019, 2.01, 96.15, 0.48, 357.16
ATT, -0.69, -1.65, -1.09, -1.47, 0.00, 61.16, 67.74
CTUN, 594, 0.00, 1.90, 0.000000, 0.00, 0, 23, 591, 0
ATT, 0.00, -1.25, -1.57, -1.52, 0.00, 61.33, 67.74
CTUN, 592, 0.00, 1.86, 0.000000, 0.00, 0, 26, 592, 0
GPS, 3, 369256800, 11, 1.59, -33.7840385, 151.0682020, 2.04, 96.16, 0.40, 357.81
CTUN, 587, 0.00, 1.99, 0.000000, 0.00, 0, 27, 591, 0
ATT, 0.00, -0.46, -2.06, -1.69, 0.00, 61.35, 67.74
CTUN, 555, 0.00, 1.96, 0.000000, 0.00, 0, 28, 555, 0
ATT, 0.00, -0.22, -2.06, -1.87, 0.00, 61.29, 67.74
GPS, 3, 369257000, 11, 1.59, -33.7840375, 151.0682019, 2.08, 96.17, 0.50, 356.04
CTUN, 558, 0.00, 2.03, 0.000000, 0.00, 0, 26, 557, 0
ATT, 0.00, 0.12, -0.84, -1.73, 0.00, 61.01, 67.74
CTUN, 556, 0.00, 2.05, 0.000000, 0.00, 0, 21, 556, 0
GPS, 3, 369257200, 11, 1.59, -33.7840364, 151.0682019, 2.12, 96.25, 0.57, 0.79
ATT, 0.00, 0.68, -0.72, -1.42, 0.00, 60.75, 67.74
DU32, 7, 8569
CURR, 555, 45556, 1137, 1285, 4752, 30.40047
CTUN, 556, 0.00, 2.14, 0.000000, 0.00, 0, 17, 557, 0
ATT, 0.00, 0.83, 0.00, -1.05, 0.00, 60.63, 67.74
CTUN, 555, 0.00, 2.07, 0.000000, 0.00, 0, 12, 557, 0
GPS, 3, 369257400, 11, 1.59, -33.7840354, 151.0682017, 2.15, 96.26, 0.54, 356.00
ATT, 0.00, 0.95, 0.00, -0.49, 0.00, 60.42, 67.74
CTUN, 557, 0.00, 2.10, 0.000000, 0.00, 0, 8, 557, 0
ATT, 1.73, 0.90, 0.00, -0.08, 0.00, 60.25, 67.74
CTUN, 557, 0.00, 2.10, 0.000000, 0.00, 0, 4, 556, 0
GPS, 3, 369257600, 11, 1.59, -33.7840344, 151.0682022, 2.15, 96.26, 0.59, 9.48
ATT, 1.84, 1.75, 0.00, 0.18, 0.00, 60.22, 67.74
CTUN, 557, 0.00, 2.08, 0.000000, 0.00, 0, 0, 557, 0
ATT, 2.65, 2.06, 0.00, 0.69, 0.00, 60.33, 67.74
CTUN, 557, 0.00, 2.06, 0.000000, 0.00, 0, -3, 556, 0
GPS, 3, 369257800, 11, 1.59, -33.7840337, 151.0682021, 2.14, 96.25, 0.45, 6.32
CTUN, 557, 0.00, 2.16, 0.000000, 0.00, 0, -8, 557, 0
ATT, 4.26, 2.04, 0.00, 0.92, 0.00, 60.48, 67.74
CTUN, 556, 0.00, 2.10, 0.000000, 0.00, 0, -13, 557, 0
ATT, 3.69, 2.66, 0.00, 0.97, 0.00, 60.56, 67.74
GPS, 3, 369258000, 11, 1.59, -33.7840334, 151.0682020, 2.12, 96.19, 0.31, 4.10
CTUN, 555, 0.00, 2.17, 0.000000, 0.00, 0, -15, 555, 0
ATT, 1.38, 2.52, 0.00, 1.28, 0.00, 60.70, 67.74
CTUN, 556, 0.00, 2.09, 0.000000, 0.00, 0, -19, 557, 0
ATT, 0.80, 1.67, 0.00, 0.97, 0.00, 60.76, 67.74
DU32, 7, 8569
CURR, 574, 50568, 1128, 1279, 4732, 33.95847
GPS, 3, 369258200, 11, 1.59, -33.7840330, 151.0682019, 2.08, 96.15, 0.24, 4.10
CTUN, 572, 0.00, 1.95, 0.000000, 0.00, 0, -23, 573, 0
ATT, 0.57, 0.26, 0.00, 0.28, 0.00, 60.83, 67.74
CTUN, 574, 0.00, 2.05, 0.000000, 0.00, 0, -23, 574, 0
GPS, 3, 369258400, 11, 1.59, -33.7840327, 151.0682020, 2.04, 96.08, 0.14, 4.10
ATT, 0.69, 0.06, 0.00, 0.37, 0.00, 60.75, 67.74
CTUN, 578, 0.00, 2.00, 0.000000, 0.00, 0, -24, 580, 0
ATT, 1.26, 0.25, 0.00, 0.64, 0.00, 60.56, 67.74
CTUN, 581, 0.00, 1.98, 0.000000, 0.00, 0, -24, 581, 0
GPS, 3, 369258600, 11, 1.59, -33.7840324, 151.0682021, 1.98, 96.02, 0.14, 4.10
ATT, 0.69, 0.00, 0.00, 0.35, 0.00, 60.33, 67.74
CTUN, 587, 0.00, 1.91, 0.000000, 0.00, 0, -22, 587, 0
ATT, 0.80, -0.04, 0.00, 0.19, 0.00, 60.06, 67.74
CTUN, 586, 0.00, 1.85, 0.000000, 0.00, 0, -20, 586, 0
GPS, 3, 369258800, 11, 1.59, -33.7840322, 151.0682020, 1.94, 95.97, 0.09, 4.10
ATT, 0.11, 0.30, 0.00, 0.12, 0.00, 59.60, 67.74
CTUN, 588, 0.00, 1.86, 0.000000, 0.00, 0, -18, 586, 0
ATT, 0.11, 0.30, 0.00, -0.04, 0.00, 59.17, 67.74
CTUN, 586, 0.00, 1.75, 0.000000, 0.00, 0, -17, 588, 0
GPS, 3, 369259000, 10, 1.76, -33.7840321, 151.0682016, 1.89, 95.93, 0.18, 4.10
CTUN, 586, 0.00, 1.85, 0.000000, 0.00, 0, -14, 586, 0
ATT, 1.26, 0.26, 0.00, -0.61, 0.00, 58.74, 67.74
CTUN, 586, 0.00, 1.73, 0.000000, 0.00, 0, -10, 586, 0
ATT, 1.50, 0.79, 0.00, -0.84, 0.00, 58.45, 67.74
GPS, 3, 369259200, 11, 1.59, -33.7840321, 151.0682015, 1.85, 95.92, 0.05, 4.10
DU32, 7, 8569
CURR, 586, 56397, 1120, 1421, 4712, 38.19164
CTUN, 587, 0.00, 1.86, 0.000000, 0.00, 0, -7, 586, 0
ATT, 1.15, 1.71, 0.00, -0.43, 0.00, 58.24, 67.74
CTUN, 588, 0.00, 1.77, 0.000000, 0.00, 0, -5, 586, 0
GPS, 3, 369259400, 10, 1.76, -33.7840322, 151.0682012, 1.84, 95.91, 0.16, 4.10
ATT, 0.92, 1.60, 0.00, -0.54, 0.00, 58.23, 67.74
CTUN, 587, 0.00, 1.71, 0.000000, 0.00, 0, -3, 587, 0
ATT, 1.38, 0.99, 0.00, -0.66, 0.00, 58.46, 67.74
CTUN, 587, 0.00, 1.75, 0.000000, 0.00, 0, -3, 587, 0
GPS, 3, 369259600, 10, 1.76, -33.7840324, 151.0682010, 1.82, 95.89, 0.20, 4.10
ATT, 1.15, 0.93, 0.00, -0.72, 0.00, 58.90, 67.74
CTUN, 586, 0.00, 1.72, 0.000000, 0.00, 0, -2, 586, 0
ATT, 0.80, 0.96, 0.00, -0.54, 0.00, 59.32, 67.74
CTUN, 587, 0.00, 1.70, 0.000000, 0.00, 0, -1, 587, 0
GPS, 3, 369259800, 10, 1.76, -33.7840325, 151.0682008, 1.80, 95.89, 0.14, 4.10
ATT, 0.80, 0.59, 0.00, -0.40, 0.00, 59.91, 67.74
CTUN, 587, 0.00, 1.70, 0.000000, 0.00, 0, -1, 587, 0
ATT, 1.15, 0.38, 0.00, -0.51, 0.00, 60.35, 67.74
CTUN, 587, 0.00, 1.74, 0.000000, 0.00, 0, 0, 587, 0
GPS, 3, 369260000, 10, 1.76, -33.7840327, 151.0682005, 1.79, 95.91, 0.20, 4.10
CTUN, 587, 0.00, 1.81, 0.000000, 0.00, 0, 0, 587, 0
ATT, 1.15, 0.27, 0.00, -0.47, 0.00, 60.80, 67.74
CTUN, 585, 0.00, 1.72, 0.000000, 0.00, 0, 0, 585, 0
ATT, 0.80, 0.33, 0.00, -0.50, 0.00, 61.02, 67.74
GPS, 3, 369260200, 10, 1.76, -33.7840328, 151.0682002, 1.79, 95.93, 0.20, 4.10
DU32, 7, 8569
CURR, 587, 61677, 1122, 1387, 4693, 42.08211
CTUN, 587, 0.00, 1.76, 0.000000, 0.00, 0, 0, 587, 0
ATT, 0.69, 0.38, 0.00, -0.67, 0.00, 61.28, 67.74
CTUN, 587, 0.00, 1.80, 0.000000, 0.00, 0, 0, 587, 0
GPS, 3, 369260400, 10, 1.76, -33.7840330, 151.0682003, 1.78, 95.97, 0.11, 4.10
ATT, 0.11, 0.25, 0.00, -0.78, 0.00, 61.52, 67.74
CTUN, 586, 0.00, 1.72, 0.000000, 0.00, 0, 1, 587, 0
ATT, 0.00, 0.10, 0.00, -0.91, 0.00, 61.64, 67.74
CTUN, 587, 0.00, 1.67, 0.000000, 0.00, 0, 1, 587, 0
GPS, 3, 369260600, 10, 1.76, -33.7840332, 151.0682002, 1.78, 95.96, 0.15, 4.10
ATT, 0.00, 0.09, 0.00, -1.05, 0.00, 61.85, 67.74
CTUN, 587, 0.00, 1.69, 0.000000, 0.00, 0, 2, 587, 0
ATT, 0.00, 0.26, 0.00, -1.00, 0.00, 62.05, 67.74
CTUN, 587, 0.00, 1.70, 0.000000, 0.00, 0, 3, 587, 0
GPS, 3, 369260800, 10, 1.76, -33.7840337, 151.0681999, 1.78, 95.94, 0.22, 4.10
ATT, 0.00, 0.37, 0.00, -0.83, 0.00, 62.36, 67.74
CTUN, 587, 0.00, 1.72, 0.000000, 0.00, 0, 3, 587, 0
ATT, 0.00, 0.33, 0.00, -0.81, 0.00, 62.73, 67.74
CTUN, 586, 0.00, 1.65, 0.000000, 0.00, 0, 3, 586, 0
GPS, 3, 369261000, 9, 1.90, -33.7840342, 151.0681998, 1.77, 95.91, 0.18, 4.10
CTUN, 587, 0.00, 1.75, 0.000000, 0.00, 0, 2, 587, 0
ATT, 0.00, 0.18, 0.00, -0.55, 0.00, 63.26, 67.74
CTUN, 587, 0.00, 1.77, 0.000000, 0.00, 0, 2, 587, 0
ATT, 0.00, -0.06, 0.00, -0.33, 0.00, 63.64, 67.74
GPS, 3, 369261200, 9, 1.90, -33.7840348, 151.0681997, 1.77, 95.89, 0.27, 290.31
DU32, 7, 8569
CURR, 587, 66960, 1123, 1366, 4712, 45.86843
CTUN, 587, 0.00, 1.82, 0.000000, 0.00, 0, 1, 587, 0
ATT, 0.00, -0.24, 0.00, -0.38, 0.00, 63.96, 67.74
CTUN, 586, 0.00, 1.73, 0.000000, 0.00, 0, 2, 586, 0
ATT, 0.00, -0.10, 0.00, -0.41, 0.00, 64.18, 67.74
GPS, 3, 369261400, 9, 1.90, -33.7840351, 151.0681996, 1.78, 95.90, 0.26, 290.31
CTUN, 588, 0.00, 1.72, 0.000000, 0.00, 0, 1, 588, 0
ATT, 0.00, 0.20, 0.00, -0.28, 0.00, 64.22, 67.74
CTUN, 588, 0.00, 1.79, 0.000000, 0.00, 0, 1, 588, 0
GPS, 3, 369261600, 10, 1.76, -33.7840353, 151.0681994, 1.78, 95.93, 0.17, 290.31
ATT, 0.00, 0.19, 0.00, -0.27, 0.00, 64.14, 67.74
CTUN, 587, 0.00, 1.75, 0.000000, 0.00, 0, 3, 587, 0
ATT, 0.00, 0.07, 0.00, -0.11, 0.00, 64.03, 67.74
CTUN, 587, 0.00, 1.75, 0.000000, 0.00, 0, 3, 587, 0
GPS, 3, 369261800, 10, 1.76, -33.7840359, 151.0681989, 1.78, 95.91, 0.36, 250.10
ATT, 0.00, -0.26, 0.00, 0.06, 0.00, 63.90, 67.74
CTUN, 587, 0.00, 1.67, 0.000000, 0.00, 0, 4, 587, 0
ATT, 0.00, -0.53, 0.00, 0.17, 0.00, 63.89, 67.74
CTUN, 587, 0.00, 1.71, 0.000000, 0.00, 0, 4, 587, 0
GPS, 3, 369262000, 9, 1.81, -33.7840365, 151.0681986, 1.78, 95.93, 0.37, 227.87
ATT, 0.00, -0.70, 0.00, 0.21, 0.00, 64.01, 67.74
CTUN, 586, 0.00, 1.76, 0.000000, 0.00, 0, 4, 589, 0
ATT, 0.00, -0.65, 0.00, 0.08, 0.00, 64.12, 67.74
CTUN, 588, 0.00, 1.82, 0.000000, 0.00, 0, 5, 588, 0
GPS, 3, 369262200, 9, 1.81, -33.7840367, 151.0681982, 1.79, 95.94, 0.24, 227.87
DU32, 7, 8569
CURR, 586, 72244, 1121, 1382, 4732, 49.64339
CTUN, 586, 0.00, 1.71, 0.000000, 0.00, 0, 6, 586, 0
ATT, 0.00, -0.97, 0.00, 0.02, 0.00, 64.28, 67.74
CTUN, 587, 0.00, 1.82, 0.000000, 0.00, 0, 6, 587, 0
ATT, 0.00, -1.08, 0.00, 0.00, 0.00, 64.34, 67.74
GPS, 3, 369262400, 9, 1.81, -33.7840370, 151.0681978, 1.80, 95.97, 0.23, 227.87
CTUN, 586, 0.00, 1.78, 0.000000, 0.00, 0, 7, 586, 0
ATT, 0.00, -1.34, 0.00, 0.18, 0.00, 64.29, 67.74
CTUN, 587, 0.00, 1.81, 0.000000, 0.00, 0, 7, 585, 0
GPS, 3, 369262600, 10, 1.76, -33.7840377, 151.0681972, 1.81, 95.95, 0.38, 228.96
ATT, 0.00, -1.19, 0.00, 0.32, 0.00, 64.24, 67.74
CTUN, 588, 0.00, 1.83, 0.000000, 0.00, 0, 8, 586, 0
ATT, 0.00, -0.97, 0.00, 0.38, 0.00, 64.19, 67.74
CTUN, 588, 0.00, 1.82, 0.000000, 0.00, 0, 8, 588, 0
GPS, 3, 369262800, 9, 1.81, -33.7840379, 151.0681967, 1.83, 95.97, 0.24, 228.96
ATT, 0.00, -0.99, 0.00, 0.27, 0.00, 64.18, 67.74
CTUN, 587, 0.00, 1.92, 0.000000, 0.00, 0, 9, 585, 0
ATT, 0.00, -1.19, 0.00, -0.09, 0.00, 64.28, 67.74
CTUN, 585, 0.00, 1.84, 0.000000, 0.00, 0, 8, 586, 0
GPS, 3, 369263000, 9, 1.81, -33.7840382, 151.0681958, 1.85, 95.99, 0.46, 238.61
ATT, 0.00, -0.96, 0.00, -0.37, 0.00, 64.43, 67.74
CTUN, 587, 0.00, 1.90, 0.000000, 0.00, 0, 8, 587, 0
ATT, 0.00, -0.58, -0.24, -0.27, 0.00, 64.60, 67.74
CTUN, 587, 0.00, 1.86, 0.000000, 0.00, 0, 8, 587, 0
GPS, 3, 369263200, 10, 1.64, -33.7840384, 151.0681952, 1.87, 96.07, 0.29, 238.61
ATT, 0.00, -0.49, -0.24, -0.58, 0.00, 64.81, 67.74
DU32, 7, 8569
CURR, 586, 77521, 1123, 1382, 4752, 53.35660
CTUN, 586, 0.00, 1.88, 0.000000, 0.00, 0, 8, 586, 0
ATT, 0.00, -0.44, -1.94, -0.98, 0.00, 64.94, 67.74
CTUN, 586, 0.00, 1.81, 0.000000, 0.00, 0, 7, 586, 0
GPS, 3, 369263400, 10, 1.64, -33.7840381, 151.0681944, 1.89, 96.10, 0.42, 238.61
CTUN, 587, 0.00, 1.89, 0.000000, 0.00, 0, 6, 587, 0
ATT, 0.00, -0.21, -3.63, -2.23, 0.00, 64.97, 67.74
CTUN, 604, 0.00, 1.96, 0.000000, 0.00, 0, 5, 598, 0
ATT, 0.00, -0.54, -2.06, -3.47, 0.00, 65.01, 67.74
GPS, 3, 369263600, 9, 1.81, -33.7840383, 151.0681936, 1.89, 96.10, 0.36, 238.61
CTUN, 640, 0.00, 1.98, 0.000000, 0.00, 0, 7, 640, 0
ATT, 0.00, -0.12, -0.36, -2.79, 0.00, 65.01, 67.74
CTUN, 662, 0.00, 1.94, 0.000000, 0.00, 0, 15, 658, 0
GPS, 3, 369263800, 9, 1.81, -33.7840385, 151.0681930, 1.92, 96.05, 0.29, 238.61
ATT, 0.00, 0.34, -1.81, -1.43, 0.00, 64.98, 67.74
CTUN, 670, 0.00, 2.04, 0.000000, 0.00, 0, 23, 663, 0
ATT, 0.00, 0.62, -3.63, -1.22, 0.00, 64.94, 67.74
CTUN, 677, 0.00, 1.87, 0.000000, 0.00, 0, 37, 677, 0
GPS, 3, 369264000, 10, 1.64, -33.7840385, 151.0681923, 1.99, 96.04, 0.32, 238.61
ATT, 0.00, 0.96, -4.24, -2.14, 0.00, 64.80, 67.74
CTUN, 679, 0.00, 1.96, 0.000000, 0.00, 0, 53, 678, 0
ATT, 0.00, 1.29, -6.54, -2.56, 0.00, 64.62, 67.74
CTUN, 667, 0.00, 2.08, 0.000000, 0.00, 0, 66, 677, 0
GPS, 3, 369264200, 11, 1.59, -33.7840387, 151.0681915, 2.10, 96.08, 0.39, 238.61
ATT, 0.80, 1.30, -7.88, -4.13, 0.00, 64.38, 67.74
DU32, 7, 8569
CURR, 660, 83266, 1095, 1724, 4712, 57.63415
CTUN, 660, 0.00, 2.15, 0.000000, 0.00, 1, 81, 661, 0
ATT, 0.46, 1.47, -11.15, -5.20, 0.00, 64.19, 67.74
CTUN, 652, 0.00, 2.08, 0.000000, 0.00, 2, 90, 658, 0
GPS, 3, 369264400, 10, 1.74, -33.7840387, 151.0681910, 2.26, 96.15, 0.28, 238.61
CTUN, 649, 0.00, 2.33, 0.000000, 0.00, 4, 100, 653, 0
ATT, 1.26, 1.67, -12.85, -7.65, 0.00, 63.97, 67.74
CTUN, 646, 0.00, 2.34, 0.000000, 0.00, 6, 108, 652, 0
ATT, 0.00, 1.48, -13.58, -9.61, 0.00, 63.86, 67.74
GPS, 3, 369264600, 11, 1.59, -33.7840387, 151.0681911, 2.46, 96.32, 0.06, 238.61
CTUN, 601, 0.00, 2.35, 0.000000, 0.00, 7, 116, 611, 0
ATT, 0.00, 0.62, -14.91, -10.69, 0.00, 63.84, 67.74
CTUN, 601, 0.00, 2.67, 0.000000, 0.00, 9, 118, 611, 0
GPS, 3, 369264800, 10, 1.74, -33.7840388, 151.0681914, 2.68, 96.42, 0.06, 238.61
ATT, 0.00, 0.39, -13.70, -11.76, 0.00, 63.82, 67.74
CTUN, 578, 0.00, 2.77, 0.000000, 0.00, 9, 117, 589, 0
ATT, 0.00, 0.65, -13.82, -11.82, 0.00, 63.83, 67.74
CTUN, 580, 0.00, 2.80, 0.000000, 0.00, 9, 112, 589, 0
GPS, 3, 369265000, 11, 1.59, -33.7840381, 151.0681927, 2.90, 96.68, 0.50, 356.27
ATT, 0.00, 1.14, -13.46, -12.17, 0.00, 63.69, 67.74
CTUN, 580, 0.00, 2.90, 0.000000, 0.00, 10, 106, 590, 0
ATT, 0.46, 0.90, -12.12, -12.22, 0.00, 63.48, 67.74
CTUN, 580, 0.00, 3.18, 0.000000, 0.00, 10, 100, 590, 0
GPS, 3, 369265200, 11, 1.59, -33.7840381, 151.0681948, 3.09, 96.87, 0.90, 61.91
ATT, 0.11, 0.92, -7.27, -10.96, 0.00, 63.13, 67.74
CTUN, 587, 0.00, 3.19, 0.000000, 0.00, 8, 94, 595, 0
DU32, 7, 8569
CURR, 587, 88839, 1118, 1394, 4712, 61.86555
ATT, 0.00, 0.97, -3.76, -8.50, 0.00, 62.98, 67.74
CTUN, 587, 0.00, 3.26, 0.000000, 0.00, 5, 88, 593, 0
GPS, 3, 369265400, 11, 1.59, -33.7840373, 151.0681973, 3.29, 97.03, 1.09, 66.85
ATT, 0.00, 1.51, 0.00, -4.72, 0.00, 62.95, 67.74
CTUN, 599, 0.00, 3.30, 0.000000, 0.00, 2, 83, 601, 0
ATT, 0.00, 2.43, 0.00, -0.80, 0.00, 62.87, 67.74
CTUN, 601, 0.00, 3.49, 0.000000, 0.00, 0, 80, 604, 0
GPS, 3, 369265600, 11, 1.59, -33.7840368, 151.0682004, 3.45, 97.09, 1.44, 71.67
ATT, 0.00, 2.46, 0.00, 1.09, 0.00, 62.78, 67.74
CTUN, 601, 0.00, 3.57, 0.000000, 0.00, 0, 78, 601, 0
ATT, 0.00, 2.26, 0.00, 1.72, 0.00, 62.65, 67.74
CTUN, 601, 0.00, 3.81, 0.000000, 0.00, 0, 77, 601, 0
GPS, 3, 369265800, 11, 1.59, -33.7840363, 151.0682038, 3.62, 97.13, 1.53, 73.93
CTUN, 601, 0.00, 3.98, 0.000000, 0.00, 0, 76, 601, 0
ATT, 0.00, 2.26, 0.00, 2.13, 0.00, 62.40, 67.74
CTUN, 603, 0.00, 3.89, 0.000000, 0.00, 0, 77, 603, 0
ATT, 0.00, 1.72, 0.00, 2.08, 0.00, 62.17, 67.74
GPS, 3, 369266000, 11, 1.59, -33.7840359, 151.0682069, 3.80, 97.21, 1.40, 74.15
CTUN, 602, 0.00, 4.03, 0.000000, 0.00, 0, 76, 602, 0
PM, 0, 0, 50, 0, 1000, 10484, 10, 4
ATT, 0.00, 1.42, 0.00, 2.12, 0.00, 62.03, 67.74
CTUN, 602, 0.00, 4.01, 0.000000, 0.00, 0, 75, 602, 0
GPS, 3, 369266200, 11, 1.59, -33.7840357, 151.0682101, 3.97, 97.29, 1.33, 77.45
ATT, 0.00, 1.09, 0.00, 2.16, 0.00, 62.14, 67.74
CTUN, 602, 0.00, 4.17, 0.000000, 0.00, 0, 75, 601, 0
DU32, 7, 8569
CURR, 602, 94839, 1110, 1435, 4752, 66.12910
ATT, 0.00, 0.90, 0.23, 1.95, 0.00, 62.22, 67.74
CTUN, 602, 0.00, 4.31, 0.000000, 0.00, 0, 74, 601, 0
GPS, 3, 369266401, 11, 1.59, -33.7840355, 151.0682130, 4.12, 97.42, 1.27, 79.80
ATT, 0.00, 0.46, 3.75, 1.96, 0.00, 62.30, 67.74
CTUN, 604, 0.00, 4.34, 0.000000, 0.00, 0, 74, 604, 0
ATT, 0.00, -0.02, 4.68, 3.29, 0.00, 62.31, 67.74
CTUN, 602, 0.00, 4.40, 0.000000, 0.00, 0, 74, 601, 0
GPS, 3, 369266600, 11, 1.59, -33.7840355, 151.0682155, 4.30, 97.55, 1.10, 82.26
ATT, 0.00, 0.20, 7.38, 4.91, 0.00, 62.17, 67.74
CTUN, 602, 0.00, 4.54, 0.000000, 0.00, 1, 73, 603, 0
ATT, -3.13, 0.09, 8.67, 6.34, 0.00, 62.02, 67.74
CTUN, 602, 0.00, 4.69, 0.000000, 0.00, 2, 73, 603, 0
GPS, 3, 369266800, 11, 1.59, -33.7840358, 151.0682178, 4.47, 97.64, 1.01, 88.71
CTUN, 586, 0.00, 4.69, 0.000000, 0.00, 4, 73, 590, 0
ATT, -5.81, -2.00, 9.37, 8.74, 0.00, 61.95, 67.74
CTUN, 556, 0.00, 4.76, 0.000000, 0.00, 6, 70, 579, 0
ATT, -3.02, -4.15, 5.74, 8.89, 0.00, 62.05, 67.74
GPS, 3, 369267000, 11, 1.59, -33.7840361, 151.0682196, 4.63, 97.78, 0.77, 92.16
CTUN, 553, 0.00, 4.82, 0.000000, 0.00, 5, 63, 557, 0
ATT, -2.32, -4.07, 3.98, 7.12, 0.00, 62.19, 67.74
CTUN, 551, 0.00, 4.72, 0.000000, 0.00, 3, 54, 555, 0
GPS, 3, 369267200, 11, 1.59, -33.7840367, 151.0682203, 4.77, 97.94, 0.41, 97.29
ATT, -0.93, -3.29, 0.82, 4.84, 0.00, 62.42, 67.74
CTUN, 540, 0.00, 4.80, 0.000000, 0.00, 1, 45, 550, 0
DU32, 7, 8569
CURR, 540, 100107, 1119, 1256, 4712, 69.98128
ATT, 0.00, -2.18, 0.00, 2.66, 0.00, 62.70, 67.74
CTUN, 539, 0.00, 4.92, 0.000000, 0.00, 0, 32, 539, 0
GPS, 3, 369267400, 11, 1.59, -33.7840376, 151.0682208, 4.84, 97.93, 0.38, 121.43
ATT, 0.00, -1.50, 0.00, 0.57, 0.00, 63.07, 67.74
CTUN, 528, 0.00, 5.13, 0.000000, 0.00, 0, 20, 528, 0
ATT, 0.00, -0.66, 0.00, -0.23, 0.00, 63.32, 67.74
CTUN, 528, 0.00, 5.04, 0.000000, 0.00, 0, 7, 528, 0
GPS, 3, 369267600, 11, 1.59, -33.7840379, 151.0682208, 4.90, 97.94, 0.07, 121.43
ATT, 0.00, -0.11, 0.00, -0.44, 0.00, 63.41, 67.74
CTUN, 529, 0.00, 5.06, 0.000000, 0.00, 0, -8, 529, 0
ATT, -4.65, -0.20, 0.11, -0.53, 0.00, 63.40, 67.74
CTUN, 528, 0.00, 5.01, 0.000000, 0.00, 0, -19, 529, 0
GPS, 3, 369267800, 11, 1.59, -33.7840384, 151.0682207, 4.90, 97.95, 0.21, 121.43
ATT, -8.13, -2.64, 0.93, -0.20, 0.00, 63.42, 67.74
CTUN, 551, 0.00, 4.85, 0.000000, 0.00, 1, -36, 552, 0
ATT, -8.83, -5.76, 0.82, -0.19, 0.00, 63.47, 67.74
CTUN, 559, 0.00, 4.95, 0.000000, 0.00, 2, -45, 561, 0
GPS, 3, 369268000, 11, 1.59, -33.7840389, 151.0682207, 4.83, 97.83, 0.24, 147.61
ATT, -7.20, -7.21, 0.58, -0.06, 0.00, 63.48, 67.74
CTUN, 584, 0.00, 4.94, 0.000000, 0.00, 3, -53, 586, 0
ATT, -7.32, -7.15, 0.35, 0.19, 0.00, 63.33, 67.74
GPS, 3, 369268200, 11, 1.59, -33.7840391, 151.0682205, 4.75, 97.70, 0.19, 147.61
CTUN, 586, 0.00, 4.96, 0.000000, 0.00, 3, -58, 590, 0
ATT, -4.76, -7.33, 0.23, 0.38, 0.00, 63.12, 67.74
DU32, 7, 8569
CURR, 587, 105048, 1112, 1396, 4752, 73.16142
CTUN, 595, 0.00, 4.85, 0.000000, 0.00, 3, -58, 598, 0
ATT, -0.46, -5.37, 0.00, 0.62, 0.00, 62.77, 67.74
GPS, 3, 369268400, 11, 1.59, -33.7840392, 151.0682201, 4.64, 97.56, 0.24, 147.61
CTUN, 596, 0.00, 4.85, 0.000000, 0.00, 1, -57, 598, 0
ATT, 0.00, -2.22, 0.00, 0.64, 0.00, 62.48, 67.74
CTUN, 598, 0.00, 4.86, 0.000000, 0.00, 0, -54, 598, 0
ATT, 0.00, -0.63, 0.00, 1.06, 0.00, 62.34, 67.74
GPS, 3, 369268600, 11, 1.59, -33.7840390, 151.0682195, 4.57, 97.38, 0.35, 251.71
CTUN, 598, 0.00, 4.88, 0.000000, 0.00, 0, -52, 598, 0
ATT, 0.00, 0.78, 0.00, 1.23, 0.00, 62.10, 67.74
CTUN, 598, 0.00, 4.74, 0.000000, 0.00, 0, -48, 598, 0
ATT, 0.00, 0.72, 0.00, 1.43, 0.00, 61.82, 67.74
GPS, 3, 369268800, 11, 1.59, -33.7840387, 151.0682186, 4.50, 97.21, 0.55, 286.71
CTUN, 598, 0.00, 4.59, 0.000000, 0.00, 0, -44, 598, 0
ATT, 0.00, 0.38, 0.00, 1.36, 0.00, 61.46, 67.74
CTUN, 597, 0.00, 4.61, 0.000000, 0.00, 0, -40, 597, 0
GPS, 3, 369269000, 11, 1.59, -33.7840385, 151.0682176, 4.43, 97.08, 0.54, 284.78
ATT, 0.00, -0.14, 0.00, 1.17, 0.00, 61.12, 67.74
CTUN, 599, 0.00, 4.56, 0.000000, 0.00, 0, -36, 599, 0
ATT, 0.00, -0.55, 0.00, 1.04, 0.00, 60.94, 67.74
CTUN, 599, 0.00, 4.56, 0.000000, 0.00, 0, -31, 599, 0
GPS, 3, 369269200, 11, 1.59, -33.7840384, 151.0682165, 4.39, 96.97, 0.56, 281.58
CTUN, 599, 0.00, 4.50, 0.000000, 0.00, 0, -25, 599, 0
ATT, 0.00, -0.81, 0.00, 0.83, 0.00, 60.99, 67.74
DU32, 7, 8569
CURR, 598, 111022, 1107, 1437, 4712, 77.46523
CTUN, 599, 0.00, 4.53, 0.000000, 0.00, 0, -21, 599, 0
ATT, 0.00, -0.68, 0.00, 0.68, 0.00, 61.27, 67.74
GPS, 3, 369269400, 11, 1.59, -33.7840386, 151.0682149, 4.36, 96.87, 0.75, 278.15
CTUN, 597, 0.00, 4.45, 0.000000, 0.00, 0, -17, 597, 0
ATT, 0.00, -0.52, 0.00, 0.74, 0.00, 61.84, 67.74
CTUN, 597, 0.00, 4.52, 0.000000, 0.00, 0, -14, 597, 0
ATT, 0.00, -0.69, 0.00, 0.94, 0.00, 62.33, 67.74
GPS, 3, 369269600, 11, 1.59, -33.7840385, 151.0682133, 4.34, 96.80, 0.79, 275.97
CTUN, 597, 0.00, 4.32, 0.000000, 0.00, 0, -13, 597, 0
ATT, 0.00, -0.92, -0.36, 1.09, 0.00, 62.81, 67.74
CTUN, 598, 0.00, 4.35, 0.000000, 0.00, 0, -11, 598, 0
ATT, 0.00, -0.61, -2.18, 1.12, 0.00, 62.91, 67.74
GPS, 3, 369269800, 11, 1.59, -33.7840388, 151.0682116, 4.32, 96.77, 0.84, 269.66
CTUN, 597, 0.00, 4.45, 0.000000, 0.00, 0, -9, 597, 0
ATT, 0.00, -0.33, -1.94, 0.06, 0.00, 62.75, 67.74
CTUN, 596, 0.00, 4.21, 0.000000, 0.00, 0, -5, 596, 0
GPS, 3, 369270000, 11, 1.59, -33.7840386, 151.0682097, 4.31, 96.78, 0.94, 273.52
ATT, 0.00, -0.43, -2.18, -0.59, 0.00, 62.46, 67.74
CTUN, 590, 0.00, 4.35, 0.000000, 0.00, 0, -3, 596, 0
ATT, 0.11, -0.38, -2.06, -0.86, 0.00, 62.20, 67.74
CTUN, 590, 0.00, 4.36, 0.000000, 0.00, 0, 0, 590, 0
GPS, 3, 369270200, 11, 1.59, -33.7840389, 151.0682075, 4.31, 96.79, 1.05, 266.36
CTUN, 590, 0.00, 4.45, 0.000000, 0.00, 0, 2, 588, 0
ATT, 0.00, -0.21, -1.09, -0.95, 0.00, 61.92, 67.74
DU32, 7, 8569
CURR, 578, 116374, 1116, 1380, 4732, 81.36857
CTUN, 556, 0.00, 4.38, 0.000000, 0.00, 0, 3, 578, 0
ATT, 0.00, -0.28, -0.97, -0.80, 0.00, 61.76, 67.74
GPS, 3, 369270400, 11, 1.59, -33.7840388, 151.0682054, 4.33, 96.80, 0.99, 268.89
CTUN, 551, 0.00, 4.41, 0.000000, 0.00, 0, 2, 553, 0
ATT, 1.26, -0.03, -3.27, -0.44, 0.00, 61.64, 67.74
CTUN, 552, 0.00, 4.45, 0.000000, 0.00, 0, -1, 552, 0
ATT, 5.42, 0.43, -6.42, -1.19, 0.00, 61.75, 67.74
GPS, 3, 369270600, 11, 1.59, -33.7840389, 151.0682031, 4.34, 96.81, 1.14, 266.68
CTUN, 553, 0.00, 4.43, 0.000000, 0.00, 0, -7, 553, 0
ATT, 3.46, 2.07, -9.33, -3.66, 0.00, 61.98, 67.74
CTUN, 553, 0.00, 4.41, 0.000000, 0.00, 1, -10, 554, 0
ATT, 2.07, 1.96, -10.55, -5.64, 0.00, 62.45, 67.74
GPS, 3, 369270800, 10, 1.74, -33.7840389, 151.0682012, 4.33, 96.79, 0.99, 267.15
CTUN, 552, 0.00, 4.49, 0.000000, 0.00, 3, -15, 555, 0
ATT, 2.88, 2.00, -10.55, -7.26, 0.00, 62.96, 67.74
CTUN, 553, 0.00, 4.47, 0.000000, 0.00, 3, -21, 555, 0
ATT, 2.88, 2.04, -9.94, -7.92, 0.00, 63.42, 67.74
GPS, 3, 369271000, 11, 1.59, -33.7840390, 151.0681992, 4.31, 96.71, 0.95, 268.57
CTUN, 553, 0.00, 4.46, 0.000000, 0.00, 4, -25, 557, 0
ATT, 2.53, 2.26, -8.85, -8.02, 0.00, 63.87, 67.74
CTUN, 554, 0.00, 4.52, 0.000000, 0.00, 4, -29, 556, 0
ATT, 2.19, 2.37, -8.73, -7.57, 0.00, 64.27, 67.74
GPS, 3, 369271200, 11, 1.59, -33.7840391, 151.0681976, 4.27, 96.63, 0.80, 269.23
CTUN, 553, 0.00, 4.42, 0.000000, 0.00, 3, -32, 556, 0
ATT, 2.53, 2.26, -8.24, -6.82, 0.00, 64.47, 67.74
DU32, 7, 8569
CURR, 553, 121366, 1118, 1258, 4712, 84.73080
CTUN, 552, 0.00, 4.38, 0.000000, 0.00, 3, -39, 556, 0
GPS, 3, 369271400, 11, 1.59, -33.7840393, 151.0681964, 4.22, 96.56, 0.58, 266.20
ATT, 2.30, 2.29, -8.00, -5.78, 0.00, 64.54, 67.74
CTUN, 553, 0.00, 4.31, 0.000000, 0.00, 2, -44, 555, 0
ATT, 0.00, 2.45, -7.27, -5.02, 0.00, 64.47, 67.74
CTUN, 552, 0.00, 4.24, 0.000000, 0.00, 2, -47, 554, 0
GPS, 3, 369271600, 11, 1.59, -33.7840397, 151.0681955, 4.14, 96.49, 0.46, 262.01
CTUN, 553, 0.00, 4.18, 0.000000, 0.00, 1, -53, 554, 0
ATT, 0.00, 1.37, -7.03, -4.27, 0.00, 64.42, 67.74
CTUN, 565, 0.00, 3.95, 0.000000, 0.00, 1, -56, 553, 0
ATT, 0.00, 0.87, -6.42, -4.19, 0.00, 64.35, 67.74
GPS, 3, 369271800, 11, 1.59, -33.7840401, 151.0681949, 4.04, 96.39, 0.30, 259.60
CTUN, 580, 0.00, 3.94, 0.000000, 0.00, 0, -58, 581, 0
ATT, 0.00, 0.67, -7.27, -3.14, 0.00, 64.04, 67.74
CTUN, 583, 0.00, 3.97, 0.000000, 0.00, 0, -58, 583, 0
ATT, 0.00, 0.43, -7.52, -3.14, 0.00, 63.66, 67.74
GPS, 3, 369272000, 11, 1.59, -33.7840403, 151.0681944, 3.90, 96.23, 0.25, 259.60
CTUN, 583, 0.00, 3.92, 0.000000, 0.00, 0, -57, 583, 0
ATT, 0.00, -0.11, -8.36, -3.45, 0.00, 63.03, 67.74
CTUN, 584, 0.00, 3.88, 0.000000, 0.00, 0, -51, 581, 0
ATT, 0.00, -0.24, -8.49, -3.67, 0.00, 62.44, 67.74
GPS, 3, 369272200, 11, 1.59, -33.7840407, 151.0681934, 3.79, 95.97, 0.41, 252.29
CTUN, 584, 0.00, 3.83, 0.000000, 0.00, 0, -50, 581, 0
ATT, 0.00, -0.10, -8.24, -3.32, 0.00, 61.74, 67.74
DU32, 7, 8569
CURR, 585, 126484, 1114, 1393, 4732, 88.36846
CTUN, 584, 0.00, 3.82, 0.000000, 0.00, 0, -45, 585, 0
GPS, 3, 369272400, 11, 1.59, -33.7840412, 151.0681933, 3.72, 95.84, 0.35, 224.83
ATT, 0.00, -0.02, -8.73, -3.18, 0.00, 61.14, 67.74
CTUN, 581, 0.00, 3.70, 0.000000, 0.00, 0, -44, 581, 0
ATT, 0.00, -0.02, -9.21, -3.39, 0.00, 60.82, 67.74
CTUN, 581, 0.00, 3.60, 0.000000, 0.00, 0, -40, 580, 0
GPS, 3, 369272600, 11, 1.59, -33.7840413, 151.0681928, 3.63, 95.70, 0.25, 224.83
ATT, 0.00, -0.22, -9.58, -4.11, 0.00, 60.72, 67.74
CTUN, 581, 0.00, 3.51, 0.000000, 0.00, 1, -40, 586, 0
ATT, 0.00, -0.23, -9.58, -4.50, 0.00, 60.85, 67.74
CTUN, 583, 0.00, 3.43, 0.000000, 0.00, 1, -36, 582, 0
GPS, 3, 369272800, 11, 1.59, -33.7840415, 151.0681925, 3.55, 95.62, 0.27, 224.83
CTUN, 585, 0.00, 3.54, 0.000000, 0.00, 1, -35, 586, 0
ATT, 0.00, 0.20, -9.82, -4.67, 0.00, 61.09, 67.74
CTUN, 585, 0.00, 3.53, 0.000000, 0.00, 1, -30, 586, 0
ATT, 0.00, 0.49, -9.70, -4.85, 0.00, 61.34, 67.74
GPS, 3, 369273000, 11, 1.59, -33.7840418, 151.0681924, 3.48, 95.50, 0.13, 224.83
CTUN, 581, 0.00, 3.54, 0.000000, 0.00, 1, -31, 582, 0
ATT, 0.00, 0.70, -9.70, -4.83, 0.00, 61.69, 67.74
CTUN, 585, 0.00, 3.33, 0.000000, 0.00, 1, -27, 582, 0
ATT, 0.00, 0.65, -9.70, -4.48, 0.00, 62.15, 67.74
GPS, 3, 369273200, 11, 1.59, -33.7840421, 151.0681922, 3.42, 95.33, 0.20, 224.83
CTUN, 590, 0.00, 3.47, 0.000000, 0.00, 1, -25, 589, 0
ATT, 0.00, 0.26, -9.82, -4.36, 0.00, 62.67, 67.74
DU32, 7, 8569
CURR, 590, 131746, 1110, 1378, 4732, 92.22712
CTUN, 590, 0.00, 3.41, 0.000000, 0.00, 1, -24, 591, 0
ATT, 0.00, 0.19, -9.82, -4.35, 0.00, 63.14, 67.74
GPS, 3, 369273400, 11, 1.59, -33.7840421, 151.0681925, 3.37, 95.26, 0.04, 224.83
CTUN, 590, 0.00, 3.27, 0.000000, 0.00, 1, -22, 591, 0
ATT, 0.00, 0.10, -9.82, -4.37, 0.00, 63.45, 67.74
CTUN, 590, 0.00, 3.31, 0.000000, 0.00, 1, -20, 590, 0
GPS, 3, 369273600, 11, 1.59, -33.7840425, 151.0681925, 3.32, 95.13, 0.07, 224.83
ATT, 0.00, 0.08, -9.82, -4.41, 0.00, 63.56, 67.74
CTUN, 592, 0.00, 3.35, 0.000000, 0.00, 1, -17, 590, 0
ATT, 0.00, 0.00, -9.58, -4.50, 0.00, 63.59, 67.74
CTUN, 594, 0.00, 3.23, 0.000000, 0.00, 1, -15, 596, 0
GPS, 3, 369273800, 11, 1.59, -33.7840428, 151.0681927, 3.29, 94.99, 0.08, 224.83
CTUN, 598, 0.00, 3.35, 0.000000, 0.00, 1, -14, 600, 0
ATT, 0.00, 0.48, -9.58, -4.49, 0.00, 63.55, 67.74
CTUN, 599, 0.00, 3.24, 0.000000, 0.00, 1, -12, 600, 0
ATT, 0.00, 0.32, -9.33, -4.55, 0.00, 63.56, 67.74
GPS, 3, 369274000, 11, 1.59, -33.7840432, 151.0681930, 3.27, 94.85, 0.15, 224.83
CTUN, 601, 0.00, 3.10, 0.000000, 0.00, 1, -7, 602, 0
ATT, 0.00, -0.01, -9.70, -4.40, 0.00, 63.54, 67.74
CTUN, 600, 0.00, 3.20, 0.000000, 0.00, 1, -2, 601, 0
ATT, 0.00, 0.29, -9.58, -4.11, 0.00, 63.39, 67.74
GPS, 3, 369274200, 11, 1.59, -33.7840434, 151.0681934, 3.25, 94.81, 0.18, 224.83
CTUN, 599, 0.00, 3.17, 0.000000, 0.00, 1, 0, 601, 0
ATT, 0.00, -0.26, -9.82, -4.35, 0.00, 63.36, 67.74
DU32, 7, 8569
CURR, 601, 137112, 1107, 1438, 4732, 96.15218
CTUN, 601, 0.00, 3.16, 0.000000, 0.00, 1, -1, 599, 0
GPS, 3, 369274400, 11, 1.59, -33.7840433, 151.0681939, 3.24, 94.78, 0.22, 224.83
ATT, 0.00, -0.24, -9.94, -4.37, 0.00, 63.44, 67.74
CTUN, 601, 0.00, 3.10, 0.000000, 0.00, 1, -2, 602, 0
ATT, 0.00, 0.30, -9.94, -4.39, 0.00, 63.58, 67.74
CTUN, 601, 0.00, 3.12, 0.000000, 0.00, 1, -1, 602, 0
GPS, 3, 369274600, 11, 1.59, -33.7840432, 151.0681947, 3.22, 94.75, 0.30, 224.83
ATT, 0.00, 0.33, -9.82, -4.62, 0.00, 63.69, 67.74
CTUN, 600, 0.00, 3.24, 0.000000, 0.00, 1, 3, 602, 0
ATT, 0.00, 0.00, -9.70, -4.54, 0.00, 63.58, 67.74
CTUN, 600, 0.00, 3.24, 0.000000, 0.00, 1, 5, 602, 0
GPS, 3, 369274800, 11, 1.59, -33.7840430, 151.0681955, 3.23, 94.74, 0.29, 166.35
CTUN, 601, 0.00, 3.17, 0.000000, 0.00, 1, 6, 601, 0
ATT, 0.00, -0.29, -9.70, -4.22, 0.00, 63.34, 67.74
CTUN, 601, 0.00, 3.16, 0.000000, 0.00, 1, 8, 602, 0
ATT, 0.00, -0.10, -9.46, -3.81, 0.00, 63.10, 67.74
GPS, 3, 369275000, 11, 1.59, -33.7840431, 151.0681964, 3.24, 94.72, 0.37, 117.31
CTUN, 601, 0.00, 3.10, 0.000000, 0.00, 0, 14, 601, 0
ATT, 0.00, 0.78, -9.82, -3.43, 0.00, 62.85, 67.74
CTUN, 601, 0.00, 3.22, 0.000000, 0.00, 0, 18, 600, 0
ATT, 0.00, 0.60, -9.82, -3.93, 0.00, 62.42, 67.74
GPS, 3, 369275200, 11, 1.59, -33.7840428, 151.0681973, 3.26, 94.73, 0.38, 117.31
CTUN, 601, 0.00, 3.40, 0.000000, 0.00, 1, 17, 602, 0
ATT, 0.00, -0.60, -9.70, -4.23, 0.00, 62.10, 67.74
DU32, 7, 8569
CURR, 601, 142522, 1106, 1444, 4752, 100.1306
CTUN, 601, 0.00, 3.47, 0.000000, 0.00, 1, 21, 602, 0
ATT, 0.00, -0.63, -9.94, -4.24, 0.00, 62.02, 67.74
GPS, 3, 369275400, 11, 1.59, -33.7840431, 151.0681982, 3.32, 94.80, 0.39, 109.00
CTUN, 587, 0.00, 3.45, 0.000000, 0.00, 1, 22, 588, 0
ATT, 0.00, 0.58, -9.46, -4.06, 0.00, 62.48, 67.74
CTUN, 585, 0.00, 3.41, 0.000000, 0.00, 1, 25, 589, 0
GPS, 3, 369275600, 11, 1.59, -33.7840429, 151.0681993, 3.38, 94.85, 0.48, 83.88
ATT, 0.00, 1.10, -10.18, -4.34, 0.00, 63.29, 67.74
CTUN, 587, 0.00, 3.47, 0.000000, 0.00, 1, 29, 588, 0
ATT, 0.00, 1.16, -9.70, -4.69, 0.00, 63.79, 67.74
CTUN, 586, 0.00, 3.56, 0.000000, 0.00, 1, 31, 588, 0
GPS, 3, 369275800, 11, 1.59, -33.7840429, 151.0682007, 3.45, 94.95, 0.54, 83.74
CTUN, 581, 0.00, 3.56, 0.000000, 0.00, 1, 35, 584, 0
ATT, 0.00, 1.36, -9.33, -4.18, 0.00, 64.08, 67.74
CTUN, 583, 0.00, 3.49, 0.000000, 0.00, 1, 39, 584, 0
ATT, 0.00, 1.00, -9.09, -3.73, 0.00, 64.20, 67.74
GPS, 3, 369276000, 10, 1.74, -33.7840427, 151.0682017, 3.53, 94.99, 0.47, 81.80
CTUN, 583, 0.00, 3.39, 0.000000, 0.00, 0, 38, 582, 0
PM, 0, 0, 50, 0, 1000, 10456, 10, 4
ATT, 0.00, 0.40, -8.85, -3.37, 0.00, 64.40, 67.74
CTUN, 583, 0.00, 3.46, 0.000000, 0.00, 0, 35, 582, 0
ATT, 0.00, 0.34, -8.36, -3.10, 0.00, 64.55, 67.74
GPS, 3, 369276200, 10, 1.74, -33.7840425, 151.0682032, 3.59, 95.04, 0.65, 81.25
CTUN, 582, 0.00, 3.61, 0.000000, 0.00, 0, 38, 582, 0
ATT, 0.00, 0.55, -8.36, -2.83, 0.00, 64.72, 67.74
DU32, 7, 8569
CURR, 583, 147802, 1110, 1351, 4732, 103.9255
CTUN, 583, 0.00, 3.56, 0.000000, 0.00, 0, 38, 585, 0
ATT, 0.00, 1.05, -7.88, -2.60, 0.00, 64.77, 67.74
GPS, 3, 369276400, 11, 1.59, -33.7840429, 151.0682042, 3.67, 95.06, 0.53, 90.47
CTUN, 583, 0.00, 3.76, 0.000000, 0.00, 0, 37, 582, 0
ATT, 0.00, 1.60, -7.64, -1.89, 0.00, 64.70, 67.74
CTUN, 583, 0.00, 3.83, 0.000000, 0.00, 0, 40, 583, 0
ATT, 0.00, 1.87, -7.64, -1.07, 0.00, 64.60, 67.74
GPS, 3, 369276600, 11, 1.59, -33.7840429, 151.0682057, 3.75, 95.11, 0.62, 88.61
CTUN, 585, 0.00, 3.72, 0.000000, 0.00, 0, 42, 583, 0
ATT, 0.00, 1.21, -7.03, -0.91, 0.00, 64.42, 67.74
CTUN, 581, 0.00, 3.81, 0.000000, 0.00, 0, 47, 581, 0
ATT, 0.00, 0.90, -6.06, -0.89, 0.00, 63.91, 67.74
GPS, 3, 369276800, 11, 1.59, -33.7840433, 151.0682067, 3.84, 95.14, 0.45, 93.12
CTUN, 574, 0.00, 4.17, 0.000000, 0.00, 0, 49, 574, 0
ATT, 0.00, 0.59, -4.60, -0.24, 0.00, 63.17, 67.74
CTUN, 568, 0.00, 3.77, 0.000000, 0.00, 0, 51, 568, 0
GPS, 3, 369277000, 11, 1.59, -33.7840435, 151.0682078, 3.96, 95.20, 0.54, 97.29
ATT, -3.60, -1.22, -0.97, 0.65, 0.00, 62.28, 67.74
CTUN, 528, 0.00, 3.94, 0.000000, 0.00, 0, 52, 528, 0
ATT, -6.97, -4.07, 0.00, 2.08, 0.00, 61.33, 67.74
CTUN, 529, 0.00, 3.70, 0.000000, 0.00, 1, 44, 529, 0
GPS, 3, 369277200, 11, 1.59, -33.7840438, 151.0682088, 4.03, 95.26, 0.44, 99.62
ATT, -8.37, -6.68, 0.00, 3.69, 0.00, 60.42, 67.74
CTUN, 528, 0.00, 3.81, 0.000000, 0.00, 3, 34, 531, 0
DU32, 7, 8569
CURR, 529, 153447, 1112, 1217, 4732, 107.7216
ATT, -8.13, -8.26, 0.00, 4.67, 0.00, 59.69, 67.74
CTUN, 528, 0.00, 3.83, 0.000000, 0.00, 5, 20, 533, 0
GPS, 3, 369277400, 11, 1.59, -33.7840441, 151.0682092, 4.05, 95.30, 0.25, 99.62
ATT, -6.04, -9.17, 0.00, 4.33, 0.00, 59.27, 67.74
CTUN, 528, 0.00, 3.84, 0.000000, 0.00, 6, 10, 534, 0
ATT, -5.34, -9.20, 0.00, 2.94, 0.00, 59.11, 67.74
CTUN, 529, 0.00, 3.81, 0.000000, 0.00, 5, -1, 534, 0
GPS, 3, 369277600, 11, 1.59, -33.7840442, 151.0682090, 4.04, 95.34, 0.12, 99.62
ATT, 0.00, -6.85, -0.24, 2.61, 0.00, 58.76, 67.74
CTUN, 528, 0.00, 3.82, 0.000000, 0.00, 2, -13, 530, 0
ATT, 0.00, -2.79, -1.69, 2.44, 0.00, 58.33, 67.74
CTUN, 528, 0.00, 3.76, 0.000000, 0.00, 0, -20, 528, 0
GPS, 3, 369277800, 11, 1.59, -33.7840442, 151.0682084, 3.97, 95.36, 0.29, 99.62
ATT, 0.00, -1.39, -2.78, 1.92, 0.00, 58.14, 67.74
CTUN, 529, 0.00, 3.69, 0.000000, 0.00, 0, -29, 528, 0
ATT, 0.00, -1.48, -3.63, -0.14, 0.00, 58.12, 67.74
CTUN, 528, 0.00, 3.67, 0.000000, 0.00, 0, -37, 528, 0
GPS, 3, 369278000, 11, 1.59, -33.7840440, 151.0682073, 3.87, 95.25, 0.54, 3.27
ATT, 2.42, -1.46, -5.33, -1.62, 0.00, 57.95, 67.74
CTUN, 529, 0.00, 3.63, 0.000000, 0.00, 0, -46, 529, 0
ATT, 2.07, 0.35, -5.45, -3.14, 0.00, 57.62, 67.62
CTUN, 545, 0.00, 3.43, 0.000000, 0.00, 0, -52, 545, 0
GPS, 3, 369278200, 11, 1.59, -33.7840436, 151.0682063, 3.74, 95.16, 0.48, 336.35
ATT, 2.88, 0.67, -6.06, -3.25, 0.00, 57.69, 67.58
CTUN, 557, 0.00, 3.42, 0.000000, 0.00, 0, -57, 549, 0
DU32, 7, 8569
CURR, 565, 158795, 1119, 1281, 4712, 111.1254
ATT, 3.46, 1.60, -6.54, -3.99, 0.00, 58.13, 67.58
CTUN, 569, 0.00, 3.24, 0.000000, 0.00, 1, -61, 570, 0
GPS, 3, 369278400, 11, 1.59, -33.7840433, 151.0682052, 3.58, 95.05, 0.57, 316.54
ATT, 3.34, 1.95, -6.42, -4.23, 0.00, 59.07, 67.58
CTUN, 582, 0.00, 3.38, 0.000000, 0.00, 1, -66, 584, 0
ATT, 3.00, 2.63, -6.06, -3.93, 0.00, 60.05, 67.58
CTUN, 591, 0.00, 3.24, 0.000000, 0.00, 1, -65, 592, 0
GPS, 3, 369278600, 11, 1.59, -33.7840428, 151.0682043, 3.42, 94.94, 0.52, 312.90
CTUN, 597, 0.00, 3.11, 0.000000, 0.00, 1, -63, 600, 0
ATT, 2.76, 3.10, -5.94, -3.37, 0.00, 61.12, 67.58
CTUN, 602, 0.00, 3.06, 0.000000, 0.00, 1, -59, 603, 0
ATT, 2.76, 3.24, -5.57, -3.47, 0.00, 61.87, 67.58
GPS, 3, 369278800, 11, 1.59, -33.7840426, 151.0682033, 3.28, 94.80, 0.50, 301.70
CTUN, 610, 0.00, 3.05, 0.000000, 0.00, 1, -54, 607, 0
ATT, 2.76, 3.61, -5.45, -2.89, 0.00, 62.66, 67.58
CTUN, 610, 0.00, 2.90, 0.000000, 0.00, 1, -51, 611, 0
ATT, 2.53, 3.37, -5.33, -1.91, 0.00, 63.30, 67.58
GPS, 3, 369279000, 11, 1.59, -33.7840425, 151.0682028, 3.15, 94.67, 0.35, 301.70
CTUN, 610, 0.00, 2.84, 0.000000, 0.00, 0, -47, 610, 0
ATT, 2.19, 2.77, -5.57, -1.51, 0.00, 63.86, 67.58
CTUN, 610, 0.00, 2.74, 0.000000, 0.00, 0, -41, 610, 0
ATT, 2.07, 2.19, -5.33, -1.78, 0.00, 64.31, 67.58
GPS, 3, 369279200, 11, 1.59, -33.7840425, 151.0682022, 3.03, 94.57, 0.35, 301.70
CTUN, 610, 0.00, 2.65, 0.000000, 0.00, 0, -36, 610, 0
ATT, 1.26, 1.57, -5.21, -2.46, 0.00, 64.61, 67.58
DU32, 7, 8569
CURR, 610, 164186, 1104, 1432, 4732, 114.9305
CTUN, 610, 0.00, 2.76, 0.000000, 0.00, 0, -33, 610, 0
ATT, 0.69, 1.77, -5.21, -2.28, 0.00, 64.67, 67.58
GPS, 3, 369279400, 11, 1.59, -33.7840425, 151.0682019, 2.91, 94.52, 0.27, 301.70
CTUN, 610, 0.00, 2.61, 0.000000, 0.00, 0, -30, 610, 0
ATT, 0.46, 1.29, -5.33, -2.65, 0.00, 64.57, 67.58
CTUN, 610, 0.00, 2.70, 0.000000, 0.00, 0, -25, 610, 0
GPS, 3, 369279600, 11, 1.59, -33.7840427, 151.0682014, 2.83, 94.44, 0.26, 301.70
ATT, 0.34, 1.01, -5.70, -3.27, 0.00, 64.44, 67.58
CTUN, 610, 0.00, 2.73, 0.000000, 0.00, 0, -21, 610, 0
ATT, 0.11, 0.70, -5.45, -3.98, 0.00, 64.32, 67.58
CTUN, 610, 0.00, 2.52, 0.000000, 0.00, 1, -17, 611, 0
GPS, 3, 369279800, 10, 1.76, -33.7840429, 151.0682007, 2.78, 94.31, 0.36, 301.70
CTUN, 610, 0.00, 2.49, 0.000000, 0.00, 1, -10, 611, 0
ATT, 0.00, 0.35, -5.70, -4.39, 0.00, 63.97, 67.58
CTUN, 610, 0.00, 2.73, 0.000000, 0.00, 1, -5, 611, 0
ATT, 0.00, 0.75, -5.94, -3.98, 0.00, 63.61, 67.58
GPS, 3, 369280000, 10, 1.76, -33.7840431, 151.0682008, 2.74, 94.28, 0.18, 301.70
CTUN, 610, 0.00, 2.59, 0.000000, 0.00, 1, 0, 611, 0
ATT, 2.88, 0.76, -7.64, -4.54, 0.00, 63.19, 67.58
CTUN, 610, 0.00, 2.72, 0.000000, 0.00, 2, 4, 612, 0
ATT, 2.19, 2.95, -7.52, -5.52, 0.00, 62.64, 67.58
GPS, 3, 369280200, 10, 1.76, -33.7840433, 151.0682008, 2.74, 94.26, 0.11, 301.70
CTUN, 610, 0.00, 2.56, 0.000000, 0.00, 2, 8, 612, 0
ATT, 1.73, 3.33, -7.64, -5.41, 0.00, 62.18, 67.58
DU32, 7, 8569
CURR, 607, 169681, 1103, 1494, 4693, 118.9950
CTUN, 609, 0.00, 2.47, 0.000000, 0.00, 3, 14, 610, 0
GPS, 3, 369280400, 10, 1.76, -33.7840436, 151.0682010, 2.74, 94.26, 0.15, 301.70
ATT, 1.61, 3.50, -7.27, -4.94, 0.00, 61.64, 67.58
CTUN, 585, 0.00, 2.57, 0.000000, 0.00, 2, 20, 599, 0
ATT, 1.26, 3.19, -7.15, -4.82, 0.00, 61.14, 67.58
CTUN, 553, 0.00, 2.58, 0.000000, 0.00, 2, 22, 556, 0
GPS, 3, 369280600, 10, 1.76, -33.7840439, 151.0682013, 2.76, 94.29, 0.19, 301.70
ATT, 0.34, 2.42, -5.82, -4.37, 0.00, 60.47, 67.58
CTUN, 554, 0.00, 2.79, 0.000000, 0.00, 1, 20, 555, 0
ATT, 0.57, 1.45, -5.82, -3.88, 0.00, 60.14, 67.58
CTUN, 554, 0.00, 2.74, 0.000000, 0.00, 1, 16, 555, 0
GPS, 3, 369280800, 10, 1.76, -33.7840443, 151.0682016, 2.79, 94.31, 0.25, 301.70
CTUN, 554, 0.00, 2.70, 0.000000, 0.00, 0, 8, 554, 0
ATT, 0.00, 0.82, -5.57, -3.75, 0.00, 59.95, 67.58
CTUN, 554, 0.00, 2.57, 0.000000, 0.00, 0, 2, 553, 0
ATT, 0.00, 0.88, -5.82, -3.46, 0.00, 59.92, 67.58
GPS, 3, 369281000, 10, 1.76, -33.7840445, 151.0682023, 2.79, 94.31, 0.30, 301.70
CTUN, 563, 0.00, 2.67, 0.000000, 0.00, 0, -4, 563, 0
ATT, 0.00, 1.27, -5.94, -2.96, 0.00, 60.06, 67.58
CTUN, 581, 0.00, 2.58, 0.000000, 0.00, 0, -9, 581, 0
ATT, 0.00, -0.89, -5.70, -3.49, 0.00, 60.24, 67.58
GPS, 3, 369281200, 11, 1.59, -33.7840451, 151.0682028, 2.75, 94.30, 0.38, 301.70
CTUN, 587, 0.00, 2.59, 0.000000, 0.00, 1, -8, 588, 0
ATT, 0.00, -1.13, -5.33, -3.66, 0.00, 60.17, 67.58
DU32, 7, 8569
CURR, 594, 174829, 1108, 1400, 4732, 122.6917
CTUN, 598, 0.00, 2.72, 0.000000, 0.00, 0, -9, 598, 0
ATT, 0.00, -0.72, -5.21, -2.87, 0.00, 59.76, 67.58
GPS, 3, 369281400, 11, 1.59, -33.7840452, 151.0682039, 2.72, 94.30, 0.46, 301.70
CTUN, 600, 0.00, 2.54, 0.000000, 0.00, 0, -8, 601, 0
ATT, 0.00, -0.78, -5.21, -3.25, 0.00, 59.15, 67.58
CTUN, 601, 0.00, 2.62, 0.000000, 0.00, 0, -7, 601, 0
ATT, 0.00, -1.53, -5.33, -4.22, 0.00, 58.45, 67.58
GPS, 3, 369281600, 11, 1.59, -33.7840452, 151.0682048, 2.69, 94.25, 0.44, 358.64
CTUN, 600, 0.00, 2.68, 0.000000, 0.00, 1, -6, 603, 0
ATT, 0.00, -0.78, -5.09, -4.53, 0.00, 57.80, 67.58
CTUN, 602, 0.00, 2.54, 0.000000, 0.00, 1, -4, 602, 0
GPS, 3, 369281800, 11, 1.59, -33.7840456, 151.0682057, 2.67, 94.17, 0.43, 43.95
ATT, 0.00, -0.23, -4.60, -3.99, 0.00, 57.46, 67.45
CTUN, 601, 0.00, 2.54, 0.000000, 0.00, 1, -2, 603, 0
ATT, 0.00, -0.57, -4.12, -3.95, 0.00, 57.69, 67.45
CTUN, 602, 0.00, 2.55, 0.000000, 0.00, 1, 0, 603, 0
GPS, 3, 369282000, 11, 1.59, -33.7840454, 151.0682067, 2.66, 94.25, 0.44, 63.30
CTUN, 602, 0.00, 2.40, 0.000000, 0.00, 1, 0, 602, 0
ATT, 0.00, -1.22, -1.81, -4.06, 0.00, 58.57, 67.45
CTUN, 602, 0.00, 2.54, 0.000000, 0.00, 0, 0, 602, 0
ATT, 0.00, -1.04, 0.00, -2.71, 0.00, 59.55, 67.45
GPS, 3, 369282200, 11, 1.59, -33.7840454, 151.0682076, 2.64, 94.29, 0.43, 73.11
CTUN, 602, 0.00, 2.55, 0.000000, 0.00, 0, 1, 602, 0
ATT, 0.00, -0.64, 0.00, -0.97, 0.00, 60.80, 67.45
DU32, 7, 8569
CURR, 602, 180847, 1104, 1411, 4712, 127.0508
CTUN, 602, 0.00, 2.59, 0.000000, 0.00, 0, -1, 602, 0
ATT, 0.00, -0.69, 0.00, -0.44, 0.00, 61.95, 67.45
GPS, 3, 369282400, 11, 1.59, -33.7840453, 151.0682088, 2.63, 94.35, 0.56, 78.94
CTUN, 602, 0.00, 2.47, 0.000000, 0.00, 0, -2, 602, 0
ATT, 0.00, -0.61, 0.00, -0.15, 0.00, 63.00, 67.45
CTUN, 602, 0.00, 2.51, 0.000000, 0.00, 0, 0, 602, 0
ATT, 0.00, -0.02, 0.00, 0.17, 0.00, 63.82, 67.45
GPS, 3, 369282600, 11, 1.59, -33.7840448, 151.0682098, 2.61, 94.36, 0.54, 69.89
CTUN, 601, 0.00, 2.54, 0.000000, 0.00, 0, 0, 602, 0
ATT, 0.00, 0.68, 0.00, 0.70, 0.00, 64.29, 67.45
CTUN, 602, 0.00, 2.57, 0.000000, 0.00, 0, -1, 602, 0
ATT, 0.00, 1.30, 0.00, 1.00, 0.00, 64.44, 67.45
GPS, 3, 369282800, 11, 1.59, -33.7840444, 151.0682109, 2.60, 94.40, 0.56, 66.20
CTUN, 602, 0.00, 2.57, 0.000000, 0.00, 0, -2, 602, 0
ATT, 0.00, 1.27, 0.00, 0.99, 0.00, 64.47, 67.45
CTUN, 601, 0.00, 2.57, 0.000000, 0.00, 0, -1, 601, 0
ATT, 0.00, 1.15, 0.00, 0.59, 0.00, 64.41, 67.45
GPS, 3, 369283000, 10, 1.76, -33.7840438, 151.0682118, 2.59, 94.43, 0.45, 58.84
CTUN, 604, 0.00, 2.54, 0.000000, 0.00, 0, -1, 604, 0
ATT, 0.00, 0.99, 0.00, 0.80, 0.00, 64.36, 67.45
CTUN, 609, 0.00, 2.53, 0.000000, 0.00, 0, 1, 605, 0
GPS, 3, 369283200, 10, 1.76, -33.7840432, 151.0682125, 2.59, 94.45, 0.36, 53.13
ATT, 0.00, 0.61, 0.00, 1.11, 0.00, 64.44, 67.45
CTUN, 609, 0.00, 2.69, 0.000000, 0.00, 0, 3, 607, 0
ATT, 0.00, 0.39, 0.00, 1.15, 0.00, 64.72, 67.45
DU32, 7, 8569
CURR, 607, 186279, 1103, 1441, 4712, 130.8090
CTUN, 609, 0.00, 2.61, 0.000000, 0.00, 0, 4, 609, 0
GPS, 3, 369283400, 11, 1.59, -33.7840429, 151.0682131, 2.60, 94.44, 0.33, 53.13
ATT, 0.00, -0.08, 0.00, 0.60, 0.00, 65.27, 67.45
CTUN, 609, 0.00, 2.65, 0.000000, 0.00, 0, 9, 609, 0
ATT, 0.00, -0.30, 0.00, 0.36, 0.00, 65.82, 67.45
CTUN, 606, 0.00, 2.64, 0.000000, 0.00, 0, 14, 609, 0
GPS, 3, 369283600, 10, 1.76, -33.7840425, 151.0682134, 2.63, 94.45, 0.28, 53.13
CTUN, 607, 0.00, 2.52, 0.000000, 0.00, 0, 16, 609, 0
ATT, 0.00, -0.53, 0.00, 0.32, 0.00, 66.55, 67.45
CTUN, 607, 0.00, 2.63, 0.000000, 0.00, 0, 16, 609, 0
ATT, 0.00, -0.58, 0.00, 0.16, 0.00, 67.12, 67.45
GPS, 3, 369283800, 11, 1.59, -33.7840422, 151.0682138, 2.66, 94.48, 0.20, 53.13
CTUN, 609, 0.00, 2.58, 0.000000, 0.00, 0, 17, 607, 0
ATT, 0.00, -0.39, 0.00, 0.22, 0.00, 67.55, 67.45
CTUN, 607, 0.00, 2.65, 0.000000, 0.00, 0, 21, 609, 0
ATT, 5.88, 0.69, 0.00, 0.08, 0.00, 67.61, 67.45
GPS, 3, 369284000, 10, 1.76, -33.7840418, 151.0682140, 2.69, 94.49, 0.26, 53.13
CTUN, 609, 0.00, 2.64, 0.000000, 0.00, 0, 21, 609, 0
ATT, 5.42, 3.52, 0.00, 0.25, 0.00, 67.21, 67.45
CTUN, 607, 0.00, 2.68, 0.000000, 0.00, 1, 22, 608, 0
ATT, 4.03, 4.06, 0.00, 0.74, 0.00, 66.72, 67.45
GPS, 3, 369284200, 11, 1.59, -33.7840413, 151.0682141, 2.73, 94.57, 0.24, 53.13
CTUN, 609, 0.00, 2.75, 0.000000, 0.00, 1, 22, 608, 0
ATT, 3.00, 3.59, 0.00, 1.02, 0.00, 66.02, 67.45
DU32, 7, 8569
CURR, 607, 191760, 1098, 1409, 4712, 134.6298
CTUN, 607, 0.00, 2.86, 0.000000, 0.00, 0, 23, 607, 0
ATT, 3.00, 2.95, 0.00, 0.89, 0.00, 65.34, 67.45
GPS, 3, 369284400, 11, 1.59, -33.7840410, 151.0682142, 2.78, 94.61, 0.17, 53.13
CTUN, 609, 0.00, 2.81, 0.000000, 0.00, 0, 23, 607, 0
ATT, 2.42, 2.89, 0.00, 0.67, 0.00, 64.81, 67.45
CTUN, 607, 0.00, 2.75, 0.000000, 0.00, 0, 24, 607, 0
GPS, 3, 369284600, 11, 1.59, -33.7840408, 151.0682141, 2.83, 94.66, 0.14, 53.13
ATT, 1.84, 2.32, 0.00, 0.73, 0.00, 64.46, 67.45
CTUN, 609, 0.00, 2.86, 0.000000, 0.00, 0, 25, 609, 0
ATT, 2.19, 2.26, 0.00, 0.87, 0.00, 64.40, 67.45
CTUN, 609, 0.00, 2.77, 0.000000, 0.00, 0, 25, 609, 0
GPS, 3, 369284800, 10, 1.76, -33.7840409, 151.0682139, 2.88, 94.74, 0.08, 53.13
CTUN, 606, 0.00, 2.83, 0.000000, 0.00, 0, 27, 606, 0
