dump 5

ArduCopter V3.1-rc3.1
Free RAM: 1138
APM 2
FMT, 128, 89, FMT, BBnNZ, Type,Length,Name,Format
FMT, 129, 23, PARM, Nf, Name,Value
FMT, 130, 35, GPS, BIBcLLeeEe, Status,Time,NSats,HDop,Lat,Lng,RelAlt,Alt,Spd,GCrs
FMT, 131, 27, IMU, ffffff, GyrX,GyrY,GyrZ,AccX,AccY,AccZ
FMT, 132, 67, MSG, Z, Message
FMT, 9, 19, CURR, hIhhhf, Thr,ThrInt,Volt,Curr,Vcc,CurrTot
FMT, 11, 11, MOT, hhhh, Mot1,Mot2,Mot3,Mot4
FMT, 12, 28, OF, hhBccffee, Dx,Dy,SQual,X,Y,Lat,Lng,Roll,Pitch
FMT, 5, 49, NTUN, Ecffffffffee, WPDst,WPBrg,PErX,PErY,DVelX,DVelY,VelX,VelY,DAcX,DAcY,DRol,DPit
FMT, 4, 25, CTUN, hcefchhhh, ThrIn,SonAlt,BarAlt,WPAlt,DesSonAlt,AngBst,CRate,ThrOut,DCRate
FMT, 15, 21, MAG, hhhhhhhhh, MagX,MagY,MagZ,OfsX,OfsY,OfsZ,MOfsX,MOfsY,MOfsZ
FMT, 6, 17, PM, BBBHHIhB, RenCnt,RenBlw,FixCnt,NLon,NLoop,MaxT,PMT,I2CErr
FMT, 8, 20, CMD, BBBBBeLL, CTot,CNum,CId,COpt,Prm1,Alt,Lat,Lng
FMT, 1, 17, ATT, cccccCC, RollIn,Roll,PitchIn,Pitch,YawIn,Yaw,NavYaw
FMT, 17, 37, INAV, cccfffiiff, BAlt,IAlt,IClb,ACorrX,ACorrY,ACorrZ,GLat,GLng,ILat,ILng
FMT, 3, 6, MODE, Mh, Mode,ThrCrs
FMT, 10, 3, STRT, , 
FMT, 13, 4, EV, B, Id
FMT, 20, 6, D16, Bh, Id,Value
FMT, 21, 6, DU16, BH, Id,Value
FMT, 22, 8, D32, Bi, Id,Value
FMT, 23, 8, DU32, BI, Id,Value
FMT, 24, 8, DFLT, Bf, Id,Value
FMT, 14, 28, PID, Biiiiif, Id,Error,P,I,D,Out,Gain
FMT, 18, 25, CAM, ILLeccC, GPSTime,Lat,Lng,Alt,Roll,Pitch,Yaw
FMT, 19, 5, ERR, BB, Subsys,ECode
D32, 9, 6072
CMD, 1, 0, 16, 0, 0, 0.00, -33.7840306, 151.0682033
EV, 10
GPS, 3, 458559600, 10, 1.57, -33.7840305, 151.0682032, 0.90, 99.81, 0.01, 0.00
CTUN, 0, 0.00, 0.01, 0.000000, 0.00, 0, 0, 0, 0
PM, 0, 0, 51, 19, 1001, 7321456, 17, 4
GPS, 3, 458566800, 10, 1.57, -33.7840313, 151.0681979, 0.90, 99.68, 0.01, 0.00
ATT, 0.00, 0.32, 0.00, -0.12, 0.00, 60.71, 60.71
CTUN, 0, 0.00, 0.01, 0.000000, 0.00, 0, 0, 0, 0
ATT, 0.00, 0.34, 0.00, -0.13, 0.00, 60.71, 60.71
CTUN, 0, 0.00, -0.02, 0.000000, 0.00, 0, -1, 0, 0
GPS, 3, 458567000, 9, 1.66, -33.7840314, 151.0681977, 0.80, 99.68, 0.01, 0.00
DU32, 7, 8793
CURR, 0, 0, 1142, 72, 4752, 0.042183
ATT, 0.00, 0.37, 0.00, -0.13, 0.00, 60.70, 60.70
CTUN, 0, 0.00, -0.02, 0.000000, 0.00, 0, -2, 0, 0
EV, 15
ATT, 0.00, 0.36, 0.00, -0.13, 0.00, 60.69, 60.69
EV, 28
CTUN, 172, 0.00, -0.01, 0.000000, 0.00, 0, -3, 157, 0
GPS, 3, 458567200, 9, 1.66, -33.7840315, 151.0681976, 0.70, 99.68, 0.01, 0.00
ATT, 0.00, 0.36, 0.00, -0.13, 0.00, 60.64, 60.67
CTUN, 259, 0.00, 0.03, 0.000000, 0.00, 0, -4, 259, 0
ATT, 0.00, 0.35, 0.00, -0.12, 0.00, 60.63, 60.67
CTUN, 296, 0.00, 0.05, 0.000000, 0.00, 0, -5, 285, 0
GPS, 3, 458567400, 8, 2.36, -33.7840317, 151.0681975, 0.61, 99.66, 0.00, 0.00
ATT, 0.00, 0.33, 0.00, -0.08, 0.00, 60.65, 60.67
CTUN, 330, 0.00, -0.26, 0.000000, 0.00, 0, -6, 327, 0
ATT, 0.00, 0.34, 0.00, 0.00, 0.00, 60.47, 60.67
GPS, 3, 458567600, 8, 2.36, -33.7840319, 151.0681974, 0.52, 99.63, 0.02, 0.00
CTUN, 402, 0.00, -0.42, 0.000000, 0.00, 0, -6, 396, 0
ATT, 0.00, 0.27, 0.00, 0.17, 0.00, 60.41, 60.67
CTUN, 402, 0.00, -0.31, 0.000000, 0.00, 0, -8, 402, 0
ATT, 0.00, 0.34, 0.00, 0.08, 0.00, 60.40, 60.67
GPS, 3, 458567800, 8, 2.36, -33.7840321, 151.0681974, 0.39, 99.60, 0.01, 0.00
CTUN, 403, 0.00, -0.07, 0.000000, 0.00, 0, -9, 402, 0
ATT, 0.00, 0.30, 0.00, 0.12, 0.00, 60.39, 60.67
CTUN, 435, 0.00, -0.31, 0.000000, 0.00, 0, -10, 431, 0
ATT, 0.00, 0.31, 0.00, 0.17, 0.00, 60.37, 60.67
GPS, 3, 458568000, 8, 2.36, -33.7840323, 151.0681973, 0.30, 99.56, 0.02, 0.00
CTUN, 491, 0.00, -0.26, 0.000000, 0.00, 0, -11, 474, 0
DU32, 7, 8313
CURR, 491, 3131, 1095, 786, 4772, 1.459284
ATT, 0.00, 0.37, 0.00, 0.14, 0.00, 60.31, 60.67
CTUN, 505, 0.00, -0.36, 0.000000, 0.00, 0, -12, 502, 0
EV, 16
ATT, 0.00, 0.46, 0.00, 0.21, 0.00, 60.15, 60.67
GPS, 3, 458568200, 8, 2.36, -33.7840326, 151.0681972, 0.21, 99.52, 0.04, 0.00
CTUN, 538, 0.00, -0.55, 0.000000, 0.00, 0, -12, 520, 0
ATT, 0.00, 0.49, 0.00, 0.35, 0.00, 59.41, 60.67
CTUN, 566, 0.00, -0.38, 0.000000, 0.00, 0, -12, 559, 0
ATT, 0.00, 0.38, 0.00, 1.44, 0.00, 58.24, 60.67
GPS, 3, 458568400, 8, 2.36, -33.7840326, 151.0681971, 0.11, 99.49, 0.01, 0.00
CTUN, 580, 0.00, -0.51, 0.000000, 0.00, 0, -7, 574, 0
ATT, 0.00, 0.79, -0.48, 3.15, 0.00, 56.43, 60.67
CTUN, 591, 0.00, -1.23, 0.000000, 0.00, 0, -2, 587, 0
ATT, 0.00, 0.85, -0.36, 4.14, 0.00, 54.46, 60.67
GPS, 3, 458568600, 8, 2.36, -33.7840328, 151.0681970, 0.02, 99.46, 0.06, 0.00
CTUN, 615, 0.00, -0.69, 0.000000, 0.00, 1, 3, 613, 0
ATT, 0.00, 0.69, -0.48, 3.52, 0.00, 52.32, 60.67
CTUN, 615, 0.00, -0.12, 0.000000, 0.00, 0, 9, 615, 0
GPS, 3, 458568800, 8, 2.36, -33.7840331, 151.0681966, -0.05, 99.49, 0.23, 0.00
ATT, 0.00, 1.58, -0.72, 3.52, 0.00, 50.21, 60.21
CTUN, 615, 0.00, -0.04, 0.000000, 0.00, 1, 18, 616, 0
ATT, 0.00, 2.04, -4.36, 3.09, 0.00, 48.72, 58.72
CTUN, 615, 0.00, -0.01, 0.000000, 0.00, 0, 24, 615, 0
GPS, 3, 458569000, 9, 1.66, -33.7840339, 151.0681963, -0.01, 99.53, 0.44, 0.00
ATT, 0.00, 1.75, -8.00, -0.05, 0.00, 47.08, 57.08
DU32, 7, 8569
CURR, 615, 8332, 1063, 1349, 4732, 4.655217
CTUN, 615, 0.00, 0.11, 0.000000, 0.00, 0, 30, 615, 0
ATT, 0.00, 1.02, -7.64, -3.48, 0.00, 45.73, 55.73
CTUN, 615, 0.00, 0.23, 0.000000, 0.00, 0, 34, 615, 0
GPS, 3, 458569200, 9, 1.66, -33.7840346, 151.0681956, 0.05, 99.60, 0.47, 0.00
CTUN, 615, 0.00, 0.38, 0.000000, 0.00, 1, 38, 616, 0
ATT, 0.00, 1.72, -6.30, -4.79, 0.00, 44.36, 54.36
CTUN, 615, 0.00, 0.47, 0.000000, 0.00, 1, 39, 614, 0
ATT, 0.00, 2.13, -5.21, -4.43, 0.00, 43.50, 53.50
GPS, 3, 458569400, 9, 1.66, -33.7840355, 151.0681954, 0.17, 99.67, 0.55, 199.39
CTUN, 615, 0.00, 0.50, 0.000000, 0.00, 1, 41, 616, 0
ATT, 0.00, 1.93, -5.33, -4.38, 0.00, 42.84, 52.84
CTUN, 616, 0.00, 0.67, 0.000000, 0.00, 1, 41, 616, 0
ATT, 0.00, 1.93, -6.18, -4.35, 0.00, 42.57, 52.57
GPS, 3, 458569600, 9, 1.66, -33.7840361, 151.0681954, 0.29, 99.77, 0.42, 183.44
CTUN, 615, 0.00, 0.73, 0.000000, 0.00, 1, 44, 618, 0
ATT, -1.16, 1.83, -6.67, -4.20, 0.00, 42.48, 52.47
CTUN, 612, 0.00, 0.65, 0.000000, 0.00, 1, 46, 613, 0
GPS, 3, 458569800, 9, 1.66, -33.7840364, 151.0681961, 0.42, 99.87, 0.48, 151.02
ATT, -1.86, 1.75, -6.18, -3.87, 0.24, 42.77, 52.49
CTUN, 613, 0.00, 0.70, 0.000000, 0.00, 1, 51, 614, 0
ATT, -3.37, 1.25, -5.09, -3.07, 4.32, 43.28, 53.28
CTUN, 611, 0.00, 0.80, 0.000000, 0.00, 0, 51, 611, 0
GPS, 3, 458570000, 9, 1.66, -33.7840369, 151.0681967, 0.56, 99.99, 0.47, 142.39
ATT, -3.95, 0.54, -4.36, -1.74, 11.40, 44.82, 54.82
CTUN, 612, 0.00, 1.04, 0.000000, 0.00, 0, 55, 612, 0
DU32, 7, 8569
CURR, 612, 13867, 1062, 1358, 4712, 8.382955
ATT, -3.95, -0.08, -3.88, -0.79, 4.92, 47.10, 57.10
CTUN, 611, 0.00, 1.04, 0.000000, 0.00, 0, 61, 611, 0
GPS, 3, 458570200, 9, 1.66, -33.7840372, 151.0681978, 0.73, 100.19, 0.60, 125.09
CTUN, 607, 0.00, 1.10, 0.000000, 0.00, 0, 61, 610, 0
ATT, -5.81, -2.20, -2.06, -0.03, 0.96, 49.22, 58.60
CTUN, 601, 0.00, 1.29, 0.000000, 0.00, 1, 59, 602, 0
ATT, -7.90, -4.82, -2.66, 0.33, 0.00, 50.01, 58.66
GPS, 3, 458570400, 9, 1.66, -33.7840382, 151.0681987, 0.88, 100.30, 0.74, 134.80
CTUN, 599, 0.00, 1.22, 0.000000, 0.00, 2, 57, 603, 0
ATT, -8.83, -6.42, -3.88, 0.08, 0.00, 50.09, 58.66
CTUN, 585, 0.00, 1.35, 0.000000, 0.00, 3, 55, 588, 0
ATT, -9.41, -8.46, -4.24, -0.91, 0.00, 49.85, 58.66
GPS, 3, 458570600, 9, 1.66, -33.7840386, 151.0681993, 1.04, 100.48, 0.46, 134.97
CTUN, 567, 0.00, 1.31, 0.000000, 0.00, 5, 49, 583, 0
ATT, -10.11, -9.12, -5.33, -2.56, 0.00, 49.31, 58.66
CTUN, 560, 0.00, 1.35, 0.000000, 0.00, 6, 43, 566, 0
GPS, 3, 458570800, 9, 1.66, -33.7840392, 151.0681998, 1.16, 100.47, 0.36, 135.91
ATT, -11.86, -9.76, -5.70, -5.10, 0.00, 48.68, 58.66
CTUN, 559, 0.00, 1.48, 0.000000, 0.00, 8, 29, 567, 0
ATT, -10.46, -11.24, -6.42, -6.23, 0.00, 48.08, 58.08
CTUN, 559, 0.00, 1.41, 0.000000, 0.00, 11, 17, 569, 0
GPS, 3, 458571000, 9, 1.66, -33.7840391, 151.0681997, 1.23, 100.58, 0.06, 135.91
ATT, -8.37, -10.62, -6.67, -7.71, 0.00, 47.51, 57.51
CTUN, 559, 0.00, 1.47, 0.000000, 0.00, 11, 1, 570, 0
DU32, 7, 8569
CURR, 559, 19169, 1071, 1185, 4752, 11.89885
ATT, -3.48, -8.82, -7.64, -7.79, 0.00, 46.96, 56.96
CTUN, 558, 0.00, 1.54, 0.000000, 0.00, 9, -10, 568, 0
GPS, 3, 458571200, 9, 1.66, -33.7840384, 151.0681994, 1.25, 100.61, 0.35, 56.34
CTUN, 566, 0.00, 1.57, 0.000000, 0.00, 5, -24, 571, 0
ATT, 0.00, -4.74, -8.36, -7.65, 0.00, 46.33, 56.33
CTUN, 586, 0.00, 1.56, 0.000000, 0.00, 4, -32, 588, 0
ATT, 0.00, -1.97, -5.45, -7.45, 0.00, 45.94, 55.94
GPS, 3, 458571400, 9, 1.66, -33.7840373, 151.0681990, 1.23, 100.55, 0.69, 2.55
CTUN, 587, 0.00, 1.65, 0.000000, 0.00, 2, -40, 589, 0
ATT, 0.00, -0.89, -1.81, -5.45, 0.00, 45.60, 55.60
CTUN, 586, 0.00, 1.64, 0.000000, 0.00, 0, -44, 586, 0
ATT, 0.00, 0.00, 0.00, -2.30, 0.00, 45.38, 55.38
GPS, 3, 458571600, 9, 1.66, -33.7840360, 151.0681991, 1.19, 100.44, 0.76, 2.84
CTUN, 587, 0.00, 1.56, 0.000000, 0.00, 0, -49, 587, 0
ATT, 0.00, 0.73, 0.00, 0.86, 0.00, 45.27, 55.27
CTUN, 586, 0.00, 1.58, 0.000000, 0.00, 0, -49, 586, 0
ATT, 0.00, 0.53, 0.00, 2.53, 0.00, 45.21, 55.21
GPS, 3, 458571800, 9, 1.66, -33.7840342, 151.0681985, 1.14, 100.35, 0.99, 354.81
CTUN, 588, 0.00, 1.44, 0.000000, 0.00, 0, -54, 590, 0
ATT, 0.00, -0.02, 0.00, 3.23, 0.00, 45.12, 55.12
CTUN, 587, 0.00, 1.41, 0.000000, 0.00, 0, -55, 588, 0
ATT, 0.00, -0.37, 0.00, 3.18, 0.00, 45.11, 55.08
GPS, 3, 458572000, 9, 1.66, -33.7840329, 151.0681981, 1.07, 100.11, 0.90, 353.15
CTUN, 588, 0.00, 1.25, 0.000000, 0.00, 0, -57, 587, 0
DU32, 7, 8569
CURR, 588, 25013, 1064, 1255, 4772, 15.60759
ATT, 0.00, -0.45, 0.00, 2.86, 0.00, 45.39, 55.08
CTUN, 587, 0.00, 1.33, 0.000000, 0.00, 0, -63, 588, 0
GPS, 3, 458572200, 9, 1.66, -33.7840318, 151.0681975, 0.98, 99.96, 0.68, 347.80
ATT, 0.00, -0.51, 0.00, 2.34, 0.00, 45.96, 55.08
CTUN, 589, 0.00, 1.20, 0.000000, 0.00, 0, -65, 587, 0
ATT, 0.00, -0.31, 0.00, 2.02, 0.00, 46.51, 55.08
CTUN, 588, 0.00, 1.05, 0.000000, 0.00, 0, -70, 589, 0
GPS, 3, 458572400, 9, 1.66, -33.7840310, 151.0681967, 0.88, 99.82, 0.51, 341.33
ATT, 0.00, -0.26, 0.00, 1.57, 0.00, 47.15, 55.08
CTUN, 586, 0.00, 1.00, 0.000000, 0.00, 0, -71, 586, 0
ATT, 0.00, -0.49, 0.00, 0.81, 0.00, 47.75, 55.08
CTUN, 588, 0.00, 0.91, 0.000000, 0.00, 0, -75, 588, 0
GPS, 3, 458572600, 9, 1.66, -33.7840301, 151.0681958, 0.75, 99.68, 0.58, 327.88
CTUN, 587, 0.00, 0.95, 0.000000, 0.00, 0, -76, 587, 0
ATT, 0.00, -0.51, 0.00, 0.25, 0.00, 48.62, 55.08
CTUN, 590, 0.00, 0.83, 0.000000, 0.00, 0, -78, 590, 0
ATT, 0.00, -0.40, 0.00, -0.14, 0.00, 49.36, 55.08
GPS, 3, 458572800, 9, 1.66, -33.7840295, 151.0681947, 0.62, 99.43, 0.63, 320.54
CTUN, 640, 0.00, 0.84, 0.000000, 0.00, 0, -82, 631, 0
ATT, 0.00, -0.45, 0.00, -0.58, 0.00, 50.39, 55.08
CTUN, 662, 0.00, 0.80, 0.000000, 0.00, 0, -82, 654, 0
ATT, 0.00, -0.52, 0.00, -0.47, 0.00, 51.38, 55.08
GPS, 3, 458573001, 9, 1.66, -33.7840288, 151.0681936, 0.48, 99.27, 0.65, 315.28
CTUN, 687, 0.00, 0.64, 0.000000, 0.00, 0, -74, 687, 0
DU32, 7, 8569
CURR, 687, 30477, 1049, 1501, 4712, 19.15065
ATT, 0.00, -0.92, 0.00, -0.56, 0.00, 52.38, 55.08
CTUN, 700, 0.00, 0.55, 0.000000, 0.00, 0, -63, 696, 0
GPS, 3, 458573200, 9, 1.66, -33.7840284, 151.0681926, 0.37, 99.05, 0.50, 309.79
ATT, 0.00, -1.28, 0.00, -0.72, 0.00, 53.23, 55.08
CTUN, 712, 0.00, 0.37, 0.000000, 0.00, 0, -50, 712, 0
ATT, 0.00, -1.30, 0.00, -0.60, 0.00, 53.51, 55.08
CTUN, 713, 0.00, 0.29, 0.000000, 0.00, 0, -35, 712, 0
GPS, 3, 458573400, 9, 1.66, -33.7840277, 151.0681915, 0.30, 98.89, 0.61, 307.92
ATT, 0.00, -0.82, 0.00, -0.60, 0.00, 53.47, 55.08
CTUN, 715, 0.00, 0.34, 0.000000, 0.00, 0, -18, 715, 0
ATT, 0.00, -1.26, 0.00, -0.84, 0.00, 53.01, 55.08
CTUN, 715, 0.00, 0.29, 0.000000, 0.00, 0, -2, 715, 0
GPS, 3, 458573600, 9, 1.66, -33.7840270, 151.0681902, 0.28, 98.78, 0.68, 304.88
CTUN, 716, 0.00, 0.14, 0.000000, 0.00, 0, 14, 716, 0
ATT, 0.00, -1.34, 0.00, -0.41, 0.00, 52.09, 55.08
MODE, STABILIZE, 599
CTUN, 716, 0.00, 0.28, 0.000000, 0.00, 0, 28, 715, 0
ATT, 0.00, -1.35, 0.00, -0.08, 0.00, 51.08, 55.08
GPS, 3, 458573800, 9, 1.66, -33.7840262, 151.0681887, 0.32, 98.73, 0.72, 303.50
CTUN, 715, 0.00, 0.29, 0.000000, 0.00, 0, 46, 715, 0
ATT, 0.00, -0.68, 0.00, -0.05, 0.00, 49.38, 55.08
CTUN, 716, 0.00, 0.47, 0.000000, 0.00, 0, 61, 715, 0
ATT, 0.00, -0.03, 0.00, -0.70, 0.00, 47.62, 55.08
GPS, 3, 458574000, 9, 1.66, -33.7840259, 151.0681875, 0.42, 98.79, 0.48, 303.50
CTUN, 715, 0.00, 0.63, 0.000000, 0.00, 0, 73, 715, 0
DU32, 7, 8569
CURR, 715, 36889, 1036, 1728, 4712, 23.76327
ATT, 0.00, 1.12, -5.09, -0.39, 0.00, 45.48, 55.08
CTUN, 714, 0.00, 0.64, 0.000000, 0.00, 0, 88, 717, 0
GPS, 3, 458574200, 9, 1.66, -33.7840252, 151.0681864, 0.60, 98.82, 0.44, 303.50
ATT, 7.15, 2.51, -21.22, -3.06, 0.00, 42.80, 52.80
CTUN, 611, 0.00, 0.67, 0.000000, 0.00, 2, 98, 613, 0
ATT, 9.23, 5.27, -20.98, -11.13, 0.00, 40.09, 50.09
CTUN, 571, 0.00, 0.81, 0.000000, 0.00, 12, 98, 588, 0
GPS, 3, 458574400, 9, 1.66, -33.7840246, 151.0681855, 0.80, 98.89, 0.41, 303.50
ATT, 12.11, 6.28, -20.01, -18.61, 0.00, 36.78, 46.78
CTUN, 553, 0.00, 0.99, 0.000000, 0.00, 26, 89, 579, 0
ATT, 16.84, 10.99, -17.10, -20.32, 0.00, 34.49, 44.49
CTUN, 542, 0.00, 1.03, 0.000000, 0.00, 35, 75, 577, 0
GPS, 3, 458574600, 9, 1.66, -33.7840236, 151.0681849, 0.98, 99.02, 0.44, 317.84
CTUN, 542, 0.00, 1.08, 0.000000, 0.00, 35, 58, 577, 0
ATT, 23.65, 16.23, -3.88, -16.49, 0.00, 33.40, 43.40
CTUN, 542, 0.00, 1.06, 0.000000, 0.00, 33, 41, 575, 0
ATT, 25.96, 19.99, 0.00, -9.46, 0.00, 34.09, 43.38
GPS, 3, 458574800, 9, 1.66, -33.7840237, 151.0681860, 1.08, 99.06, 0.52, 317.84
CTUN, 543, 0.00, 1.12, 0.000000, 0.00, 33, 22, 575, 0
ATT, 29.53, 24.51, 0.00, -0.73, 0.00, 35.62, 43.38
CTUN, 542, 0.00, 1.17, 0.000000, 0.00, 46, 5, 588, 0
ATT, 22.96, 25.74, 0.00, 3.39, 0.00, 36.60, 43.38
GPS, 3, 458575000, 9, 1.66, -33.7840222, 151.0681877, 1.11, 98.97, 1.08, 19.06
CTUN, 543, 0.00, 1.30, 0.000000, 0.00, 41, -13, 584, 0
DU32, 7, 8569
CURR, 542, 42280, 1058, 1261, 4732, 27.50670
ATT, 11.88, 22.31, 0.00, 5.20, 0.00, 37.03, 43.38
CTUN, 553, 0.00, 1.35, 0.000000, 0.00, 26, -25, 579, 0
ATT, 0.00, 14.27, 0.00, 5.98, 9.12, 37.51, 45.92
GPS, 3, 458575200, 9, 1.66, -33.7840211, 151.0681904, 1.09, 98.90, 1.41, 38.15
CTUN, 571, 0.00, 1.33, 0.000000, 0.00, 11, -34, 578, 0
ATT, 0.00, 5.04, 0.00, 5.46, 20.76, 39.95, 49.95
CTUN, 582, 0.00, 1.37, 0.000000, 0.00, 2, -37, 578, 0
GPS, 3, 458575400, 9, 1.66, -33.7840194, 151.0681939, 1.05, 98.68, 1.89, 47.37
ATT, 0.00, 0.02, 0.00, 3.76, 25.80, 45.51, 55.51
CTUN, 592, 0.00, 1.27, 0.000000, 0.00, 0, -35, 592, 0
ATT, 0.00, -1.50, 0.00, 2.66, 27.96, 53.05, 63.05
CTUN, 592, 0.00, 1.29, 0.000000, 0.00, 0, -34, 594, 0
GPS, 3, 458575600, 9, 1.66, -33.7840130, 151.0681957, 1.01, 98.43, 3.11, 24.69
ATT, 0.00, -1.43, 0.00, 1.28, 23.52, 62.62, 72.62
CTUN, 592, 0.00, 1.31, 0.000000, 0.00, 0, -33, 592, 0
ATT, 0.00, -2.27, 0.00, 0.69, 13.56, 71.31, 79.77
CTUN, 595, 0.00, 1.31, 0.000000, 0.00, 0, -40, 595, 0
GPS, 3, 458575800, 9, 1.66, -33.7840082, 151.0681966, 0.97, 98.19, 2.86, 16.93
ATT, 0.00, -3.00, 0.00, 0.63, 0.00, 78.06, 80.57
CTUN, 595, 0.00, 1.41, 0.000000, 0.00, 0, -46, 595, 0
ATT, 0.00, -2.76, 0.00, 2.88, 0.00, 80.54, 80.57
CTUN, 677, 0.00, 1.31, 0.000000, 0.00, 1, -51, 663, 0
GPS, 3, 458576000, 10, 1.57, -33.7840041, 151.0681979, 0.92, 97.90, 2.57, 14.55
ATT, 0.00, -1.56, 0.00, 3.20, 0.00, 81.23, 80.57
DU32, 7, 8569
CURR, 697, 47651, 1055, 1274, 4732, 30.99422
CTUN, 711, 0.00, 1.16, 0.000000, 0.00, 1, -46, 698, 0
ATT, 0.00, -1.49, 0.00, 2.81, 0.00, 80.02, 80.57
CTUN, 715, 0.00, 1.18, 0.000000, 0.00, 0, -36, 715, 0
GPS, 3, 458576200, 10, 1.57, -33.7840011, 151.0681999, 0.87, 97.93, 2.12, 17.21
ATT, 0.00, -1.44, 0.00, 2.26, 0.00, 76.93, 80.57
CTUN, 716, 0.00, 1.10, 0.000000, 0.00, 0, -14, 717, 0
ATT, 0.00, -1.72, 0.00, 1.42, 0.00, 73.66, 80.57
CTUN, 718, 0.00, 1.13, 0.000000, 0.00, 0, 5, 719, 0
GPS, 3, 458576400, 10, 1.57, -33.7839985, 151.0682017, 0.89, 97.97, 1.81, 19.87
ATT, 0.00, -1.95, 0.00, 0.83, 0.00, 70.37, 80.37
CTUN, 715, 0.00, 1.09, 0.000000, 0.00, 0, 27, 719, 0
ATT, 0.00, -2.12, 0.00, 0.27, 0.00, 67.50, 77.50
CTUN, 704, 0.00, 1.19, 0.000000, 0.00, 0, 41, 716, 0
GPS, 3, 458576600, 10, 1.57, -33.7839952, 151.0682026, 0.96, 97.92, 1.82, 17.54
ATT, 0.00, -2.35, 0.00, -0.20, 0.00, 64.85, 74.85
CTUN, 687, 0.00, 1.23, 0.000000, 0.00, 0, 56, 687, 0
ATT, 0.00, -2.20, 0.00, -0.67, 0.00, 62.93, 72.93
CTUN, 646, 0.00, 1.30, 0.000000, 0.00, 0, 67, 646, 0
PM, 0, 0, 50, 0, 1000, 10492, 10, 4
GPS, 3, 458576800, 10, 1.57, -33.7839928, 151.0682040, 1.11, 98.12, 1.61, 20.19
ATT, 0.00, -1.57, 0.00, -1.06, 0.00, 61.22, 71.22
CTUN, 646, 0.00, 1.36, 0.000000, 0.00, 0, 77, 646, 0
ATT, 0.00, -0.93, 0.00, -1.02, 0.00, 60.20, 70.20
CTUN, 646, 0.00, 1.45, 0.000000, 0.00, 0, 82, 646, 0
GPS, 3, 458577000, 10, 1.57, -33.7839905, 151.0682051, 1.30, 98.33, 1.45, 21.43
DU32, 7, 8569
CURR, 646, 54543, 1043, 1490, 4752, 35.84589
CTUN, 646, 0.00, 1.56, 0.000000, 0.00, 0, 87, 646, 0
ATT, 0.00, -0.77, 0.00, -0.63, 0.00, 59.63, 69.63
CTUN, 635, 0.00, 1.65, 0.000000, 0.00, 0, 91, 640, 0
ATT, 0.00, -0.55, 2.57, -0.22, 0.00, 59.73, 69.62
GPS, 3, 458577200, 10, 1.57, -33.7839888, 151.0682063, 1.50, 98.61, 1.24, 24.44
CTUN, 619, 0.00, 1.65, 0.000000, 0.00, 0, 95, 619, 0
ATT, 0.00, -0.12, 2.46, 0.65, 0.00, 60.14, 69.62
CTUN, 619, 0.00, 1.99, 0.000000, 0.00, 0, 95, 617, 0
GPS, 3, 458577400, 10, 1.57, -33.7839878, 151.0682077, 1.71, 98.72, 1.04, 28.80
ATT, 0.00, 0.80, 3.98, 2.14, 0.00, 61.05, 69.62
CTUN, 615, 0.00, 1.99, 0.000000, 0.00, 0, 96, 619, 0
ATT, 0.69, 1.20, 9.84, 3.71, 0.00, 61.95, 69.62
CTUN, 618, 0.00, 2.15, 0.000000, 0.00, 1, 94, 620, 0
GPS, 3, 458577600, 10, 1.57, -33.7839875, 151.0682090, 1.93, 98.94, 0.77, 28.80
ATT, 0.00, 1.20, 13.12, 8.22, 0.00, 62.95, 69.62
CTUN, 597, 0.00, 2.37, 0.000000, 0.00, 7, 88, 608, 0
ATT, 0.00, 1.36, 13.00, 11.91, 0.00, 63.67, 69.62
CTUN, 597, 0.00, 2.44, 0.000000, 0.00, 10, 86, 609, 0
GPS, 3, 458577800, 10, 1.57, -33.7839878, 151.0682103, 2.14, 99.12, 0.60, 28.80
ATT, 0.00, 0.88, 11.25, 13.41, 0.00, 64.32, 69.62
CTUN, 585, 0.00, 2.60, 0.000000, 0.00, 12, 80, 594, 0
ATT, 0.00, 0.52, 9.14, 13.01, 0.00, 64.81, 69.62
GPS, 3, 458578000, 10, 1.57, -33.7839886, 151.0682109, 2.32, 99.26, 0.27, 28.80
CTUN, 583, 0.00, 2.57, 0.000000, 0.00, 11, 75, 596, 0
DU32, 7, 8569
CURR, 584, 60068, 1058, 1253, 4732, 39.50793
ATT, 0.00, -0.10, 5.97, 10.89, 0.00, 65.60, 69.62
CTUN, 585, 0.00, 2.61, 0.000000, 0.00, 7, 68, 592, 0
ATT, 0.00, -0.22, 0.58, 8.49, 0.00, 66.36, 69.62
GPS, 3, 458578200, 10, 1.57, -33.7839888, 151.0682103, 2.49, 99.35, 0.28, 28.80
CTUN, 584, 0.00, 2.75, 0.000000, 0.00, 3, 64, 585, 0
ATT, 0.00, 0.38, 0.00, 4.94, 0.00, 67.15, 69.62
CTUN, 584, 0.00, 2.83, 0.000000, 0.00, 1, 59, 585, 0
ATT, 0.00, 0.30, 0.00, 3.09, 0.00, 67.93, 69.62
GPS, 3, 458578400, 8, 2.03, -33.7839904, 151.0682095, 2.63, 99.56, 0.62, 28.80
CTUN, 584, 0.00, 2.85, 0.000000, 0.00, 0, 52, 583, 0
ATT, 0.00, 1.10, 0.00, 2.06, 0.00, 68.69, 69.62
CTUN, 584, 0.00, 2.97, 0.000000, 0.00, 0, 46, 584, 0
GPS, 3, 458578600, 8, 2.03, -33.7839916, 151.0682080, 2.75, 99.73, 0.86, 28.80
ATT, 0.00, 1.39, 0.00, 1.42, 0.00, 69.25, 69.62
CTUN, 585, 0.00, 3.01, 0.000000, 0.00, 0, 39, 585, 0
ATT, 0.00, 1.33, 0.00, 1.00, 0.00, 69.51, 69.62
CTUN, 584, 0.00, 3.12, 0.000000, 0.00, 0, 32, 585, 0
GPS, 3, 458578800, 8, 2.03, -33.7839930, 151.0682062, 2.85, 99.88, 1.06, 311.63
ATT, 0.00, 1.02, 0.00, 0.77, 0.00, 69.60, 69.62
CTUN, 585, 0.00, 3.16, 0.000000, 0.00, 0, 26, 582, 0
ATT, 0.00, 0.86, 0.00, 0.73, 0.00, 69.54, 69.62
CTUN, 582, 0.00, 3.15, 0.000000, 0.00, 0, 19, 582, 0
GPS, 3, 458579000, 8, 2.03, -33.7839949, 151.0682050, 2.93, 100.02, 1.02, 263.64
CTUN, 584, 0.00, 3.17, 0.000000, 0.00, 0, 12, 584, 0
ATT, 0.00, 0.93, -0.84, 0.35, 0.00, 69.43, 69.62
DU32, 7, 8569
CURR, 584, 65335, 1056, 1198, 4732, 42.71180
CTUN, 584, 0.00, 3.25, 0.000000, 0.00, 0, 5, 584, 0
ATT, 0.00, 1.68, -5.57, -0.32, 0.00, 69.25, 69.62
GPS, 3, 458579200, 8, 2.03, -33.7839972, 151.0682035, 2.98, 100.10, 1.26, 232.18
CTUN, 584, 0.00, 3.22, 0.000000, 0.00, 0, -3, 584, 0
ATT, 0.00, 2.46, -7.03, -2.76, 0.00, 69.01, 69.62
CTUN, 585, 0.00, 3.19, 0.000000, 0.00, 1, -9, 583, 0
ATT, 0.00, 2.29, -8.36, -4.83, 0.00, 68.79, 69.62
GPS, 3, 458579400, 8, 2.03, -33.7839985, 151.0682015, 2.99, 100.05, 1.11, 231.22
CTUN, 584, 0.00, 3.21, 0.000000, 0.00, 2, -16, 586, 0
ATT, 0.00, 2.45, -8.49, -6.50, 0.00, 68.67, 69.62
CTUN, 582, 0.00, 3.20, 0.000000, 0.00, 3, -23, 587, 0
ATT, 0.00, 2.27, -8.61, -7.08, 0.00, 68.70, 69.62
GPS, 3, 458579600, 9, 1.93, -33.7840006, 151.0681999, 2.98, 100.01, 1.08, 231.99
CTUN, 584, 0.00, 3.27, 0.000000, 0.00, 3, -29, 587, 0
ATT, 0.00, 2.11, -8.12, -7.04, 0.00, 68.85, 69.62
CTUN, 594, 0.00, 3.22, 0.000000, 0.00, 3, -37, 591, 0
GPS, 3, 458579800, 10, 1.57, -33.7840030, 151.0681989, 2.94, 99.83, 0.95, 226.38
ATT, 0.00, 1.42, -7.52, -6.84, 0.00, 69.28, 69.62
CTUN, 600, 0.00, 3.24, 0.000000, 0.00, 3, -45, 603, 0
ATT, 0.00, 1.03, -7.64, -6.97, 0.00, 69.71, 69.62
CTUN, 612, 0.00, 3.12, 0.000000, 0.00, 3, -46, 609, 0
GPS, 3, 458580000, 10, 1.57, -33.7840049, 151.0681983, 2.88, 99.69, 0.67, 221.97
ATT, 0.00, 0.96, -9.70, -7.33, 0.00, 69.73, 69.62
CTUN, 632, 0.00, 3.03, 0.000000, 0.00, 4, -46, 620, 0
DU32, 7, 8569
CURR, 631, 70654, 1048, 1270, 4712, 45.99077
ATT, 0.00, 1.22, -10.91, -8.59, 0.00, 69.14, 69.62
CTUN, 632, 0.00, 2.98, 0.000000, 0.00, 5, -45, 637, 0
GPS, 3, 458580200, 9, 1.93, -33.7840064, 151.0681978, 2.81, 99.59, 0.55, 222.22
CTUN, 640, 0.00, 3.07, 0.000000, 0.00, 6, -45, 646, 0
ATT, 0.00, 0.66, -11.03, -9.25, 0.00, 67.53, 69.62
CTUN, 654, 0.00, 2.99, 0.000000, 0.00, 6, -43, 660, 0
ATT, 0.00, 0.54, -10.43, -8.86, 0.00, 65.89, 69.62
GPS, 3, 458580400, 10, 1.57, -33.7840078, 151.0681979, 2.75, 99.49, 0.36, 202.35
CTUN, 654, 0.00, 2.93, 0.000000, 0.00, 5, -35, 659, 0
ATT, -0.11, 0.48, -6.42, -8.03, 0.00, 63.87, 69.62
CTUN, 654, 0.00, 2.90, 0.000000, 0.00, 4, -26, 658, 0
ATT, 0.00, 1.11, -4.85, -6.31, 0.00, 62.35, 69.62
GPS, 3, 458580600, 9, 1.93, -33.7840089, 151.0681985, 2.72, 99.46, 0.31, 176.83
CTUN, 654, 0.00, 2.95, 0.000000, 0.00, 2, -17, 656, 0
ATT, 0.00, 1.39, -4.24, -4.41, 0.00, 61.09, 69.62
CTUN, 656, 0.00, 3.03, 0.000000, 0.00, 1, -4, 657, 0
GPS, 3, 458580800, 9, 1.93, -33.7840101, 151.0681997, 2.73, 99.46, 0.57, 142.67
ATT, 0.00, 1.25, -3.76, -3.06, 0.00, 59.82, 69.62
CTUN, 654, 0.00, 3.17, 0.000000, 0.00, 0, 6, 654, 0
ATT, 0.00, 1.07, 0.00, -2.09, 0.00, 58.88, 68.88
CTUN, 654, 0.00, 3.04, 0.000000, 0.00, 0, 14, 654, 0
GPS, 3, 458581000, 10, 1.57, -33.7840109, 151.0682007, 2.79, 99.33, 0.45, 142.67
ATT, 0.00, -0.74, 0.00, -0.37, 0.00, 58.01, 68.01
CTUN, 654, 0.00, 2.99, 0.000000, 0.00, 0, 24, 654, 0
DU32, 7, 8569
CURR, 654, 76518, 1036, 1535, 4732, 50.10163
ATT, 0.00, -1.43, 0.00, 0.22, 0.00, 57.52, 67.52
CTUN, 654, 0.00, 3.13, 0.000000, 0.00, 0, 31, 654, 0
GPS, 3, 458581200, 10, 1.57, -33.7840123, 151.0682023, 2.86, 99.19, 0.86, 135.84
CTUN, 617, 0.00, 3.09, 0.000000, 0.00, 0, 39, 617, 0
ATT, -4.53, -2.57, -0.48, -0.04, 0.00, 57.38, 67.33
CTUN, 607, 0.00, 3.12, 0.000000, 0.00, 0, 41, 606, 0
ATT, -5.69, -4.30, -1.21, -0.32, 0.00, 57.77, 67.33
GPS, 3, 458581400, 10, 1.57, -33.7840131, 151.0682038, 2.98, 99.00, 0.78, 128.37
CTUN, 604, 0.00, 3.16, 0.000000, 0.00, 2, 39, 606, 0
ATT, -1.16, -5.26, -1.81, -1.41, 0.00, 58.86, 67.33
CTUN, 578, 0.00, 3.19, 0.000000, 0.00, 2, 39, 586, 0
ATT, 0.00, -4.41, 0.00, -1.69, 0.00, 59.74, 67.33
GPS, 3, 458581600, 10, 1.57, -33.7840135, 151.0682049, 3.08, 99.00, 0.62, 123.89
CTUN, 577, 0.00, 3.34, 0.000000, 0.00, 0, 30, 577, 0
ATT, 0.00, -2.01, 0.00, -0.23, 0.00, 60.39, 67.33
CTUN, 577, 0.00, 3.45, 0.000000, 0.00, 0, 21, 577, 0
ATT, 0.00, -0.12, 0.00, 0.89, 0.00, 61.01, 67.33
GPS, 3, 458581800, 10, 1.57, -33.7840140, 151.0682055, 3.15, 99.05, 0.34, 123.89
CTUN, 577, 0.00, 3.46, 0.000000, 0.00, 0, 14, 577, 0
ATT, 0.00, -0.12, 0.00, 1.45, 0.00, 61.71, 67.33
CTUN, 577, 0.00, 3.46, 0.000000, 0.00, 0, 5, 575, 0
GPS, 3, 458582000, 10, 1.57, -33.7840143, 151.0682060, 3.21, 99.11, 0.33, 123.89
ATT, 0.00, -0.47, 0.00, 1.19, 0.00, 62.29, 67.33
CTUN, 576, 0.00, 3.47, 0.000000, 0.00, 0, -4, 577, 0
DU32, 7, 8569
CURR, 577, 82517, 1053, 1187, 4732, 54.08984
ATT, 0.00, -0.34, 0.00, 1.60, 0.00, 62.52, 67.33
CTUN, 577, 0.00, 3.53, 0.000000, 0.00, 0, -11, 577, 0
GPS, 3, 458582200, 10, 1.57, -33.7840145, 151.0682060, 3.22, 99.19, 0.17, 123.89
ATT, 0.00, -0.11, 0.00, 1.72, 0.00, 62.65, 67.33
CTUN, 577, 0.00, 3.44, 0.000000, 0.00, 0, -20, 577, 0
ATT, 0.00, 0.00, 0.00, 1.72, 0.00, 62.69, 67.33
CTUN, 577, 0.00, 3.34, 0.000000, 0.00, 0, -26, 575, 0
GPS, 3, 458582400, 10, 1.57, -33.7840149, 151.0682061, 3.21, 99.16, 0.11, 123.89
CTUN, 578, 0.00, 3.48, 0.000000, 0.00, 0, -33, 577, 0
ATT, 0.00, 0.59, 0.00, 1.84, 0.00, 62.59, 67.33
CTUN, 577, 0.00, 3.37, 0.000000, 0.00, 0, -37, 577, 0
ATT, 0.00, 0.76, 0.00, 1.62, 0.00, 62.44, 67.33
GPS, 3, 458582600, 10, 1.57, -33.7840153, 151.0682060, 3.16, 99.11, 0.18, 123.89
CTUN, 578, 0.00, 3.33, 0.000000, 0.00, 0, -46, 577, 0
ATT, 0.00, 0.61, 0.00, 1.24, 0.00, 62.26, 67.33
CTUN, 577, 0.00, 3.26, 0.000000, 0.00, 0, -50, 577, 0
ATT, 0.00, 0.31, 0.00, 0.74, 0.00, 62.01, 67.33
GPS, 3, 458582800, 10, 1.57, -33.7840155, 151.0682054, 3.09, 99.03, 0.21, 123.89
CTUN, 577, 0.00, 3.39, 0.000000, 0.00, 0, -57, 578, 0
ATT, 0.00, -0.03, 0.00, 0.18, 0.00, 61.67, 67.33
CTUN, 576, 0.00, 3.27, 0.000000, 0.00, 0, -60, 577, 0
ATT, 0.00, -0.27, 0.00, -0.13, 0.00, 61.26, 67.33
GPS, 3, 458583000, 10, 1.57, -33.7840155, 151.0682048, 2.99, 98.92, 0.23, 123.89
CTUN, 577, 0.00, 3.17, 0.000000, 0.00, 0, -67, 577, 0
ATT, 0.00, -0.47, 0.00, -0.50, 0.00, 60.70, 67.33
DU32, 7, 8569
CURR, 577, 87712, 1057, 1216, 4712, 57.31477
CTUN, 577, 0.00, 3.19, 0.000000, 0.00, 0, -74, 577, 0
ATT, 0.00, -0.72, 0.00, -0.63, 0.00, 60.12, 67.33
GPS, 3, 458583200, 10, 1.57, -33.7840159, 151.0682039, 2.89, 98.79, 0.41, 183.29
CTUN, 577, 0.00, 3.10, 0.000000, 0.00, 0, -79, 577, 0
ATT, 0.00, -0.29, 0.00, -0.55, 0.00, 59.24, 67.33
CTUN, 578, 0.00, 3.09, 0.000000, 0.00, 0, -86, 577, 0
ATT, 0.00, -0.04, 0.00, -0.44, 0.00, 58.24, 67.33
GPS, 3, 458583400, 10, 1.57, -33.7840158, 151.0682031, 2.74, 98.68, 0.29, 183.29
CTUN, 577, 0.00, 3.00, 0.000000, 0.00, 0, -89, 576, 0
ATT, 0.00, 0.15, 0.00, -0.53, 0.00, 57.41, 67.33
CTUN, 576, 0.00, 2.95, 0.000000, 0.00, 0, -94, 578, 0
ATT, 0.00, 0.14, 0.00, -0.71, 0.00, 56.77, 66.77
GPS, 3, 458583600, 10, 1.57, -33.7840160, 151.0682023, 2.59, 98.53, 0.44, 249.81
CTUN, 576, 0.00, 2.99, 0.000000, 0.00, 0, -96, 576, 0
ATT, 0.00, -0.04, 0.00, -1.27, 0.00, 56.29, 66.29
CTUN, 577, 0.00, 2.74, 0.000000, 0.00, 0, -100, 576, 0
ATT, 0.00, -0.48, 0.00, -1.74, 0.00, 55.85, 65.85
GPS, 3, 458583800, 9, 1.67, -33.7840160, 151.0682015, 2.43, 98.36, 0.30, 253.46
CTUN, 576, 0.00, 2.78, 0.000000, 0.00, 0, -106, 576, 0
ATT, 0.00, -0.20, 0.00, -1.68, 0.00, 55.35, 65.35
CTUN, 578, 0.00, 2.67, 0.000000, 0.00, 0, -111, 578, 0
ATT, 0.00, 0.11, 0.00, -1.19, 0.00, 54.79, 64.79
GPS, 3, 458584000, 9, 1.67, -33.7840156, 151.0682009, 2.26, 98.17, 0.38, 293.27
CTUN, 578, 0.00, 2.55, 0.000000, 0.00, 0, -114, 578, 0
DU32, 7, 8569
CURR, 603, 93482, 1052, 1247, 4712, 60.80227
ATT, 0.00, -0.23, 0.00, -1.30, 0.00, 54.08, 64.08
CTUN, 632, 0.00, 2.39, 0.000000, 0.00, 0, -117, 632, 0
ATT, 0.00, -0.74, 0.00, -1.19, 0.00, 53.20, 63.20
GPS, 3, 458584200, 9, 1.67, -33.7840156, 151.0682003, 2.07, 97.88, 0.37, 291.51
CTUN, 647, 0.00, 2.36, 0.000000, 0.00, 0, -113, 644, 0
ATT, 0.00, -0.41, 0.00, -0.57, 0.00, 52.06, 62.06
CTUN, 657, 0.00, 2.21, 0.000000, 0.00, 0, -103, 657, 0
GPS, 3, 458584400, 9, 1.67, -33.7840153, 151.0681997, 1.91, 97.64, 0.30, 291.51
ATT, 0.00, 0.18, 0.00, -0.24, 0.00, 50.68, 60.68
CTUN, 683, 0.00, 2.16, 0.000000, 0.00, 0, -92, 683, 0
ATT, 0.00, 0.15, 0.00, -0.38, 0.00, 49.35, 59.35
CTUN, 685, 0.00, 2.09, 0.000000, 0.00, 0, -78, 685, 0
GPS, 3, 458584600, 9, 1.67, -33.7840149, 151.0681994, 1.76, 97.48, 0.29, 304.23
ATT, 0.00, -0.22, 0.00, -0.26, 0.00, 47.79, 57.79
CTUN, 685, 0.00, 2.05, 0.000000, 0.00, 0, -65, 685, 0
ATT, 0.00, -0.09, 0.00, 0.68, 0.00, 46.54, 56.54
CTUN, 684, 0.00, 1.88, 0.000000, 0.00, 0, -54, 684, 0
GPS, 3, 458584800, 9, 1.67, -33.7840145, 151.0681987, 1.68, 97.24, 0.45, 304.60
ATT, 0.00, -0.31, 0.00, 1.35, 0.00, 45.15, 55.15
CTUN, 683, 0.00, 1.77, 0.000000, 0.00, 0, -43, 684, 0
ATT, 0.00, -0.27, 0.00, 1.56, 0.00, 44.22, 54.22
CTUN, 685, 0.00, 1.73, 0.000000, 0.00, 0, -33, 685, 0
GPS, 3, 458585000, 9, 1.67, -33.7840142, 151.0681983, 1.62, 97.22, 0.36, 304.60
CTUN, 685, 0.00, 1.65, 0.000000, 0.00, 0, -20, 685, 0
ATT, 0.00, 0.34, 0.00, 1.98, 0.00, 43.47, 53.47
DU32, 7, 8569
CURR, 685, 99520, 1033, 1622, 4693, 64.96874
CTUN, 684, 0.00, 1.69, 0.000000, 0.00, 0, -12, 684, 0
ATT, 0.00, 0.09, 0.00, 1.82, 0.00, 43.14, 53.14
GPS, 3, 458585200, 9, 1.67, -33.7840137, 151.0681975, 1.59, 97.12, 0.52, 307.51
CTUN, 684, 0.00, 1.53, 0.000000, 0.00, 0, -2, 685, 0
ATT, 0.00, -0.11, 0.00, 1.70, 0.00, 42.94, 52.94
CTUN, 685, 0.00, 1.67, 0.000000, 0.00, 0, 7, 683, 0
ATT, 0.00, 0.09, 0.00, 1.50, 0.24, 43.12, 52.95
GPS, 3, 458585400, 9, 1.67, -33.7840134, 151.0681964, 1.60, 97.07, 0.59, 301.17
CTUN, 685, 0.00, 1.67, 0.000000, 0.00, 0, 15, 683, 0
ATT, 0.00, -0.11, 0.00, 1.52, 13.56, 43.90, 53.90
CTUN, 685, 0.00, 1.67, 0.000000, 0.00, 0, 26, 684, 0
GPS, 3, 458585600, 9, 1.67, -33.7840130, 151.0681954, 1.66, 97.06, 0.58, 298.31
ATT, 0.00, 1.17, 0.00, 1.92, 11.88, 47.02, 57.02
CTUN, 685, 0.00, 1.61, 0.000000, 0.00, 0, 42, 685, 0
ATT, 0.00, 1.46, 0.00, 1.78, 5.04, 50.62, 60.10
CTUN, 669, 0.00, 1.71, 0.000000, 0.00, 0, 52, 674, 0
GPS, 3, 458585800, 9, 1.67, -33.7840132, 151.0681942, 1.75, 97.14, 0.57, 280.96
ATT, 0.00, 0.73, 0.00, 0.36, 0.00, 53.33, 60.69
CTUN, 649, 0.00, 1.85, 0.000000, 0.00, 0, 59, 649, 0
ATT, 0.00, 0.85, 0.00, 0.09, 0.00, 54.67, 60.69
CTUN, 633, 0.00, 1.74, 0.000000, 0.00, 0, 62, 633, 0
GPS, 3, 458586000, 9, 1.67, -33.7840134, 151.0681931, 1.87, 97.22, 0.52, 273.39
ATT, 0.00, 1.05, 0.00, -0.44, 0.00, 55.54, 60.69
DU32, 7, 8569
CURR, 614, 105582, 1042, 1388, 4732, 69.25965
CTUN, 607, 0.00, 1.97, 0.000000, 0.00, 0, 61, 614, 0
ATT, 0.00, 1.23, -0.72, -0.65, 0.00, 55.84, 60.69
GPS, 3, 458586200, 9, 1.67, -33.7840136, 151.0681917, 1.97, 97.30, 0.63, 266.37
CTUN, 602, 0.00, 2.06, 0.000000, 0.00, 0, 55, 603, 0
ATT, 0.00, 1.09, -2.66, -1.11, 0.00, 55.77, 60.69
CTUN, 605, 0.00, 2.11, 0.000000, 0.00, 0, 45, 604, 0
ATT, 0.00, 0.59, -2.91, -2.33, 0.00, 55.40, 60.69
GPS, 3, 458586400, 9, 1.67, -33.7840138, 151.0681904, 2.08, 97.45, 0.61, 268.37
CTUN, 604, 0.00, 2.19, 0.000000, 0.00, 0, 36, 604, 0
ATT, 0.00, 0.01, -3.15, -2.90, 0.00, 54.82, 60.69
CTUN, 602, 0.00, 2.22, 0.000000, 0.00, 0, 27, 602, 0
ATT, 0.00, 0.26, -3.15, -3.16, 0.00, 54.23, 60.69
GPS, 3, 458586600, 9, 1.67, -33.7840133, 151.0681891, 2.15, 97.50, 0.54, 272.31
CTUN, 602, 0.00, 2.18, 0.000000, 0.00, 0, 23, 602, 0
ATT, 0.00, 0.38, -4.60, -3.08, 0.00, 53.75, 60.69
CTUN, 600, 0.00, 2.17, 0.000000, 0.00, 0, 19, 600, 0
PM, 0, 0, 50, 0, 1000, 10472, 5, 4
ATT, 0.00, 0.43, -4.36, -3.33, 0.00, 53.47, 60.69
GPS, 3, 458586800, 9, 1.67, -33.7840129, 151.0681880, 2.19, 97.52, 0.49, 276.35
CTUN, 602, 0.00, 2.16, 0.000000, 0.00, 0, 15, 603, 0
ATT, 0.00, 0.20, -4.36, -3.66, 0.00, 53.42, 60.69
CTUN, 603, 0.00, 2.28, 0.000000, 0.00, 0, 11, 603, 0
ATT, 0.00, 0.25, -3.27, -3.61, 0.00, 53.36, 60.69
GPS, 3, 458587000, 9, 1.67, -33.7840130, 151.0681872, 2.22, 97.60, 0.43, 279.23
CTUN, 603, 0.00, 2.38, 0.000000, 0.00, 0, 5, 603, 0
DU32, 7, 8569
CURR, 603, 111620, 1046, 1291, 4732, 73.05824
ATT, 0.00, 0.31, -3.63, -3.22, 0.00, 53.30, 60.69
CTUN, 603, 0.00, 2.38, 0.000000, 0.00, 0, 0, 603, 0
ATT, 0.00, 0.61, -4.60, -2.75, 0.00, 53.21, 60.69
GPS, 3, 458587200, 9, 1.67, -33.7840126, 151.0681866, 2.24, 97.61, 0.42, 293.97
CTUN, 604, 0.00, 2.36, 0.000000, 0.00, 0, -3, 605, 0
ATT, 0.00, 1.17, -7.27, -3.08, 0.00, 53.08, 60.69
CTUN, 604, 0.00, 2.29, 0.000000, 0.00, 0, -4, 604, 0
GPS, 3, 458587400, 9, 1.67, -33.7840117, 151.0681860, 2.24, 97.67, 0.45, 313.33
ATT, 0.00, 1.08, -8.00, -4.65, 0.00, 53.02, 60.69
CTUN, 603, 0.00, 2.35, 0.000000, 0.00, 1, -8, 604, 0
ATT, 0.00, 1.28, -8.85, -6.06, 0.00, 53.13, 60.69
CTUN, 603, 0.00, 2.38, 0.000000, 0.00, 2, -13, 605, 0
GPS, 3, 458587600, 9, 1.67, -33.7840114, 151.0681857, 2.23, 97.66, 0.25, 313.33
ATT, 0.00, 1.33, -9.21, -6.94, 0.00, 53.33, 60.69
CTUN, 604, 0.00, 2.28, 0.000000, 0.00, 3, -16, 603, 0
ATT, 0.00, 1.53, -8.61, -7.46, 0.00, 53.57, 60.69
CTUN, 605, 0.00, 2.24, 0.000000, 0.00, 4, -17, 609, 0
GPS, 3, 458587800, 9, 1.67, -33.7840109, 151.0681855, 2.21, 97.64, 0.39, 328.58
ATT, 0.00, 1.51, -7.15, -7.42, 0.00, 53.81, 60.69
CTUN, 604, 0.00, 2.31, 0.000000, 0.00, 4, -19, 607, 0
ATT, 0.00, 1.46, -1.57, -6.69, 0.00, 53.98, 60.69
CTUN, 604, 0.00, 2.27, 0.000000, 0.00, 3, -24, 607, 0
GPS, 3, 458588000, 9, 1.67, -33.7840104, 151.0681859, 2.17, 97.61, 0.42, 351.47
ATT, 0.00, 1.01, 0.00, -3.84, 0.00, 54.07, 60.69
CTUN, 625, 0.00, 2.13, 0.000000, 0.00, 0, -28, 620, 0
DU32, 7, 8569
CURR, 625, 117694, 1043, 1335, 4712, 76.81189
ATT, 0.00, 1.45, 0.00, -0.76, 0.00, 54.00, 60.69
CTUN, 623, 0.00, 2.31, 0.000000, 0.00, 0, -31, 623, 0
GPS, 3, 458588200, 8, 2.36, -33.7840097, 151.0681866, 2.13, 97.61, 0.57, 15.95
ATT, 0.00, 0.77, 0.00, 1.06, 0.00, 54.05, 60.69
CTUN, 625, 0.00, 2.14, 0.000000, 0.00, 0, -33, 625, 0
ATT, 0.00, 0.07, 0.00, 1.57, 0.00, 54.16, 60.69
CTUN, 625, 0.00, 2.17, 0.000000, 0.00, 0, -32, 625, 0
GPS, 3, 458588400, 8, 2.36, -33.7840092, 151.0681875, 2.07, 97.52, 0.60, 24.37
ATT, 0.00, -0.06, 0.00, 1.79, 0.00, 54.33, 60.69
CTUN, 626, 0.00, 2.15, 0.000000, 0.00, 0, -31, 626, 0
ATT, 0.00, 0.06, 0.00, 1.63, 0.00, 54.69, 60.69
CTUN, 631, 0.00, 2.12, 0.000000, 0.00, 0, -29, 631, 0
GPS, 3, 458588600, 8, 2.36, -33.7840086, 151.0681880, 2.02, 97.50, 0.44, 25.81
CTUN, 640, 0.00, 2.12, 0.000000, 0.00, 0, -27, 640, 0
ATT, 0.00, 0.10, 0.00, 1.46, 0.00, 55.45, 60.69
CTUN, 648, 0.00, 2.12, 0.000000, 0.00, 0, -24, 648, 0
ATT, 0.00, 0.14, 0.00, 1.76, 0.00, 56.20, 60.69
GPS, 3, 458588800, 8, 2.36, -33.7840078, 151.0681882, 1.98, 97.41, 0.42, 20.21
CTUN, 650, 0.00, 2.05, 0.000000, 0.00, 0, -17, 650, 0
ATT, 0.00, -0.10, 0.00, 1.70, 0.00, 57.08, 60.69
CTUN, 648, 0.00, 2.14, 0.000000, 0.00, 0, -9, 648, 0
ATT, 0.00, -0.55, 0.00, 1.45, 0.00, 57.81, 60.69
GPS, 3, 458589000, 8, 2.36, -33.7840075, 151.0681886, 1.96, 97.38, 0.31, 19.61
CTUN, 648, 0.00, 2.03, 0.000000, 0.00, 0, -6, 648, 0
ATT, 0.00, -0.44, 0.00, 1.14, 0.00, 58.32, 60.69
DU32, 7, 8569
CURR, 648, 123417, 1040, 1405, 4752, 80.48141
CTUN, 648, 0.00, 2.04, 0.000000, 0.00, 0, -3, 648, 0
ATT, 0.46, -0.40, 0.00, 0.81, 0.00, 58.77, 60.69
GPS, 3, 458589200, 9, 1.67, -33.7840068, 151.0681886, 1.97, 97.37, 0.42, 2.94
CTUN, 649, 0.00, 1.97, 0.000000, 0.00, 0, 1, 648, 0
ATT, 5.19, 0.30, 0.00, 0.50, 0.00, 59.15, 60.69
CTUN, 649, 0.00, 1.94, 0.000000, 0.00, 0, 4, 649, 0
GPS, 3, 458589400, 9, 1.67, -33.7840063, 151.0681884, 1.98, 97.33, 0.35, 354.80
ATT, 10.61, 2.94, 0.00, 0.49, 0.00, 59.23, 60.69
CTUN, 650, 0.00, 1.96, 0.000000, 0.00, 1, 10, 651, 0
ATT, 11.65, 6.39, 0.00, 0.64, 0.00, 59.05, 60.69
CTUN, 650, 0.00, 2.06, 0.000000, 0.00, 4, 12, 654, 0
GPS, 3, 458589600, 9, 1.67, -33.7840058, 151.0681882, 2.00, 97.35, 0.32, 345.19
ATT, 10.15, 8.38, 0.00, 0.85, 0.00, 58.84, 60.69
CTUN, 649, 0.00, 2.12, 0.000000, 0.00, 6, 13, 655, 0
ATT, 10.15, 8.59, 0.00, 0.72, 0.00, 58.66, 60.69
CTUN, 650, 0.00, 2.03, 0.000000, 0.00, 5, 20, 655, 0
GPS, 3, 458589800, 9, 1.67, -33.7840056, 151.0681880, 2.04, 97.32, 0.20, 342.71
ATT, 8.07, 8.41, 0.00, 0.40, 0.00, 58.50, 60.69
CTUN, 650, 0.00, 1.98, 0.000000, 0.00, 5, 27, 653, 0
ATT, 5.76, 7.29, 0.00, 0.37, 0.00, 58.41, 60.69
CTUN, 650, 0.00, 2.13, 0.000000, 0.00, 4, 31, 654, 0
GPS, 3, 458590000, 9, 1.67, -33.7840058, 151.0681880, 2.08, 97.33, 0.06, 342.71
ATT, 5.76, 5.32, 0.00, 0.00, 0.00, 58.30, 60.69
CTUN, 650, 0.00, 2.11, 0.000000, 0.00, 2, 36, 652, 0
DU32, 7, 8569
CURR, 650, 129934, 1038, 1409, 4712, 84.63911
ATT, 5.65, 4.35, 0.00, -0.31, 0.00, 58.12, 60.69
CTUN, 650, 0.00, 2.22, 0.000000, 0.00, 1, 37, 651, 0
GPS, 3, 458590200, 9, 1.67, -33.7840064, 151.0681882, 2.16, 97.39, 0.26, 237.11
ATT, 3.46, 4.23, 0.00, 0.05, 0.00, 57.67, 60.69
CTUN, 648, 0.00, 2.36, 0.000000, 0.00, 1, 38, 649, 0
ATT, 0.00, 3.77, 0.00, 0.14, 0.00, 57.20, 60.69
CTUN, 648, 0.00, 2.28, 0.000000, 0.00, 1, 38, 649, 0
GPS, 3, 458590400, 9, 1.67, -33.7840073, 151.0681886, 2.26, 97.42, 0.47, 179.79
CTUN, 650, 0.00, 2.29, 0.000000, 0.00, 0, 44, 648, 0
ATT, 0.00, 1.29, -0.97, -0.13, 0.00, 56.74, 60.69
CTUN, 650, 0.00, 2.33, 0.000000, 0.00, 0, 50, 650, 0
ATT, 0.00, 0.23, -1.94, -0.69, 0.00, 56.28, 60.69
GPS, 3, 458590600, 9, 1.67, -33.7840083, 151.0681888, 2.35, 97.47, 0.54, 175.67
CTUN, 650, 0.00, 2.39, 0.000000, 0.00, 0, 54, 650, 0
ATT, 0.00, -1.14, -3.51, -1.74, 0.00, 56.01, 60.69
CTUN, 650, 0.00, 2.64, 0.000000, 0.00, 0, 53, 650, 0
GPS, 3, 458590800, 9, 1.67, -33.7840093, 151.0681889, 2.46, 97.50, 0.52, 173.58
ATT, 0.00, -2.28, -4.24, -3.10, 0.00, 55.95, 60.69
CTUN, 650, 0.00, 2.53, 0.000000, 0.00, 1, 51, 651, 0
ATT, 0.00, -2.22, -4.97, -3.95, 0.00, 55.87, 60.69
CTUN, 650, 0.00, 2.66, 0.000000, 0.00, 1, 51, 651, 0
GPS, 3, 458591000, 9, 1.67, -33.7840099, 151.0681894, 2.57, 97.61, 0.37, 165.33
ATT, 0.00, -1.56, -5.70, -4.58, 0.00, 55.85, 60.69
CTUN, 648, 0.00, 2.61, 0.000000, 0.00, 1, 54, 651, 0
DU32, 7, 8569
CURR, 650, 135785, 1036, 1417, 4732, 88.45674
ATT, 0.00, -1.15, -6.30, -5.38, 0.00, 55.87, 60.69
CTUN, 650, 0.00, 2.61, 0.000000, 0.00, 2, 60, 651, 0
GPS, 3, 458591200, 9, 1.67, -33.7840106, 151.0681898, 2.69, 97.67, 0.33, 159.83
ATT, 0.00, -0.81, -3.88, -5.97, 0.00, 55.93, 60.69
CTUN, 650, 0.00, 2.68, 0.000000, 0.00, 2, 62, 652, 0
ATT, 0.00, -0.85, -0.24, -5.01, 0.00, 55.88, 60.69
CTUN, 650, 0.00, 2.80, 0.000000, 0.00, 1, 62, 651, 0
GPS, 3, 458591400, 9, 1.67, -33.7840106, 151.0681905, 2.80, 97.78, 0.29, 159.83
ATT, 0.00, -0.33, 0.00, -2.64, 0.00, 55.79, 60.69
CTUN, 652, 0.00, 2.83, 0.000000, 0.00, 0, 66, 650, 0
ATT, 0.00, -0.15, 0.00, -1.47, 0.00, 55.86, 60.69
CTUN, 650, 0.00, 2.87, 0.000000, 0.00, 0, 72, 649, 0
GPS, 3, 458591600, 9, 1.67, -33.7840106, 151.0681915, 2.92, 97.88, 0.42, 111.60
ATT, 0.00, -0.36, -1.09, -1.22, 0.00, 55.98, 60.69
CTUN, 650, 0.00, 2.87, 0.000000, 0.00, 0, 78, 650, 0
ATT, 0.00, -0.24, -1.94, -1.46, 0.00, 55.99, 60.69
CTUN, 650, 0.00, 2.94, 0.000000, 0.00, 0, 82, 650, 0
GPS, 3, 458591800, 9, 1.67, -33.7840102, 151.0681923, 3.09, 98.05, 0.43, 82.96
CTUN, 650, 0.00, 3.15, 0.000000, 0.00, 0, 82, 650, 0
ATT, 4.84, 0.65, -3.88, -2.27, 0.00, 55.91, 60.69
CTUN, 649, 0.00, 3.20, 0.000000, 0.00, 1, 83, 651, 0
ATT, 10.15, 3.41, -5.70, -2.96, 0.00, 55.66, 60.69
GPS, 3, 458592000, 9, 1.67, -33.7840097, 151.0681933, 3.25, 98.18, 0.55, 61.38
CTUN, 649, 0.00, 3.18, 0.000000, 0.00, 3, 88, 651, 0
ATT, 12.92, 7.23, -7.76, -4.23, 0.00, 55.37, 60.69
DU32, 7, 8569
CURR, 650, 141644, 1037, 1437, 4712, 92.33093
CTUN, 650, 0.00, 3.25, 0.000000, 0.00, 8, 93, 658, 0
GPS, 3, 458592200, 9, 1.67, -33.7840090, 151.0681948, 3.42, 98.32, 0.78, 58.84
ATT, 11.65, 10.78, -7.27, -5.16, 0.00, 55.15, 60.69
CTUN, 650, 0.00, 3.47, 0.000000, 0.00, 12, 95, 662, 0
ATT, 11.30, 11.58, -7.27, -4.88, 0.00, 55.21, 60.69
CTUN, 649, 0.00, 3.58, 0.000000, 0.00, 13, 97, 663, 0
GPS, 3, 458592400, 9, 1.67, -33.7840087, 151.0681965, 3.60, 98.48, 0.81, 65.86
ATT, 9.69, 11.90, -6.42, -4.83, 0.00, 55.18, 60.69
CTUN, 649, 0.00, 3.49, 0.000000, 0.00, 12, 102, 661, 0
ATT, 7.96, 10.86, -6.30, -4.56, 0.00, 55.19, 60.69
CTUN, 648, 0.00, 3.72, 0.000000, 0.00, 11, 103, 660, 0
GPS, 3, 458592600, 9, 1.67, -33.7840087, 151.0681989, 3.78, 98.66, 1.07, 78.71
ATT, 0.00, 8.93, -3.63, -3.88, 0.00, 55.32, 60.69
CTUN, 649, 0.00, 3.80, 0.000000, 0.00, 7, 107, 656, 0
ATT, 0.00, 5.60, -2.66, -2.61, 0.00, 55.73, 60.69
CTUN, 648, 0.00, 3.90, 0.000000, 0.00, 3, 108, 653, 0
GPS, 3, 458592800, 8, 2.36, -33.7840088, 151.0682018, 4.00, 98.83, 1.33, 83.47
ATT, 0.00, 2.57, -0.72, -1.23, 0.00, 56.05, 60.69
CTUN, 649, 0.00, 4.07, 0.000000, 0.00, 0, 107, 649, 0
ATT, 0.00, 1.09, 0.00, 0.36, 0.00, 56.09, 60.69
CTUN, 648, 0.00, 4.32, 0.000000, 0.00, 0, 108, 649, 0
GPS, 3, 458593000, 9, 1.67, -33.7840093, 151.0682050, 4.22, 98.94, 1.46, 87.26
CTUN, 649, 0.00, 4.31, 0.000000, 0.00, 0, 115, 649, 0
ATT, 0.00, 0.56, 0.00, 1.93, 0.00, 55.95, 60.69
DU32, 7, 8569
CURR, 649, 147548, 1035, 1424, 4693, 96.27804
CTUN, 649, 0.00, 4.47, 0.000000, 0.00, 0, 115, 649, 0
ATT, 0.00, -0.49, 0.00, 2.47, 0.00, 55.78, 60.69
GPS, 3, 458593200, 9, 1.67, -33.7840102, 151.0682082, 4.45, 99.03, 1.48, 93.74
CTUN, 649, 0.00, 4.67, 0.000000, 0.00, 0, 115, 649, 0
ATT, 0.00, -0.84, 0.00, 2.67, 0.00, 55.60, 60.69
CTUN, 649, 0.00, 4.71, 0.000000, 0.00, 0, 123, 649, 0
ATT, 0.00, -0.90, 0.00, 3.00, 0.00, 55.35, 60.69
GPS, 3, 458593400, 9, 1.67, -33.7840106, 151.0682112, 4.70, 99.17, 1.36, 95.11
CTUN, 649, 0.00, 4.76, 0.000000, 0.00, 0, 131, 649, 0
ATT, 0.00, -1.02, 0.00, 3.11, 0.00, 55.07, 60.69
CTUN, 649, 0.00, 4.94, 0.000000, 0.00, 0, 137, 649, 0
GPS, 3, 458593600, 8, 2.36, -33.7840112, 151.0682139, 4.96, 99.38, 1.17, 98.26
ATT, -1.16, -0.78, 0.00, 3.51, 0.00, 54.78, 60.69
CTUN, 649, 0.00, 5.02, 0.000000, 0.00, 1, 141, 650, 0
ATT, -1.16, -1.38, 0.00, 3.43, 0.00, 54.55, 60.69
CTUN, 649, 0.00, 5.21, 0.000000, 0.00, 1, 144, 650, 0
GPS, 3, 458593800, 8, 2.36, -33.7840115, 151.0682161, 5.23, 99.64, 0.90, 96.57
ATT, 0.00, -2.02, 0.00, 2.72, 0.00, 54.31, 60.69
CTUN, 649, 0.00, 5.25, 0.000000, 0.00, 0, 147, 649, 0
ATT, 0.00, -0.76, 0.00, 2.24, 0.00, 54.00, 60.69
CTUN, 649, 0.00, 5.36, 0.000000, 0.00, 0, 152, 649, 0
GPS, 3, 458594000, 8, 2.36, -33.7840118, 151.0682179, 5.50, 99.89, 0.76, 96.62
ATT, 0.00, -0.17, 0.00, 2.54, 0.00, 53.81, 60.69
CTUN, 652, 0.00, 5.68, 0.000000, 0.00, 0, 153, 652, 0
DU32, 7, 8569
CURR, 649, 154043, 1036, 1452, 4712, 100.5860
ATT, 0.00, 0.00, 0.00, 2.40, 0.00, 53.83, 60.69
CTUN, 649, 0.00, 5.67, 0.000000, 0.00, 0, 152, 649, 0
GPS, 3, 458594200, 9, 1.67, -33.7840126, 151.0682197, 5.83, 100.19, 0.79, 105.14
CTUN, 647, 0.00, 5.80, 0.000000, 0.00, 0, 157, 647, 0
ATT, 0.00, 0.51, 0.00, 2.35, 0.00, 53.94, 60.69
CTUN, 647, 0.00, 6.09, 0.000000, 0.00, 0, 157, 647, 0
ATT, 0.00, 0.88, -6.30, 1.70, 0.00, 53.97, 60.69
GPS, 3, 458594400, 10, 1.57, -33.7840133, 151.0682209, 6.13, 100.47, 0.57, 107.92
CTUN, 647, 0.00, 6.17, 0.000000, 0.00, 0, 157, 645, 0
ATT, 0.00, 1.27, -6.91, -0.61, 0.00, 54.00, 60.69
CTUN, 562, 0.00, 6.28, 0.000000, 0.00, 0, 156, 562, 0
ATT, 0.00, 1.02, -7.27, -2.35, 0.00, 54.10, 60.69
GPS, 3, 458594600, 10, 1.57, -33.7840142, 151.0682220, 6.44, 100.83, 0.60, 123.16
CTUN, 561, 0.00, 6.39, 0.000000, 0.00, 0, 146, 561, 0
ATT, 0.00, 1.22, -6.42, -3.46, 0.00, 54.08, 60.69
CTUN, 562, 0.00, 6.53, 0.000000, 0.00, 1, 133, 563, 0
ATT, 0.00, 1.76, -5.57, -3.72, 0.00, 54.22, 60.69
GPS, 3, 458594800, 10, 1.57, -33.7840152, 151.0682230, 6.70, 101.18, 0.61, 126.82
CTUN, 562, 0.00, 6.63, 0.000000, 0.00, 1, 120, 563, 0
ATT, 0.00, 1.88, -7.27, -3.40, 0.00, 54.50, 60.69
CTUN, 562, 0.00, 6.91, 0.000000, 0.00, 1, 107, 563, 0
GPS, 3, 458595000, 9, 1.94, -33.7840157, 151.0682235, 6.92, 101.48, 0.37, 127.85
ATT, 0.00, 1.80, -9.46, -4.18, 0.00, 54.83, 60.69
CTUN, 583, 0.00, 6.93, 0.000000, 0.00, 1, 93, 584, 0
ATT, 0.00, 1.10, -9.82, -5.72, 0.00, 55.14, 60.69
DU32, 7, 8569
CURR, 585, 159430, 1049, 1138, 4712, 103.9333
CTUN, 595, 0.00, 7.08, 0.000000, 0.00, 2, 83, 597, 0
GPS, 3, 458595200, 10, 1.57, -33.7840165, 151.0682246, 7.09, 101.60, 0.57, 116.89
ATT, 0.00, 0.87, -7.27, -6.69, 0.00, 55.47, 60.69
CTUN, 610, 0.00, 7.18, 0.000000, 0.00, 3, 74, 612, 0
ATT, -1.97, 1.27, -5.57, -5.60, 0.00, 55.62, 60.69
CTUN, 614, 0.00, 7.20, 0.000000, 0.00, 2, 70, 615, 0
GPS, 3, 458595400, 9, 1.94, -33.7840169, 151.0682259, 7.24, 101.68, 0.63, 108.44
ATT, -2.79, 0.78, -6.06, -3.73, 0.00, 55.59, 60.69
CTUN, 639, 0.00, 7.31, 0.000000, 0.00, 1, 65, 640, 0
ATT, -3.48, -0.34, -5.57, -3.21, 0.00, 55.60, 60.69
CTUN, 639, 0.00, 7.29, 0.000000, 0.00, 0, 67, 639, 0
GPS, 3, 458595600, 10, 1.57, -33.7840175, 151.0682272, 7.37, 101.72, 0.67, 104.79
ATT, -2.20, -1.46, -3.39, -2.49, 0.00, 55.53, 60.69
CTUN, 648, 0.00, 7.49, 0.000000, 0.00, 0, 66, 648, 0
ATT, -1.62, -1.20, -1.45, -1.17, 0.00, 55.23, 60.69
CTUN, 656, 0.00, 7.44, 0.000000, 0.00, 0, 67, 658, 0
GPS, 3, 458595800, 10, 1.57, -33.7840182, 151.0682288, 7.51, 101.79, 0.80, 102.68
CTUN, 659, 0.00, 7.44, 0.000000, 0.00, 0, 69, 659, 0
ATT, -3.95, -0.75, -0.72, 0.72, 0.00, 54.75, 60.69
CTUN, 659, 0.00, 7.54, 0.000000, 0.00, 0, 75, 661, 0
ATT, -4.53, -1.04, -3.15, 1.92, 0.00, 54.37, 60.69
GPS, 3, 458596000, 10, 1.57, -33.7840184, 151.0682302, 7.64, 101.81, 0.66, 99.17
CTUN, 661, 0.00, 7.50, 0.000000, 0.00, 0, 80, 661, 0
ATT, -4.53, -1.73, -2.42, 1.61, 0.00, 54.12, 60.69
DU32, 7, 8569
CURR, 661, 165157, 1032, 1481, 4693, 107.7218
CTUN, 661, 0.00, 7.63, 0.000000, 0.00, 0, 85, 661, 0
GPS, 3, 458596200, 10, 1.57, -33.7840186, 151.0682313, 7.79, 101.94, 0.54, 95.85
ATT, -6.74, -2.67, -1.57, 1.43, 0.00, 53.90, 60.69
CTUN, 661, 0.00, 7.66, 0.000000, 0.00, 0, 90, 661, 0
ATT, -1.04, -3.40, -5.70, 1.17, 0.00, 53.74, 60.69
CTUN, 661, 0.00, 7.79, 0.000000, 0.00, 0, 93, 661, 0
GPS, 3, 458596400, 10, 1.57, -33.7840187, 151.0682320, 7.95, 102.05, 0.41, 88.59
ATT, -1.04, -0.98, -7.27, -1.40, 0.00, 53.70, 60.69
CTUN, 661, 0.00, 7.83, 0.000000, 0.00, 0, 99, 661, 0
ATT, -1.27, -0.38, -6.18, -3.00, 0.00, 53.85, 60.69
CTUN, 661, 0.00, 7.89, 0.000000, 0.00, 0, 101, 660, 0
GPS, 3, 458596600, 10, 1.57, -33.7840190, 151.0682329, 8.11, 102.16, 0.42, 92.81
ATT, -1.62, 0.10, -4.60, -3.73, 0.00, 54.12, 60.69
CTUN, 660, 0.00, 7.94, 0.000000, 0.00, 1, 105, 661, 0
ATT, -1.27, 0.11, -3.27, -3.25, 0.00, 54.37, 60.69
CTUN, 660, 0.00, 8.09, 0.000000, 0.00, 0, 108, 659, 0
PM, 0, 0, 50, 0, 1002, 10400, 10, 4
GPS, 3, 458596800, 10, 1.57, -33.7840190, 151.0682333, 8.31, 102.34, 0.23, 88.28
CTUN, 661, 0.00, 8.04, 0.000000, 0.00, 0, 112, 660, 0
ATT, -1.97, 0.29, -0.48, -1.81, 0.00, 54.59, 60.69
CTUN, 660, 0.00, 8.25, 0.000000, 0.00, 0, 113, 661, 0
ATT, -0.11, -0.06, 0.00, -0.37, 0.00, 54.70, 60.69
GPS, 3, 458597000, 10, 1.57, -33.7840188, 151.0682341, 8.51, 102.54, 0.43, 73.58
CTUN, 661, 0.00, 8.44, 0.000000, 0.00, 0, 117, 661, 0
ATT, 0.00, 0.87, 0.00, 0.40, 0.00, 54.65, 60.69
DU32, 7, 8569
CURR, 661, 171102, 1033, 1458, 4712, 111.8051
CTUN, 660, 0.00, 8.46, 0.000000, 0.00, 0, 119, 661, 0
GPS, 3, 458597200, 10, 1.57, -33.7840188, 151.0682348, 8.72, 102.70, 0.37, 72.45
ATT, 0.00, 1.30, 0.00, 1.05, 0.00, 54.63, 60.69
CTUN, 661, 0.00, 8.56, 0.000000, 0.00, 0, 122, 660, 0
ATT, 0.00, 1.12, 0.00, 1.30, 0.00, 54.65, 60.69
CTUN, 661, 0.00, 8.68, 0.000000, 0.00, 0, 125, 660, 0
GPS, 3, 458597400, 10, 1.57, -33.7840188, 151.0682354, 8.93, 102.91, 0.29, 77.89
ATT, 0.00, 1.00, 0.00, 1.21, 0.00, 54.64, 60.69
CTUN, 660, 0.00, 8.75, 0.000000, 0.00, 0, 127, 660, 0
ATT, 0.00, 0.67, 0.00, 0.91, 0.00, 54.67, 60.69
CTUN, 661, 0.00, 8.95, 0.000000, 0.00, 0, 130, 661, 0
GPS, 3, 458597600, 10, 1.57, -33.7840190, 151.0682361, 9.14, 103.12, 0.31, 87.80
ATT, 0.00, 0.41, 0.00, 0.65, 0.00, 54.77, 60.69
CTUN, 640, 0.00, 9.09, 0.000000, 0.00, 0, 132, 640, 0
ATT, 0.00, 0.43, 0.00, 0.67, 0.00, 54.84, 60.69
CTUN, 640, 0.00, 9.16, 0.000000, 0.00, 0, 132, 640, 0
GPS, 3, 458597800, 10, 1.57, -33.7840192, 151.0682367, 9.40, 103.34, 0.28, 92.36
CTUN, 640, 0.00, 9.20, 0.000000, 0.00, 0, 131, 640, 0
ATT, 0.00, 0.24, 0.00, 0.59, 0.00, 55.00, 60.69
CTUN, 640, 0.00, 9.44, 0.000000, 0.00, 0, 129, 640, 0
ATT, 0.00, 0.09, 0.00, 0.40, 0.00, 55.22, 60.69
GPS, 3, 458598000, 10, 1.57, -33.7840194, 151.0682370, 9.64, 103.59, 0.19, 92.36
CTUN, 640, 0.00, 9.46, 0.000000, 0.00, 0, 128, 640, 0
ATT, 0.00, 0.09, 0.00, 0.28, 0.00, 55.41, 60.69
DU32, 7, 8569
CURR, 640, 176964, 1036, 1378, 4712, 115.7689
CTUN, 640, 0.00, 9.78, 0.000000, 0.00, 0, 128, 640, 0
GPS, 3, 458598200, 10, 1.57, -33.7840198, 151.0682374, 9.87, 103.83, 0.22, 92.36
ATT, 0.00, -0.10, 0.00, 0.11, 0.00, 55.66, 60.69
CTUN, 640, 0.00, 9.86, 0.000000, 0.00, 0, 126, 640, 0
ATT, 0.00, -0.10, 0.00, 0.12, 0.00, 55.77, 60.69
CTUN, 640, 0.00, 9.86, 0.000000, 0.00, 0, 125, 640, 0
GPS, 3, 458598400, 10, 1.57, -33.7840202, 151.0682376, 10.11, 104.09, 0.17, 92.36
ATT, 0.00, -0.06, 0.00, 0.08, 0.00, 55.93, 60.69
CTUN, 640, 0.00, 10.03, 0.000000, 0.00, 0, 124, 640, 0
ATT, 0.00, -0.11, 0.00, -0.07, 0.00, 56.05, 60.69
CTUN, 620, 0.00, 10.20, 0.000000, 0.00, 0, 123, 623, 0
GPS, 3, 458598600, 10, 1.57, -33.7840207, 151.0682380, 10.33, 104.31, 0.26, 112.38
ATT, 0.00, -0.22, -0.84, -0.25, 0.00, 56.10, 60.69
CTUN, 623, 0.00, 10.29, 0.000000, 0.00, 0, 118, 623, 0
ATT, 0.00, -0.17, 0.00, -0.39, 0.00, 56.09, 60.69
CTUN, 621, 0.00, 10.38, 0.000000, 0.00, 0, 113, 621, 0
GPS, 3, 458598800, 10, 1.57, -33.7840210, 151.0682380, 10.55, 104.51, 0.08, 112.38
MODE, LOITER, 637
NTUN, 0.00, 0.00, 0.000000, 0.000000, 0.000000, 0.000000, -29.30505, 3.036736, 0.000000, 0.000000, -0.39, -0.34
CTUN, 620, 0.00, 10.46, 0.000000, 0.00, 0, 110, 620, 0
ATT, 0.00, -0.45, 0.00, -0.32, 0.00, 56.07, 60.69
NTUN, 0.00, 3.41, 0.169311, -0.058074, -29.13574, 2.978661, -27.93857, 2.144170, 0.000000, 0.000000, 0.00, 0.00
CTUN, 620, 0.00, 10.57, 11.69960, 0.00, 0, 105, 612, 12
GPS, 3, 458599000, 10, 1.57, -33.7840214, 151.0682381, 10.70, 104.74, 0.16, 112.38
ATT, 0.00, -0.62, 0.00, -0.38, 0.00, 56.10, 60.69
NTUN, 0.00, 2.99, -1.377327, -0.987793, -23.25323, -0.987793, -26.04402, 1.147537, 32.07704, -10.62912, -2.54, 0.63
CTUN, 620, 0.00, 10.69, 11.70480, 0.00, 0, 100, 581, 14
DU32, 7, 8569
CURR, 620, 182610, 1037, 1283, 4732, 119.5657
ATT, 0.00, -1.58, 0.00, 0.17, 0.00, 56.12, 60.69
NTUN, 0.01, 2.57, -1.844978, -1.260681, -20.23647, -1.260681, -23.78992, -0.145926, 33.16764, -3.728882, -1.90, -0.52
GPS, 3, 458599200, 10, 1.57, -33.7840217, 151.0682382, 10.88, 104.90, 0.08, 112.38
CTUN, 623, 0.00, 10.84, 11.71200, 0.00, 0, 93, 564, 12
NTUN, 0.02, 2.16, -2.204659, -1.410370, -17.26853, -1.410370, -20.22971, -2.579928, 32.67937, -1.496887, -1.63, -0.99
CTUN, 623, 0.00, 11.00, 11.72020, 0.00, 0, 73, 553, 14
ATT, 0.00, -1.84, 0.00, -0.72, 0.00, 56.14, 60.69
GPS, 3, 458599400, 10, 1.57, -33.7840220, 151.0682381, 11.04, 105.05, 0.04, 112.38
NTUN, 0.02, 2.16, -2.531830, -1.374908, -14.44961, -1.374908, -15.19294, -4.457074, 30.47398, 2.358196, -1.40, -1.10
CTUN, 601, 0.00, 11.02, 11.72580, 0.00, 0, 66, 574, 14
ATT, 0.00, -1.74, 0.00, -1.49, 0.00, 56.04, 60.69
NTUN, 0.02, 2.10, -2.852547, -1.128204, -11.70366, -1.128204, -12.02476, -4.498601, 29.18759, 5.442615, -1.23, -1.21
CTUN, 562, 0.00, 11.17, 11.72580, 0.00, 0, 47, 580, 0
GPS, 3, 458599600, 10, 1.57, -33.7840220, 151.0682381, 11.16, 105.14, 0.06, 112.38
CTUN, 559, 0.00, 11.08, 11.72580, 0.00, 0, 38, 596, 0
ATT, 0.00, -1.27, 0.00, -1.76, 0.00, 55.69, 60.69
NTUN, 0.03, 1.90, -3.165962, -0.793335, -9.147758, -0.793335, -7.827699, -4.004885, 26.81718, 6.382519, -1.08, -1.18
CTUN, 563, 0.00, 11.24, 11.72580, 0.00, 0, 29, 640, 0
NTUN, 0.03, 1.85, -3.660210, -0.533569, -6.872825, -0.533569, -4.964338, -2.677777, 22.74934, 4.597656, -0.94, -0.97
ATT, 0.00, -0.75, 0.00, -1.88, 0.00, 55.33, 60.69
GPS, 3, 458599800, 10, 1.57, -33.7840220, 151.0682383, 11.21, 105.22, 0.11, 112.38
CTUN, 562, 0.00, 11.29, 11.72580, 0.00, 0, 29, 635, 0
NTUN, 0.05, 1.85, -5.061348, -0.502838, -5.061348, -0.502838, -1.402827, -1.418403, -5.242880, -1.231689, 0.20, 0.23
ATT, 0.00, -0.31, 0.00, -1.77, 0.00, 54.91, 60.69
CTUN, 562, 0.00, 11.31, 11.72580, 0.00, 0, 30, 639, 0
NTUN, 0.05, 1.85, -6.077026, -0.886291, -6.077026, -0.886291, -0.041185, -0.155430, -15.25938, -4.873266, 0.56, 0.74
GPS, 3, 458600000, 10, 1.57, -33.7840220, 151.0682384, 11.29, 105.23, 0.12, 112.38
CTUN, 563, 0.00, 11.31, 11.72580, 0.00, 0, 32, 637, 0
ATT, 0.00, 0.71, 0.00, -0.76, 0.00, 54.79, 60.69
NTUN, 0.07, 1.92, -7.082016, -1.447266, -7.082016, -1.447266, -0.743848, 2.063743, -15.95039, -8.554199, 0.47, 0.94
CTUN, 563, 0.00, 11.29, 11.72580, 0.00, 0, 33, 629, 0
DU32, 7, 8569
CURR, 562, 186854, 1038, 1368, 4712, 123.2155
GPS, 3, 458600200, 10, 1.57, -33.7840219, 151.0682384, 11.34, 105.24, 0.17, 112.38
ATT, 0.00, 1.22, 0.00, 0.80, 0.00, 55.08, 60.69
NTUN, 0.08, 1.96, -7.952171, -2.121277, -7.952171, -2.121277, -2.915834, 1.503415, -14.78945, -10.80819, 0.34, 1.01
CTUN, 563, 0.00, 11.35, 11.72580, 0.00, 0, 32, 631, 0
NTUN, 0.09, 1.98, -8.607399, -2.718658, -8.607399, -2.718658, -4.545535, 0.462451, -11.55228, -9.973816, 0.22, 0.86
CTUN, 562, 0.00, 11.29, 11.72580, 0.00, 0, 31, 620, 0
ATT, 0.00, 0.74, 0.00, 1.00, 0.00, 55.42, 60.69
GPS, 3, 458600400, 10, 1.57, -33.7840217, 151.0682386, 11.41, 105.25, 0.18, 112.38
CTUN, 561, 0.00, 11.36, 11.72580, 0.00, 0, 31, 613, 0
NTUN, 0.09, 2.00, -9.043167, -3.167572, -9.043167, -3.167572, -6.457055, -0.735389, -7.357681, -7.489136, 0.10, 0.60
ATT, 0.00, 0.08, 0.00, 0.64, 0.00, 55.80, 60.69
CTUN, 563, 0.00, 11.44, 11.72580, 0.00, 0, 28, 610, 0
NTUN, 0.10, 2.01, -9.382553, -3.556885, -9.382553, -3.556885, -6.593048, -1.537789, -6.393860, -5.893127, 0.11, 0.49
GPS, 3, 458600600, 10, 1.57, -33.7840219, 151.0682388, 11.46, 105.25, 0.02, 112.38
ATT, 0.00, -0.06, 0.00, 0.38, 0.00, 56.02, 60.69
CTUN, 563, 0.00, 11.40, 11.72580, 0.00, 0, 26, 604, 0
NTUN, 0.10, 2.02, -9.812927, -4.187103, -9.812927, -4.187103, -6.351153, -2.903256, -4.950470, -4.041077, 0.16, 0.41
CTUN, 563, 0.00, 11.46, 11.72580, 0.00, 0, 22, 614, 0
ATT, 0.00, 0.06, 0.00, 0.21, 0.00, 56.15, 60.69
NTUN, 0.10, 2.02, -9.783646, -4.488068, -9.783646, -4.488068, -6.044791, -3.401716, -3.707184, -4.009644, 0.10, 0.35
GPS, 3, 458600800, 10, 1.57, -33.7840220, 151.0682388, 11.50, 105.24, 0.06, 112.38
CTUN, 563, 0.00, 11.55, 11.72580, 0.00, 0, 16, 627, 0
NTUN, 0.10, 2.05, -9.719604, -4.699921, -9.719604, -4.699921, -5.946123, -3.162606, -3.359589, -3.118530, 0.06, 0.26
ATT, 0.00, -0.16, 0.00, -0.15, 0.00, 56.35, 60.69
CTUN, 563, 0.00, 11.54, 11.72580, 0.00, 0, 14, 622, 0
NTUN, 0.10, 2.06, -9.640320, -4.862000, -9.640320, -4.862000, -4.914194, -3.675790, -4.207153, -2.620789, 0.11, 0.26
GPS, 3, 458601000, 10, 1.57, -33.7840221, 151.0682388, 11.54, 105.24, 0.09, 112.38
ATT, 0.00, -0.11, 0.00, -0.18, 0.00, 56.39, 60.69
CTUN, 561, 0.00, 11.48, 11.72580, 0.00, 0, 13, 624, 0
NTUN, 0.10, 2.07, -9.581085, -4.987976, -9.581085, -4.987976, -4.111585, -3.526125, -5.401670, -2.272491, 0.18, 0.28
CTUN, 563, 0.00, 11.49, 11.72580, 0.00, 0, 11, 626, 0
GPS, 3, 458601200, 10, 1.57, -33.7840221, 151.0682386, 11.55, 105.23, 0.12, 112.38
ATT, 0.00, -0.25, 0.00, -0.11, 0.00, 56.33, 60.69
DU32, 7, 8569
CURR, 563, 191182, 1039, 1324, 4752, 126.8256
NTUN, 0.10, 2.07, -9.548546, -5.070740, -9.548546, -5.070740, -2.795733, -4.329523, -7.674606, -0.827636, 0.34, 0.28
CTUN, 563, 0.00, 11.63, 11.72580, 0.00, 0, 11, 628, 0
NTUN, 0.10, 2.06, -9.650322, -4.964661, -9.650322, -4.964661, -1.739146, -4.303324, -10.01776, 1.060791, 0.52, 0.27
ATT, 0.00, -0.08, 0.00, 0.03, 0.00, 56.19, 60.69
CTUN, 563, 0.00, 11.49, 11.72580, 0.00, 0, 11, 636, 0
GPS, 3, 458601400, 10, 1.57, -33.7840221, 151.0682383, 11.58, 105.20, 0.12, 112.38
NTUN, 0.10, 2.03, -10.12091, -4.292053, -10.12091, -4.292053, -1.007562, -4.888842, -12.05719, 2.371216, 0.66, 0.27
CTUN, 561, 0.00, 11.60, 11.72580, 0.00, 0, 9, 642, 0
ATT, 0.00, -0.13, 0.00, 0.00, 0.00, 56.04, 60.69
NTUN, 0.10, 2.00, -10.44112, -3.681946, -10.44112, -3.681946, -0.366176, -5.008712, -14.67545, 5.398847, 0.88, 0.21
GPS, 3, 458601600, 10, 1.57, -33.7840222, 151.0682380, 11.59, 105.16, 0.11, 112.38
CTUN, 561, 0.00, 11.49, 11.72580, 0.00, 0, 8, 629, 0
NTUN, 0.11, 1.96, -10.72096, -2.917328, -10.72096, -2.917328, 0.703379, -6.068064, -17.82673, 9.723413, 1.18, 0.11
ATT, 0.00, 0.04, 0.00, -0.04, 0.00, 55.70, 60.69
CTUN, 563, 0.00, 11.51, 11.72580, 0.00, 0, 10, 633, 0
NTUN, 0.11, 1.90, -10.99081, -2.046356, -10.99081, -2.046356, 0.969077, -5.550277, -19.69844, 12.70972, 1.36, 0.03
GPS, 3, 458601800, 10, 1.57, -33.7840221, 151.0682377, 11.61, 105.13, 0.14, 112.38
ATT, 0.00, 0.55, 0.00, -0.05, 0.00, 55.53, 60.69
CTUN, 563, 0.00, 11.62, 11.72580, 0.00, 0, 8, 642, 0
NTUN, 0.11, 1.83, -11.33707, -1.105927, -11.33707, -1.105927, 0.841098, -5.556682, -20.46260, 13.40430, 1.42, 0.03
CTUN, 563, 0.00, 11.53, 11.72580, 0.00, 0, 10, 635, 0
ATT, 0.00, 0.94, 0.00, -0.25, 0.00, 55.53, 60.69
GPS, 3, 458602000, 10, 1.57, -33.7840219, 151.0682373, 11.62, 105.09, 0.17, 112.38
NTUN, 0.11, 1.77, -11.68651, -0.134063, -11.68651, -0.134063, -0.658779, -4.121257, -21.49442, 13.71863, 1.48, 0.04
CTUN, 563, 0.00, 11.47, 11.72580, 0.00, 0, 8, 643, 0
ATT, 0.00, 1.52, 0.00, -0.22, 0.00, 55.55, 60.69
NTUN, 0.12, 1.73, -12.05173, 0.864868, -12.05173, 0.864868, -1.507512, -2.906632, -20.65219, 13.98932, 1.45, 0.00
CTUN, 561, 0.00, 11.57, 11.72580, 0.00, 0, 8, 642, 0
GPS, 3, 458602200, 10, 1.57, -33.7840218, 151.0682369, 11.62, 105.07, 0.12, 112.38
ATT, 0.00, 1.97, 0.00, -0.36, 0.00, 55.44, 60.69
DU32, 7, 8569
CURR, 563, 195625, 1033, 1370, 4772, 130.7458
NTUN, 0.12, 1.69, -12.58034, 2.652496, -12.58034, 2.652496, -3.371488, 0.135682, -20.28568, 12.28253, 1.38, 0.07
CTUN, 563, 0.00, 11.58, 11.72580, 0.00, 0, 8, 638, 0
NTUN, 0.12, 1.65, -12.60629, 3.378601, -12.60629, 3.378601, -5.947060, 1.961831, -18.02063, 10.68056, 1.22, 0.08
CTUN, 563, 0.00, 11.72, 11.72580, 0.00, 0, 7, 638, 0
GPS, 3, 458602400, 10, 1.57, -33.7840218, 151.0682367, 11.63, 105.07, 0.06, 112.38
ATT, 0.00, 1.91, 0.00, -0.09, 0.00, 55.31, 60.69
NTUN, 0.13, 1.63, -12.39215, 3.862427, -12.39215, 3.862427, -7.566132, 4.660110, -9.879784, 4.790353, 0.63, 0.09
CTUN, 563, 0.00, 11.66, 11.72580, 0.00, 0, 8, 640, 0
ATT, 0.00, 0.84, 0.00, -0.25, 0.00, 55.29, 60.69
NTUN, 0.12, 1.61, -12.06866, 4.214172, -12.06866, 4.214172, -6.924024, 4.939672, -9.765137, 3.517456, 0.58, 0.15
GPS, 3, 458602600, 10, 1.57, -33.7840218, 151.0682366, 11.65, 105.06, 0.06, 112.38
CTUN, 561, 0.00, 11.59, 11.72580, 0.00, 0, 8, 625, 0
ATT, 0.00, -0.42, 0.00, -0.68, 0.00, 55.20, 60.69
NTUN, 0.12, 1.59, -11.85351, 4.539917, -11.85351, 4.539917, -5.170026, 4.097799, -11.82670, 3.290350, 0.67, 0.23
CTUN, 561, 0.00, 11.70, 11.72580, 0.00, 0, 8, 635, 0
GPS, 3, 458602800, 10, 1.57, -33.7840217, 151.0682367, 11.67, 105.06, 0.06, 112.38
NTUN, 0.12, 1.56, -11.82022, 4.922119, -11.82022, 4.922119, -3.271227, 3.099551, -15.66713, 5.822021, 0.94, 0.24
CTUN, 563, 0.00, 11.65, 11.72580, 0.00, 0, 7, 626, 0
ATT, 0.00, -0.55, 0.00, -0.35, 0.00, 55.17, 60.69
NTUN, 0.13, 1.56, -12.06787, 5.286621, -12.06787, 5.286621, -0.680253, 2.071742, -20.47650, 5.645020, 1.17, 0.41
CTUN, 561, 0.00, 11.63, 11.72580, 0.00, 0, 8, 611, 0
GPS, 3, 458603000, 10, 1.57, -33.7840215, 151.0682367, 11.68, 105.09, 0.07, 112.38
ATT, 0.00, -1.05, 0.00, -0.31, 0.00, 55.04, 60.69
CTUN, 563, 0.00, 11.69, 11.72580, 0.00, 0, 8, 613, 0
NTUN, 0.13, 1.55, -12.62865, 5.654694, -12.62865, 5.654694, 3.617649, 1.155812, -28.66440, 6.717904, 1.59, 0.63
CTUN, 563, 0.00, 11.69, 11.72580, 0.00, 0, 5, 622, 0
ATT, 0.00, -1.76, 0.00, -0.35, 0.00, 54.72, 60.69
NTUN, 0.14, 1.56, -13.61510, 6.067200, -13.61510, 6.067200, 7.723604, -0.303705, -37.76691, 10.08422, 2.14, 0.78
GPS, 3, 458603200, 10, 1.57, -33.7840212, 151.0682367, 11.70, 105.09, 0.12, 112.38
CTUN, 563, 0.00, 11.72, 11.72580, 0.00, 0, 3, 625, 0
NTUN, 0.16, 1.56, -17.05621, 7.239532, -17.05621, 7.239532, 12.56585, -2.370614, -61.66140, 16.43981, 2.81, 1.05
ATT, 0.00, -1.17, 0.00, 0.24, 0.00, 53.91, 60.69
DU32, 7, 8569
CURR, 561, 200021, 1033, 1331, 4732, 134.7361
CTUN, 562, 0.00, 11.71, 11.72580, 0.00, 0, 2, 615, 0
