dump 7

ArduCopter V3.1-rc3.1
Free RAM: 1138
APM 2
FMT, 128, 89, FMT, BBnNZ, Type,Length,Name,Format
FMT, 129, 23, PARM, Nf, Name,Value
FMT, 130, 35, GPS, BIBcLLeeEe, Status,Time,NSats,HDop,Lat,Lng,RelAlt,Alt,Spd,GCrs
FMT, 131, 27, IMU, ffffff, GyrX,GyrY,GyrZ,AccX,AccY,AccZ
FMT, 132, 67, MSG, Z, Message
FMT, 9, 19, CURR, hIhhhf, Thr,ThrInt,Volt,Curr,Vcc,CurrTot
FMT, 11, 11, MOT, hhhh, Mot1,Mot2,Mot3,Mot4
FMT, 12, 28, OF, hhBccffee, Dx,Dy,SQual,X,Y,Lat,Lng,Roll,Pitch
FMT, 5, 49, NTUN, Ecffffffffee, WPDst,WPBrg,PErX,PErY,DVelX,DVelY,VelX,VelY,DAcX,DAcY,DRol,DPit
FMT, 4, 25, CTUN, hcefchhhh, ThrIn,SonAlt,BarAlt,WPAlt,DesSonAlt,AngBst,CRate,ThrOut,DCRate
FMT, 15, 21, MAG, hhhhhhhhh, MagX,MagY,MagZ,OfsX,OfsY,OfsZ,MOfsX,MOfsY,MOfsZ
FMT, 6, 17, PM, BBBHHIhB, RenCnt,RenBlw,FixCnt,NLon,NLoop,MaxT,PMT,I2CErr
FMT, 8, 20, CMD, BBBBBeLL, CTot,CNum,CId,COpt,Prm1,Alt,Lat,Lng
FMT, 1, 17, ATT, cccccCC, RollIn,Roll,PitchIn,Pitch,YawIn,Yaw,NavYaw
FMT, 17, 37, INAV, cccfffiiff, BAlt,IAlt,IClb,ACorrX,ACorrY,ACorrZ,GLat,GLng,ILat,ILng
FMT, 3, 6, MODE, Mh, Mode,ThrCrs
FMT, 10, 3, STRT, , 
FMT, 13, 4, EV, B, Id
FMT, 20, 6, D16, Bh, Id,Value
FMT, 21, 6, DU16, BH, Id,Value
FMT, 22, 8, D32, Bi, Id,Value
FMT, 23, 8, DU32, BI, Id,Value
FMT, 24, 8, DFLT, Bf, Id,Value
FMT, 14, 28, PID, Biiiiif, Id,Error,P,I,D,Out,Gain
FMT, 18, 25, CAM, ILLeccC, GPSTime,Lat,Lng,Alt,Roll,Pitch,Yaw
FMT, 19, 5, ERR, BB, Subsys,ECode
D32, 9, 6518
CMD, 1, 0, 16, 0, 0, 0.00, -33.7840626, 151.0681760
EV, 10
GPS, 3, 541632200, 8, 3.11, -33.7840628, 151.0681760, 0.94, 95.46, 0.03, 162.10
CTUN, 0, 0.00, 0.00, 0.000000, 0.00, 0, 0, 0, 0
ATT, 0.00, -0.23, 0.00, 0.63, 0.00, 65.18, 65.18
CTUN, 0, 0.00, 0.03, 0.000000, 0.00, 0, 0, 0, 0
ATT, 0.00, -0.04, 0.00, 0.67, 0.00, 65.18, 65.18
GPS, 3, 541639600, 9, 1.89, -33.7840638, 151.0681730, 0.86, 95.64, 0.01, 162.10
CTUN, 0, 0.00, 0.00, 0.000000, 0.00, 0, -1, 0, 0
ATT, 0.00, 0.08, 0.00, 0.70, 0.00, 65.18, 65.18
CTUN, 0, 0.00, 0.00, 0.000000, 0.00, 0, -2, 0, 0
ATT, 0.00, 0.07, 0.00, 0.71, 0.00, 65.19, 65.19
GPS, 3, 541639800, 9, 1.89, -33.7840638, 151.0681729, 0.75, 95.65, 0.03, 162.10
CTUN, 0, 0.00, -0.06, 0.000000, 0.00, 0, -2, 0, 0
ATT, 0.00, 0.07, 0.00, 0.72, 0.00, 65.20, 65.20
CTUN, 0, 0.00, -0.04, 0.000000, 0.00, 0, -4, 0, 0
ATT, 0.00, 0.07, 0.00, 0.74, 0.00, 65.20, 65.20
GPS, 3, 541640000, 9, 1.89, -33.7840639, 151.0681729, 0.64, 95.67, 0.03, 162.10
CTUN, 0, 0.00, -0.13, 0.000000, 0.00, 0, -5, 0, 0
ATT, 0.00, 0.07, 0.00, 0.75, 0.00, 65.21, 65.21
CTUN, 0, 0.00, -0.05, 0.000000, 0.00, 0, -6, 0, 0
ATT, 0.00, 0.07, 0.00, 0.78, 0.00, 65.22, 65.22
GPS, 3, 541640200, 9, 1.89, -33.7840639, 151.0681728, 0.56, 95.67, 0.01, 162.10
CTUN, 0, 0.00, -0.12, 0.000000, 0.00, 0, -6, 0, 0
DU32, 7, 8793
CURR, 0, 0, 1238, 60, 4752, 0.153627
ATT, 0.00, 0.06, 0.00, 0.78, 0.00, 65.22, 65.22
CTUN, 0, 0.00, -0.09, 0.000000, 0.00, 0, -7, 0, 0
ATT, 0.00, 0.05, 0.00, 0.79, 0.00, 65.23, 65.23
GPS, 3, 541640400, 9, 1.89, -33.7840639, 151.0681728, 0.46, 95.69, 0.01, 162.10
CTUN, 0, 0.00, -0.15, 0.000000, 0.00, 0, -8, 0, 0
ATT, 0.00, 0.05, 0.00, 0.80, 0.00, 65.24, 65.24
CTUN, 0, 0.00, 0.00, 0.000000, 0.00, 0, -9, 0, 0
ATT, 0.00, 0.03, 0.00, 0.82, 0.00, 65.25, 65.25
GPS, 3, 541640600, 9, 1.89, -33.7840639, 151.0681728, 0.38, 95.70, 0.00, 162.10
CTUN, 0, 0.00, -0.09, 0.000000, 0.00, 0, -9, 0, 0
ATT, 0.00, 0.04, 0.00, 0.83, 0.00, 65.25, 65.25
CTUN, 0, 0.00, -0.02, 0.000000, 0.00, 0, -10, 0, 0
ATT, 0.00, 0.04, 0.00, 0.84, 0.00, 65.26, 65.26
GPS, 3, 541640800, 9, 1.89, -33.7840639, 151.0681727, 0.31, 95.71, 0.01, 162.10
CTUN, 0, 0.00, -0.13, 0.000000, 0.00, 0, -10, 0, 0
ATT, 0.00, 0.03, 0.00, 0.85, 0.00, 65.26, 65.26
CTUN, 0, 0.00, -0.14, 0.000000, 0.00, 0, -11, 0, 0
ATT, 0.00, 0.03, 0.00, 0.87, 0.00, 65.26, 65.26
GPS, 3, 541641000, 9, 1.89, -33.7840640, 151.0681727, 0.24, 95.72, 0.02, 162.10
CTUN, 0, 0.00, -0.08, 0.000000, 0.00, 0, -11, 0, 0
ATT, 0.00, 0.02, 0.00, 0.90, 0.00, 65.27, 65.27
CTUN, 0, 0.00, -0.09, 0.000000, 0.00, 0, -12, 0, 0
ATT, 0.00, 0.03, 0.00, 0.90, 0.00, 65.29, 65.29
GPS, 3, 541641200, 9, 1.89, -33.7840639, 151.0681727, 0.17, 95.72, 0.04, 162.10
CTUN, 0, 0.00, -0.18, 0.000000, 0.00, 0, -12, 0, 0
DU32, 7, 8793
CURR, 0, 0, 1241, 59, 4813, 0.318186
ATT, 0.00, 0.02, 0.00, 0.91, 0.00, 65.29, 65.29
CTUN, 0, 0.00, -0.05, 0.000000, 0.00, 0, -13, 0, 0
ATT, 0.00, 0.02, 0.00, 0.91, 0.00, 65.29, 65.29
GPS, 3, 541641400, 9, 1.89, -33.7840639, 151.0681726, 0.11, 95.73, 0.01, 162.10
CTUN, 0, 0.00, -0.04, 0.000000, 0.00, 0, -13, 0, 0
ATT, 0.00, 0.01, 0.00, 0.93, 0.00, 65.30, 65.30
CTUN, 0, 0.00, -0.08, 0.000000, 0.00, 0, -13, 0, 0
ATT, 0.00, 0.02, 0.00, 0.95, 0.00, 65.32, 65.32
GPS, 3, 541641600, 9, 1.89, -33.7840640, 151.0681726, 0.07, 95.75, 0.02, 162.10
CTUN, 0, 0.00, -0.10, 0.000000, 0.00, 0, -13, 0, 0
ATT, 0.00, 0.02, 0.00, 0.97, 0.00, 65.33, 65.33
CTUN, 0, 0.00, -0.08, 0.000000, 0.00, 0, -14, 0, 0
ATT, 0.00, 0.02, 0.00, 0.98, 0.00, 65.33, 65.33
GPS, 3, 541641800, 9, 1.89, -33.7840639, 151.0681726, 0.02, 95.76, 0.04, 162.10
CTUN, 0, 0.00, 0.02, 0.000000, 0.00, 0, -14, 0, 0
ATT, 0.00, 0.02, 0.00, 0.99, 0.00, 65.34, 65.34
CTUN, 0, 0.00, -0.08, 0.000000, 0.00, 0, -14, 0, 0
ATT, 0.00, 0.01, 0.00, 0.98, 0.00, 65.35, 65.35
GPS, 3, 541642000, 9, 1.89, -33.7840639, 151.0681725, -0.01, 95.78, 0.02, 162.10
CTUN, 0, 0.00, -0.10, 0.000000, 0.00, 0, -14, 0, 0
ATT, 0.00, 0.00, 0.00, 0.99, 0.00, 65.35, 65.35
CTUN, 0, 0.00, -0.06, 0.000000, 0.00, 0, -15, 0, 0
ATT, 0.00, 0.00, 0.00, 1.00, 0.00, 65.36, 65.36
CTUN, 0, 0.00, -0.23, 0.000000, 0.00, 0, -15, 0, 0
GPS, 3, 541642200, 9, 1.89, -33.7840639, 151.0681724, -0.05, 95.79, 0.02, 162.10
DU32, 7, 8793
CURR, 0, 0, 1240, 57, 4712, 0.482486
ATT, 0.00, 0.00, 0.00, 1.02, 0.00, 65.37, 65.37
CTUN, 0, 0.00, 0.00, 0.000000, 0.00, 0, -15, 0, 0
ATT, 0.00, 0.01, 0.00, 1.03, 0.00, 65.38, 65.38
GPS, 3, 541642400, 9, 1.89, -33.7840639, 151.0681724, -0.09, 95.81, 0.03, 162.10
CTUN, 0, 0.00, -0.01, 0.000000, 0.00, 0, -15, 0, 0
ATT, 0.00, 0.01, 0.00, 1.05, 0.00, 65.39, 65.39
CTUN, 0, 0.00, 0.08, 0.000000, 0.00, 0, -15, 0, 0
ATT, 0.00, 0.00, 0.00, 1.05, 0.00, 65.40, 65.40
GPS, 3, 541642600, 9, 1.89, -33.7840638, 151.0681723, -0.10, 95.84, 0.01, 162.10
CTUN, 0, 0.00, 0.00, 0.000000, 0.00, 0, -15, 0, 0
ATT, 0.00, 0.00, 0.00, 1.05, 0.00, 65.42, 65.42
CTUN, 0, 0.00, -0.10, 0.000000, 0.00, 0, -15, 0, 0
ATT, 0.00, 0.00, 0.00, 1.06, 0.00, 65.43, 65.43
GPS, 3, 541642800, 9, 1.89, -33.7840638, 151.0681722, -0.12, 95.85, 0.02, 162.10
CTUN, 0, 0.00, -0.16, 0.000000, 0.00, 0, -15, 0, 0
ATT, 0.00, 0.00, 0.00, 1.08, 0.00, 65.43, 65.43
CTUN, 0, 0.00, -0.09, 0.000000, 0.00, 0, -15, 0, 0
ATT, 0.00, 0.00, 0.00, 1.10, 0.00, 65.45, 65.45
GPS, 3, 541643000, 9, 1.89, -33.7840638, 151.0681721, -0.16, 95.88, 0.03, 162.10
CTUN, 0, 0.00, -0.04, 0.000000, 0.00, 0, -15, 0, 0
ATT, 0.00, 0.00, 0.00, 1.11, 0.00, 65.46, 65.46
CTUN, 0, 0.00, -0.08, 0.000000, 0.00, 0, -15, 0, 0
ATT, 0.00, 0.00, 0.00, 1.12, 0.00, 65.46, 65.46
GPS, 3, 541643200, 9, 1.89, -33.7840639, 151.0681721, -0.17, 95.90, 0.03, 162.10
CTUN, 0, 0.00, -0.16, 0.000000, 0.00, 0, -15, 0, 0
DU32, 7, 8793
CURR, 0, 0, 1235, 62, 4772, 0.652437
ATT, 0.00, 0.00, 0.00, 1.13, 0.00, 65.47, 65.47
CTUN, 0, 0.00, -0.09, 0.000000, 0.00, 0, -15, 0, 0
ATT, 0.00, 0.00, 0.00, 1.14, 0.00, 65.48, 65.48
GPS, 3, 541643400, 9, 1.89, -33.7840639, 151.0681720, -0.20, 95.91, 0.01, 162.10
CTUN, 0, 0.00, -0.10, 0.000000, 0.00, 0, -15, 0, 0
ATT, 0.00, 0.00, 0.00, 1.15, 0.00, 65.49, 65.49
CTUN, 0, 0.00, -0.09, 0.000000, 0.00, 0, -15, 0, 0
ATT, 0.00, -0.01, 0.00, 1.16, 0.00, 65.50, 65.50
GPS, 3, 541643600, 9, 1.89, -33.7840638, 151.0681718, -0.22, 95.94, 0.01, 162.10
CTUN, 0, 0.00, -0.16, 0.000000, 0.00, 0, -15, 0, 0
ATT, 0.00, -0.02, 0.00, 1.17, 0.00, 65.50, 65.50
CTUN, 0, 0.00, -0.05, 0.000000, 0.00, 0, -15, 0, 0
ATT, 0.00, -0.02, 0.00, 1.18, 0.00, 65.51, 65.51
GPS, 3, 541643800, 8, 3.11, -33.7840639, 151.0681718, -0.24, 95.95, 0.02, 162.10
CTUN, 0, 0.00, -0.20, 0.000000, 0.00, 0, -15, 0, 0
ATT, 0.00, -0.03, 0.00, 1.18, 0.00, 65.53, 65.53
CTUN, 0, 0.00, -0.14, 0.000000, 0.00, 0, -15, 0, 0
ATT, 0.00, -0.03, 0.00, 1.18, 0.00, 65.55, 65.55
GPS, 3, 541644000, 8, 3.11, -33.7840639, 151.0681717, -0.26, 95.96, 0.01, 162.10
CTUN, 0, 0.00, -0.17, 0.000000, 0.00, 0, -15, 0, 0
ATT, 0.00, -0.03, 0.00, 1.19, 0.00, 65.56, 65.56
CTUN, 0, 0.00, -0.14, 0.000000, 0.00, 0, -15, 0, 0
ATT, 0.00, -0.02, 0.00, 1.22, 0.00, 65.56, 65.56
GPS, 3, 541644200, 8, 3.11, -33.7840639, 151.0681716, -0.28, 95.97, 0.01, 162.10
CTUN, 0, 0.00, -0.16, 0.000000, 0.00, 0, -15, 0, 0
DU32, 7, 8793
CURR, 0, 0, 1235, 61, 4772, 0.821552
ATT, 0.00, -0.02, 0.00, 1.22, 0.00, 65.57, 65.57
CTUN, 0, 0.00, -0.02, 0.000000, 0.00, 0, -15, 0, 0
ATT, 0.00, -0.03, 0.00, 1.22, 0.00, 65.59, 65.59
GPS, 3, 541644400, 8, 3.11, -33.7840639, 151.0681715, -0.29, 95.98, 0.05, 162.10
CTUN, 0, 0.00, -0.16, 0.000000, 0.00, 0, -15, 0, 0
ATT, 0.00, -0.03, 0.00, 1.22, 0.00, 65.60, 65.60
CTUN, 0, 0.00, -0.19, 0.000000, 0.00, 0, -15, 0, 0
ATT, 0.00, -0.03, 0.00, 1.22, 0.00, 65.62, 65.62
GPS, 3, 541644600, 8, 3.11, -33.7840639, 151.0681714, -0.30, 95.99, 0.04, 162.10
CTUN, 0, 0.00, -0.17, 0.000000, 0.00, 0, -15, 0, 0
ATT, 0.00, -0.04, 0.00, 1.23, 0.00, 65.62, 65.62
CTUN, 0, 0.00, -0.19, 0.000000, 0.00, 0, -15, 0, 0
ATT, 0.00, -0.04, 0.00, 1.24, 0.00, 65.63, 65.63
GPS, 3, 541644800, 9, 1.89, -33.7840639, 151.0681712, -0.32, 96.01, 0.02, 162.10
CTUN, 0, 0.00, -0.15, 0.000000, 0.00, 0, -14, 0, 0
ATT, 0.00, -0.03, 0.00, 1.26, 0.00, 65.64, 65.64
CTUN, 0, 0.00, -0.10, 0.000000, 0.00, 0, -14, 0, 0
ATT, 0.00, -0.03, 0.00, 1.28, 0.00, 65.65, 65.65
GPS, 3, 541645000, 9, 1.89, -33.7840638, 151.0681710, -0.32, 96.04, 0.01, 162.10
CTUN, 0, 0.00, -0.18, 0.000000, 0.00, 0, -14, 0, 0
ATT, 0.00, -0.03, 0.00, 1.29, 0.00, 65.67, 65.67
CTUN, 0, 0.00, -0.07, 0.000000, 0.00, 0, -14, 0, 0
ATT, 0.00, -0.05, 0.00, 1.29, 0.00, 65.68, 65.68
GPS, 3, 541645200, 9, 1.89, -33.7840638, 151.0681708, -0.33, 96.05, 0.02, 162.10
CTUN, 0, 0.00, -0.24, 0.000000, 0.00, 0, -14, 0, 0
DU32, 7, 8793
CURR, 0, 0, 1239, 57, 4793, 0.985818
ATT, 0.00, -0.05, 0.00, 1.30, 0.00, 65.70, 65.70
CTUN, 0, 0.00, -0.06, 0.000000, 0.00, 0, -14, 0, 0
ATT, 0.00, -0.05, 0.00, 1.31, 0.00, 65.71, 65.71
GPS, 3, 541645400, 9, 1.89, -33.7840638, 151.0681708, -0.34, 96.07, 0.05, 162.10
CTUN, 0, 0.00, -0.19, 0.000000, 0.00, 0, -14, 0, 0
ATT, 0.00, -0.05, 0.00, 1.31, 0.00, 65.73, 65.73
CTUN, 0, 0.00, -0.13, 0.000000, 0.00, 0, -13, 0, 0
ATT, 0.00, -0.05, 0.00, 1.29, 0.00, 65.75, 65.75
GPS, 3, 541645600, 9, 1.89, -33.7840638, 151.0681706, -0.34, 96.08, 0.01, 162.10
CTUN, 0, 0.00, -0.23, 0.000000, 0.00, 0, -13, 0, 0
ATT, 0.00, -0.06, 0.00, 1.30, 0.00, 65.76, 65.76
CTUN, 0, 0.00, -0.20, 0.000000, 0.00, 0, -13, 0, 0
ATT, 0.00, -0.06, 0.00, 1.32, 0.00, 65.78, 65.78
GPS, 3, 541645800, 9, 1.89, -33.7840638, 151.0681704, -0.35, 96.10, 0.01, 162.10
CTUN, 0, 0.00, -0.20, 0.000000, 0.00, 0, -13, 0, 0
ATT, 0.00, -0.07, 0.00, 1.33, 0.00, 65.79, 65.79
CTUN, 0, 0.00, -0.19, 0.000000, 0.00, 0, -13, 0, 0
ATT, 0.00, -0.07, 0.00, 1.34, 0.00, 65.80, 65.80
GPS, 3, 541646000, 9, 1.89, -33.7840638, 151.0681703, -0.36, 96.11, 0.01, 162.10
CTUN, 0, 0.00, -0.20, 0.000000, 0.00, 0, -13, 0, 0
ATT, 0.00, -0.07, 0.00, 1.35, 0.00, 65.82, 65.82
CTUN, 0, 0.00, -0.15, 0.000000, 0.00, 0, -13, 0, 0
ATT, 0.00, -0.07, 0.00, 1.35, 0.00, 65.83, 65.83
GPS, 3, 541646200, 9, 1.89, -33.7840639, 151.0681701, -0.37, 96.13, 0.01, 162.10
CTUN, 0, 0.00, -0.20, 0.000000, 0.00, 0, -13, 0, 0
DU32, 7, 8793
CURR, 0, 0, 1237, 58, 4752, 1.151029
ATT, 0.00, -0.07, 0.00, 1.37, 0.00, 65.84, 65.84
CTUN, 0, 0.00, -0.30, 0.000000, 0.00, 0, -12, 0, 0
ATT, 0.00, -0.07, 0.00, 1.37, 0.00, 65.87, 65.87
GPS, 3, 541646400, 9, 1.89, -33.7840639, 151.0681699, -0.37, 96.15, 0.00, 162.10
CTUN, 0, 0.00, -0.08, 0.000000, 0.00, 0, -12, 0, 0
ATT, 0.00, -0.07, 0.00, 1.37, 0.00, 65.88, 65.88
CTUN, 0, 0.00, -0.18, 0.000000, 0.00, 0, -12, 0, 0
ATT, 0.00, -0.08, 0.00, 1.38, 0.00, 65.89, 65.89
GPS, 3, 541646600, 8, 3.11, -33.7840637, 151.0681699, -0.37, 96.15, 0.15, 162.10
CTUN, 0, 0.00, -0.12, 0.000000, 0.00, 0, -12, 0, 0
ATT, 0.00, -0.10, 0.00, 1.35, 0.00, 65.91, 65.91
CTUN, 0, 0.00, -0.22, 0.000000, 0.00, 0, -11, 0, 0
ATT, 0.00, -0.13, 0.00, 1.32, 0.00, 65.92, 65.92
GPS, 3, 541646800, 8, 3.11, -33.7840637, 151.0681698, -0.37, 96.17, 0.04, 162.10
CTUN, 0, 0.00, -0.14, 0.000000, 0.00, 0, -11, 0, 0
ATT, 0.00, -0.12, 0.00, 1.34, 0.00, 65.93, 65.93
CTUN, 0, 0.00, -0.05, 0.000000, 0.00, 0, -11, 0, 0
ATT, 0.00, -0.08, 0.00, 1.37, 0.00, 65.95, 65.95
GPS, 3, 541647000, 8, 3.11, -33.7840637, 151.0681697, -0.37, 96.18, 0.01, 162.10
CTUN, 0, 0.00, -0.26, 0.000000, 0.00, 0, -11, 0, 0
ATT, 0.00, -0.09, 0.00, 1.39, 0.00, 65.96, 65.96
CTUN, 0, 0.00, -0.21, 0.000000, 0.00, 0, -11, 0, 0
ATT, 0.00, -0.10, 0.00, 1.41, 0.00, 65.97, 65.97
GPS, 3, 541647200, 8, 3.11, -33.7840639, 151.0681696, -0.37, 96.18, 0.03, 162.10
CTUN, 0, 0.00, -0.15, 0.000000, 0.00, 0, -11, 0, 0
DU32, 7, 8793
CURR, 0, 0, 1236, 57, 4732, 1.315334
ATT, 0.00, -0.09, 0.00, 1.42, 0.00, 65.98, 65.98
CTUN, 0, 0.00, -0.15, 0.000000, 0.00, 0, -10, 0, 0
ATT, 0.00, -0.08, 0.00, 1.43, 0.00, 65.99, 65.99
GPS, 3, 541647400, 8, 3.11, -33.7840639, 151.0681696, -0.37, 96.19, 0.01, 162.10
CTUN, 0, 0.00, -0.07, 0.000000, 0.00, 0, -10, 0, 0
ATT, 0.00, -0.08, 0.00, 1.43, 0.00, 66.01, 66.01
CTUN, 0, 0.00, -0.17, 0.000000, 0.00, 0, -10, 0, 0
ATT, 0.00, -0.09, 0.00, 1.43, 0.00, 66.03, 66.03
GPS, 3, 541647600, 9, 2.53, -33.7840640, 151.0681695, -0.36, 96.20, 0.02, 162.10
CTUN, 0, 0.00, -0.22, 0.000000, 0.00, 0, -10, 0, 0
ATT, 0.00, -0.09, 0.00, 1.44, 0.00, 66.04, 66.04
CTUN, 0, 0.00, -0.26, 0.000000, 0.00, 0, -10, 0, 0
ATT, 0.00, -0.10, 0.00, 1.46, 0.00, 66.06, 66.06
GPS, 3, 541647800, 9, 1.89, -33.7840640, 151.0681694, -0.36, 96.21, 0.03, 162.10
EV, 15
CTUN, 140, 0.00, -0.19, 0.000000, 0.00, 0, -10, 132, 0
EV, 28
ATT, 0.00, -0.11, 0.00, 1.45, 0.00, 66.07, 66.07
CTUN, 204, 0.00, -0.17, 0.000000, 0.00, 0, -9, 200, 0
PM, 0, 0, 50, 3, 1000, 7322200, 12, 4
ATT, 0.00, -0.12, 0.00, 1.44, 0.00, 66.07, 66.07
GPS, 3, 541648000, 10, 1.76, -33.7840641, 151.0681693, -0.36, 96.22, 0.03, 162.10
CTUN, 217, 0.00, -0.40, 0.000000, 0.00, 0, -9, 217, 0
ATT, 0.00, -0.09, 0.00, 1.45, 0.00, 66.09, 66.07
CTUN, 217, 0.00, -0.70, 0.000000, 0.00, 0, -9, 215, 0
ATT, 0.00, -0.10, 0.00, 1.44, 0.00, 66.10, 66.07
GPS, 3, 541648200, 10, 1.76, -33.7840640, 151.0681692, -0.38, 96.23, 0.05, 162.10
CTUN, 218, 0.00, -0.89, 0.000000, 0.00, 0, -10, 218, 0
DU32, 7, 8313
CURR, 218, 982, 1224, 341, 4752, 1.775111
ATT, 0.00, -0.08, 0.00, 1.45, 0.00, 66.10, 66.07
CTUN, 218, 0.00, -0.91, 0.000000, 0.00, 0, -11, 218, 0
GPS, 3, 541648400, 10, 1.76, -33.7840640, 151.0681690, -0.46, 96.26, 0.02, 162.10
ATT, 0.00, -0.09, 0.00, 1.44, 0.00, 66.14, 66.07
CTUN, 218, 0.00, -0.99, 0.000000, 0.00, 0, -11, 218, 0
ATT, 0.00, -0.09, 0.00, 1.48, 0.00, 66.11, 66.07
CTUN, 218, 0.00, -0.90, 0.000000, 0.00, 0, -12, 218, 0
GPS, 3, 541648600, 10, 1.76, -33.7840640, 151.0681689, -0.54, 96.28, 0.03, 162.10
ATT, 0.00, -0.08, 0.00, 1.49, 0.00, 66.14, 66.07
CTUN, 218, 0.00, -0.93, 0.000000, 0.00, 0, -12, 218, 0
ATT, 0.00, -0.08, 0.00, 1.45, 0.00, 66.16, 66.07
CTUN, 218, 0.00, -1.05, 0.000000, 0.00, 0, -13, 218, 0
GPS, 3, 541648800, 9, 1.89, -33.7840640, 151.0681687, -0.61, 96.30, 0.05, 162.10
ATT, 0.00, -0.10, 0.00, 1.46, 0.00, 66.17, 66.07
CTUN, 218, 0.00, -0.86, 0.000000, 0.00, 0, -13, 218, 0
ATT, 0.00, -0.09, 0.00, 1.48, 0.00, 66.19, 66.07
CTUN, 218, 0.00, -0.90, 0.000000, 0.00, 0, -13, 218, 0
GPS, 3, 541649000, 10, 1.76, -33.7840636, 151.0681688, -0.67, 96.30, 0.22, 162.10
CTUN, 218, 0.00, -1.05, 0.000000, 0.00, 0, -14, 218, 0
ATT, 0.00, -0.14, 0.00, 1.45, 0.00, 66.19, 66.07
CTUN, 218, 0.00, -1.00, 0.000000, 0.00, 0, -14, 218, 0
ATT, 0.00, -0.14, 0.00, 1.41, 0.00, 66.20, 66.07
GPS, 3, 541649200, 10, 1.76, -33.7840636, 151.0681687, -0.74, 96.31, 0.13, 162.10
CTUN, 218, 0.00, -0.83, 0.000000, 0.00, 0, -15, 218, 0
DU32, 7, 8313
CURR, 218, 2944, 1225, 336, 4772, 2.688902
ATT, 0.00, -0.16, 0.00, 1.40, 0.00, 66.23, 66.07
CTUN, 218, 0.00, -1.04, 0.000000, 0.00, 0, -15, 218, 0
ATT, 0.00, -0.12, 0.00, 1.42, 0.00, 66.22, 66.07
GPS, 3, 541649400, 10, 1.76, -33.7840636, 151.0681685, -0.79, 96.32, 0.04, 162.10
CTUN, 218, 0.00, -1.01, 0.000000, 0.00, 0, -15, 218, 0
ATT, 0.00, -0.11, 0.00, 1.46, 0.00, 66.25, 66.07
CTUN, 218, 0.00, -0.92, 0.000000, 0.00, 0, -16, 218, 0
GPS, 3, 541649600, 10, 1.76, -33.7840635, 151.0681686, -0.85, 96.32, 0.13, 162.10
ATT, 0.00, -0.07, 0.00, 1.49, 0.00, 66.27, 66.07
CTUN, 218, 0.00, -0.79, 0.000000, 0.00, 0, -16, 218, 0
ATT, 0.00, -0.09, 0.00, 1.47, 0.00, 66.28, 66.07
CTUN, 218, 0.00, -0.97, 0.000000, 0.00, 0, -16, 218, 0
GPS, 3, 541649800, 10, 1.76, -33.7840635, 151.0681683, -0.88, 96.34, 0.01, 162.10
ATT, 0.00, -0.10, 0.00, 1.45, 0.00, 66.28, 66.07
CTUN, 285, 0.00, -0.99, 0.000000, 0.00, 0, -17, 285, 0
ATT, 0.00, -0.09, 0.00, 1.50, 0.00, 66.27, 66.07
CTUN, 343, 0.00, -0.97, 0.000000, 0.00, 0, -17, 333, 0
GPS, 3, 541650000, 10, 1.76, -33.7840634, 151.0681681, -0.93, 96.37, 0.04, 162.10
CTUN, 345, 0.00, -1.22, 0.000000, 0.00, 0, -16, 346, 0
ATT, 0.00, -0.06, 0.00, 1.49, 0.00, 66.26, 66.07
CTUN, 346, 0.00, -1.47, 0.000000, 0.00, 0, -16, 345, 0
ATT, 0.00, -0.06, 0.00, 1.47, 0.00, 66.23, 66.07
GPS, 3, 541650200, 10, 1.76, -33.7840634, 151.0681679, -0.99, 96.38, 0.02, 162.10
CTUN, 401, 0.00, -1.37, 0.000000, 0.00, 0, -16, 383, 0
EV, 16
DU32, 7, 8569
CURR, 415, 5368, 1211, 615, 4732, 3.897547
ATT, 0.00, 0.00, 0.00, 1.50, 0.00, 66.28, 66.07
CTUN, 447, 0.00, -1.56, 0.000000, 0.00, 0, -17, 435, 0
ATT, 0.00, 0.08, 0.00, 1.48, 0.00, 66.30, 66.07
GPS, 3, 541650400, 10, 1.76, -33.7840634, 151.0681678, -1.08, 96.38, 0.05, 162.10
CTUN, 487, 0.00, -2.02, 0.000000, 0.00, 0, -18, 487, 0
ATT, 0.00, 0.05, 0.00, 1.47, 0.00, 66.19, 66.07
CTUN, 519, 0.00, -1.77, 0.000000, 0.00, 0, -18, 519, 0
ATT, 0.00, -0.19, 0.00, 1.40, 0.00, 65.55, 66.07
GPS, 3, 541650600, 10, 1.76, -33.7840634, 151.0681676, -1.20, 96.38, 0.03, 162.10
CTUN, 548, 0.00, -2.01, 0.000000, 0.00, 0, -18, 548, 0
ATT, 0.00, -0.44, 0.00, 1.50, 0.00, 64.06, 66.07
CTUN, 563, 0.00, -2.02, 0.000000, 0.00, 0, -11, 563, 0
ATT, 0.00, -0.38, 0.00, 1.49, 0.00, 62.03, 66.07
GPS, 3, 541650800, 10, 1.76, -33.7840634, 151.0681674, -1.31, 96.37, 0.03, 162.10
CTUN, 580, 0.00, -1.71, 0.000000, 0.00, 0, -1, 574, 0
ATT, 0.00, 0.37, 0.00, 1.87, 0.00, 59.81, 66.07
CTUN, 599, 0.00, -1.13, 0.000000, 0.00, 0, 11, 599, 0
ATT, 0.00, 0.50, 0.00, 2.06, 0.00, 57.60, 66.07
GPS, 3, 541651000, 10, 1.76, -33.7840631, 151.0681672, -1.35, 96.35, 0.13, 162.10
CTUN, 599, 0.00, -0.36, 0.000000, 0.00, 0, 21, 600, 0
ATT, 0.00, 0.56, 0.00, 1.84, 0.00, 55.52, 65.52
CTUN, 604, 0.00, -0.19, 0.000000, 0.00, 0, 37, 604, 0
GPS, 3, 541651200, 9, 2.53, -33.7840627, 151.0681663, -1.19, 96.47, 0.21, 162.10
ATT, 0.00, 0.40, 0.00, 1.61, 0.00, 53.58, 63.58
CTUN, 604, 0.00, 0.12, 0.000000, 0.00, 0, 50, 604, 0
DU32, 7, 8569
CURR, 604, 10861, 1176, 1499, 4732, 7.506219
ATT, 0.00, -0.04, 0.00, 1.21, 0.00, 52.06, 62.06
CTUN, 604, 0.00, 0.13, 0.000000, 0.00, 0, 59, 605, 0
GPS, 3, 541651400, 9, 2.53, -33.7840631, 151.0681661, -0.94, 96.54, 0.27, 162.10
ATT, 0.00, 0.29, 0.00, 0.82, 0.00, 50.34, 60.34
CTUN, 604, 0.00, 0.23, 0.000000, 0.00, 0, 69, 604, 0
ATT, 0.00, 0.61, 0.00, 0.64, 0.00, 49.04, 59.04
CTUN, 604, 0.00, 0.34, 0.000000, 0.00, 0, 75, 604, 0
GPS, 3, 541651600, 10, 1.76, -33.7840639, 151.0681655, -0.69, 96.63, 0.48, 162.10
CTUN, 604, 0.00, 0.45, 0.000000, 0.00, 0, 81, 604, 0
ATT, 0.00, 0.80, 0.00, 0.56, 0.00, 47.58, 57.58
CTUN, 604, 0.00, 0.60, 0.000000, 0.00, 0, 87, 604, 0
ATT, 0.00, 0.79, -2.91, 0.34, 0.00, 46.47, 56.47
GPS, 3, 541651800, 10, 1.76, -33.7840631, 151.0681645, -0.37, 97.02, 0.18, 162.10
CTUN, 604, 0.00, 0.76, 0.000000, 0.00, 0, 93, 604, 0
ATT, 0.00, 0.57, -3.63, -1.30, 0.00, 45.27, 55.27
CTUN, 604, 0.00, 0.71, 0.000000, 0.00, 0, 99, 604, 0
ATT, 0.00, 0.47, -3.63, -2.22, 0.00, 44.35, 54.35
GPS, 3, 541652000, 8, 2.62, -33.7840630, 151.0681638, -0.06, 97.31, 0.22, 162.10
CTUN, 604, 0.00, 0.85, 0.000000, 0.00, 0, 104, 606, 0
ATT, 0.00, 0.53, -3.63, -2.55, 0.00, 43.28, 53.28
CTUN, 605, 0.00, 0.96, 0.000000, 0.00, 0, 110, 605, 0
GPS, 3, 541652200, 8, 2.01, -33.7840631, 151.0681634, 0.25, 97.50, 0.13, 162.10
ATT, 0.00, 0.58, -4.48, -2.69, 0.00, 42.37, 52.37
CTUN, 605, 0.00, 1.06, 0.000000, 0.00, 0, 116, 605, 0
DU32, 7, 8569
CURR, 605, 16300, 1169, 1493, 4752, 11.65344
ATT, 0.00, 0.82, -5.09, -2.99, 0.00, 41.63, 51.63
CTUN, 595, 0.00, 1.14, 0.000000, 0.00, 0, 120, 605, 0
GPS, 3, 541652400, 10, 1.76, -33.7840631, 151.0681629, 0.57, 97.76, 0.12, 162.10
ATT, 0.00, 0.76, -6.06, -3.64, 0.00, 40.87, 50.87
CTUN, 595, 0.00, 1.34, 0.000000, 0.00, 0, 124, 595, 0
ATT, 0.00, 0.76, -6.54, -4.31, 0.00, 40.32, 50.32
CTUN, 576, 0.00, 1.45, 0.000000, 0.00, 1, 125, 577, 0
GPS, 3, 541652600, 9, 2.53, -33.7840630, 151.0681630, 0.87, 98.01, 0.08, 162.10
CTUN, 573, 0.00, 1.58, 0.000000, 0.00, 1, 125, 574, 0
ATT, 0.00, 0.55, -7.39, -5.20, 0.00, 39.72, 49.72
CTUN, 570, 0.00, 1.77, 0.000000, 0.00, 2, 123, 572, 0
ATT, 0.00, 0.49, -9.46, -6.09, 0.00, 39.26, 49.26
GPS, 3, 541652800, 10, 1.78, -33.7840631, 151.0681630, 1.22, 98.24, 0.07, 162.10
CTUN, 570, 0.00, 1.93, 0.000000, 0.00, 3, 120, 573, 0
ATT, 0.00, 0.69, -10.06, -7.29, 0.00, 38.91, 48.91
CTUN, 563, 0.00, 1.92, 0.000000, 0.00, 3, 117, 566, 0
ATT, 0.00, 0.51, -9.46, -7.85, 0.00, 38.70, 48.70
GPS, 3, 541653000, 11, 1.59, -33.7840625, 151.0681634, 1.53, 98.46, 0.39, 126.19
CTUN, 566, 0.00, 2.08, 0.000000, 0.00, 4, 114, 570, 0
ATT, 0.00, 0.57, -7.52, -8.05, 0.00, 38.47, 48.47
CTUN, 563, 0.00, 2.31, 0.000000, 0.00, 3, 110, 569, 0
ATT, 0.00, 0.80, -2.66, -7.12, 0.00, 38.27, 48.27
GPS, 3, 541653200, 11, 1.59, -33.7840617, 151.0681644, 1.84, 98.70, 0.65, 68.93
CTUN, 567, 0.00, 2.40, 0.000000, 0.00, 2, 108, 569, 0
ATT, 5.42, 1.19, -3.63, -4.04, 0.00, 38.10, 48.10
DU32, 7, 8569
CURR, 563, 21478, 1173, 1340, 4752, 15.37055
CTUN, 563, 0.00, 2.57, 0.000000, 0.00, 1, 104, 564, 0
ATT, 4.50, 4.66, -2.66, -3.08, 0.00, 37.84, 47.84
GPS, 3, 541653400, 11, 1.59, -33.7840606, 151.0681659, 2.10, 98.90, 0.88, 56.30
CTUN, 566, 0.00, 2.70, 0.000000, 0.00, 1, 103, 567, 0
ATT, 4.96, 4.57, -2.91, -1.31, 0.00, 37.87, 47.84
CTUN, 563, 0.00, 2.84, 0.000000, 0.00, 1, 100, 564, 0
ATT, 5.53, 5.31, -2.91, -1.05, 0.00, 37.71, 47.71
GPS, 3, 541653600, 11, 1.59, -33.7840590, 151.0681676, 2.38, 99.22, 1.11, 49.99
CTUN, 563, 0.00, 2.87, 0.000000, 0.00, 1, 98, 564, 0
ATT, 6.46, 5.22, -4.24, -0.71, 0.00, 37.57, 47.57
CTUN, 563, 0.00, 3.04, 0.000000, 0.00, 1, 95, 566, 0
ATT, 8.19, 5.74, -4.60, -1.51, 0.00, 37.38, 47.38
GPS, 3, 541653800, 11, 1.59, -33.7840575, 151.0681694, 2.63, 99.61, 1.08, 50.37
CTUN, 565, 0.00, 3.20, 0.000000, 0.00, 3, 93, 568, 0
ATT, 8.19, 6.66, -4.60, -2.49, 0.00, 37.20, 47.20
CTUN, 565, 0.00, 3.20, 0.000000, 0.00, 3, 92, 568, 0
ATT, 8.19, 6.92, -4.12, -2.48, 0.00, 37.14, 47.14
GPS, 3, 541654000, 11, 1.59, -33.7840559, 151.0681720, 2.87, 99.88, 1.43, 52.77
CTUN, 565, 0.00, 3.21, 0.000000, 0.00, 3, 91, 568, 0
ATT, 7.84, 6.64, -4.73, -1.95, 0.00, 37.09, 47.09
CTUN, 566, 0.00, 3.41, 0.000000, 0.00, 3, 89, 569, 0
ATT, 6.57, 6.63, -4.73, -2.23, 0.00, 36.99, 46.99
GPS, 3, 541654200, 11, 1.59, -33.7840546, 151.0681748, 3.09, 99.96, 1.56, 53.93
CTUN, 565, 0.00, 3.52, 0.000000, 0.00, 2, 87, 567, 0
ATT, 5.53, 5.46, -4.48, -2.29, 0.00, 36.98, 46.98
DU32, 7, 8569
CURR, 566, 27142, 1179, 1357, 4712, 19.12210
CTUN, 566, 0.00, 3.59, 0.000000, 0.00, 2, 87, 568, 0
ATT, 2.07, 4.60, -3.88, -2.42, 0.00, 36.94, 46.94
GPS, 3, 541654400, 11, 1.59, -33.7840540, 151.0681769, 3.31, 99.82, 1.25, 54.25
CTUN, 565, 0.00, 3.70, 0.000000, 0.00, 1, 85, 566, 0
ATT, 1.73, 2.69, -1.94, -2.38, 0.00, 37.02, 46.94
CTUN, 570, 0.00, 3.74, 0.000000, 0.00, 0, 84, 570, 0
ATT, 0.92, 1.04, 0.00, -1.99, 0.00, 37.12, 46.94
GPS, 3, 541654600, 11, 1.59, -33.7840535, 151.0681796, 3.52, 99.75, 1.33, 60.26
CTUN, 575, 0.00, 3.87, 0.000000, 0.00, 0, 82, 575, 0
ATT, 9.23, 0.68, 0.00, -0.87, 0.00, 37.27, 46.94
CTUN, 574, 0.00, 3.90, 0.000000, 0.00, 0, 84, 574, 0
ATT, 7.15, 3.99, 0.00, -0.74, 0.00, 37.36, 46.94
GPS, 3, 541654800, 11, 1.59, -33.7840537, 151.0681826, 3.72, 99.47, 1.38, 69.16
CTUN, 575, 0.00, 4.02, 0.000000, 0.00, 1, 86, 576, 0
ATT, 6.34, 4.51, 0.00, 0.86, 0.00, 37.61, 46.94
CTUN, 576, 0.00, 4.17, 0.000000, 0.00, 1, 85, 577, 0
ATT, 2.07, 4.99, 0.00, 0.69, 0.00, 37.81, 46.94
GPS, 3, 541655000, 11, 1.59, -33.7840535, 151.0681859, 3.92, 99.36, 1.48, 75.22
CTUN, 575, 0.00, 4.16, 0.000000, 0.00, 1, 85, 576, 0
ATT, 1.38, 3.35, 0.00, 1.42, 0.00, 38.02, 46.94
CTUN, 575, 0.00, 4.37, 0.000000, 0.00, 0, 85, 575, 0
ATT, 0.00, 1.82, 0.00, 1.53, 0.00, 38.18, 46.94
GPS, 3, 541655200, 11, 1.59, -33.7840534, 151.0681890, 4.12, 99.37, 1.38, 80.85
CTUN, 575, 0.00, 4.35, 0.000000, 0.00, 0, 84, 575, 0
ATT, 0.00, 0.32, 0.82, 1.83, 0.00, 38.24, 46.94
DU32, 7, 8569
CURR, 575, 32872, 1169, 1372, 4693, 22.92543
CTUN, 575, 0.00, 4.47, 0.000000, 0.00, 0, 82, 575, 0
ATT, 0.00, -0.44, 4.21, 1.99, 0.00, 38.26, 46.94
GPS, 3, 541655400, 11, 1.59, -33.7840534, 151.0681926, 4.32, 99.32, 1.45, 85.21
CTUN, 575, 0.00, 4.60, 0.000000, 0.00, 0, 82, 575, 0
ATT, 0.00, -0.76, 4.45, 3.39, 0.00, 38.24, 46.94
CTUN, 575, 0.00, 4.60, 0.000000, 0.00, 1, 83, 576, 0
ATT, 0.00, -0.82, 6.44, 5.02, 0.00, 38.08, 46.94
GPS, 3, 541655600, 11, 1.59, -33.7840530, 151.0681957, 4.51, 99.34, 1.37, 83.61
CTUN, 575, 0.00, 4.66, 0.000000, 0.00, 2, 81, 577, 0
ATT, 0.00, -1.22, 8.43, 6.19, 0.00, 38.01, 46.94
CTUN, 575, 0.00, 4.77, 0.000000, 0.00, 3, 81, 578, 0
ATT, 0.00, -1.74, 10.78, 7.71, 0.00, 38.02, 46.94
GPS, 3, 541655800, 11, 1.59, -33.7840530, 151.0681986, 4.69, 99.39, 1.25, 87.60
CTUN, 575, 0.00, 4.90, 0.000000, 0.00, 5, 81, 580, 0
ATT, 0.00, -1.36, 14.88, 9.79, 0.00, 38.00, 46.94
CTUN, 575, 0.00, 4.94, 0.000000, 0.00, 8, 80, 583, 0
ATT, 0.00, -1.91, 10.89, 12.15, 0.00, 38.11, 46.94
GPS, 3, 541656000, 11, 1.59, -33.7840529, 151.0682007, 4.87, 99.54, 0.86, 90.09
CTUN, 574, 0.00, 5.01, 0.000000, 0.00, 10, 81, 588, 0
ATT, 0.00, -1.24, 7.26, 11.21, 0.00, 38.31, 46.94
CTUN, 574, 0.00, 5.02, 0.000000, 0.00, 8, 81, 582, 0
GPS, 3, 541656200, 11, 1.59, -33.7840530, 151.0682025, 5.02, 99.66, 0.68, 96.77
ATT, 0.00, -1.62, 0.00, 7.60, 0.00, 38.76, 46.94
CTUN, 574, 0.00, 5.11, 0.000000, 0.00, 2, 79, 576, 0
DU32, 7, 8569
CURR, 574, 38659, 1175, 1384, 4732, 26.85381
ATT, 0.00, -2.25, 0.00, 2.87, 0.00, 39.19, 46.94
CTUN, 575, 0.00, 5.10, 0.000000, 0.00, 0, 81, 574, 0
GPS, 3, 541656400, 11, 1.59, -33.7840536, 151.0682036, 5.18, 99.88, 0.63, 119.37
ATT, 0.00, -1.08, 0.00, 0.58, 0.00, 39.39, 46.94
CTUN, 574, 0.00, 5.32, 0.000000, 0.00, 0, 82, 574, 0
ATT, 0.00, -0.83, 0.00, 0.30, 0.00, 39.53, 46.94
CTUN, 574, 0.00, 5.40, 0.000000, 0.00, 0, 83, 574, 0
GPS, 3, 541656600, 11, 1.59, -33.7840541, 151.0682043, 5.37, 100.04, 0.50, 139.89
ATT, 0.00, -0.44, 0.00, -0.49, 0.00, 39.76, 46.94
CTUN, 574, 0.00, 5.51, 0.000000, 0.00, 0, 82, 574, 0
ATT, -0.11, 0.05, 0.00, -0.58, 0.00, 39.84, 46.94
CTUN, 574, 0.00, 5.51, 0.000000, 0.00, 0, 82, 574, 0
GPS, 3, 541656800, 11, 1.59, -33.7840549, 151.0682050, 5.53, 100.19, 0.49, 150.56
ATT, -1.97, 0.08, 0.00, -0.35, 0.00, 39.74, 46.94
CTUN, 574, 0.00, 5.56, 0.000000, 0.00, 0, 83, 574, 0
ATT, 0.00, -0.53, 0.00, -0.19, 0.00, 39.64, 46.94
CTUN, 574, 0.00, 5.62, 0.000000, 0.00, 0, 83, 574, 0
GPS, 3, 541657000, 11, 1.59, -33.7840549, 151.0682055, 5.69, 100.42, 0.24, 150.56
CTUN, 574, 0.00, 5.75, 0.000000, 0.00, 0, 83, 574, 0
ATT, 0.00, -0.20, 0.00, -0.39, 0.00, 39.54, 46.94
CTUN, 574, 0.00, 5.93, 0.000000, 0.00, 0, 83, 576, 0
ATT, 0.00, 0.10, 0.00, -0.20, 0.00, 39.53, 46.94
GPS, 3, 541657200, 11, 1.59, -33.7840554, 151.0682062, 5.86, 100.64, 0.34, 150.56
CTUN, 576, 0.00, 5.93, 0.000000, 0.00, 0, 84, 574, 0
ATT, -0.34, 0.21, 0.00, 0.01, 0.00, 39.68, 46.94
DU32, 7, 8569
CURR, 576, 43827, 1169, 1360, 4732, 30.58800
CTUN, 574, 0.00, 5.97, 0.000000, 0.00, 0, 83, 574, 0
GPS, 3, 541657400, 11, 1.59, -33.7840558, 151.0682068, 6.03, 100.73, 0.22, 150.56
ATT, -0.34, 0.09, 0.00, 0.10, 0.00, 40.01, 46.94
CTUN, 574, 0.00, 5.96, 0.000000, 0.00, 0, 83, 576, 0
ATT, 0.00, -0.03, 0.00, -0.10, 0.00, 40.31, 46.94
CTUN, 576, 0.00, 6.06, 0.000000, 0.00, 0, 82, 576, 0
GPS, 3, 541657600, 11, 1.59, -33.7840561, 151.0682073, 6.20, 100.83, 0.14, 150.56
ATT, 0.00, 0.56, 0.00, -0.09, 0.00, 40.73, 46.94
CTUN, 574, 0.00, 6.26, 0.000000, 0.00, 0, 82, 576, 0
ATT, 0.00, 0.78, 0.00, -0.22, 0.00, 41.16, 46.94
CTUN, 576, 0.00, 6.28, 0.000000, 0.00, 0, 82, 574, 0
GPS, 3, 541657800, 11, 1.59, -33.7840564, 151.0682075, 6.33, 100.90, 0.06, 150.56
ATT, 0.00, 0.55, 0.00, -0.27, 0.00, 41.67, 46.94
CTUN, 574, 0.00, 6.43, 0.000000, 0.00, 0, 82, 574, 0
ATT, 0.00, 0.74, 0.00, -0.08, 0.00, 42.02, 46.94
CTUN, 574, 0.00, 6.52, 0.000000, 0.00, 0, 82, 574, 0
GPS, 3, 541658000, 11, 1.59, -33.7840566, 151.0682083, 6.52, 101.01, 0.19, 150.56
PM, 0, 0, 51, 0, 1006, 10428, 6, 4
ATT, 0.00, 0.82, 0.00, -0.01, 0.00, 42.33, 46.94
CTUN, 574, 0.00, 6.46, 0.000000, 0.00, 0, 82, 574, 0
ATT, 0.00, 0.98, 0.00, 0.00, 0.00, 42.57, 46.94
CTUN, 563, 0.00, 6.49, 0.000000, 0.00, 0, 80, 563, 0
GPS, 3, 541658200, 12, 1.31, -33.7840568, 151.0682086, 6.68, 101.07, 0.06, 150.56
ATT, 0.00, 0.96, 0.00, 0.03, 0.00, 42.74, 46.94
CTUN, 557, 0.00, 6.66, 0.000000, 0.00, 0, 78, 557, 0
DU32, 7, 8569
CURR, 557, 49547, 1176, 1261, 4732, 34.47085
ATT, 0.00, 0.97, 0.00, 0.10, 0.00, 42.88, 46.94
CTUN, 557, 0.00, 6.81, 0.000000, 0.00, 0, 73, 557, 0
GPS, 3, 541658400, 12, 1.31, -33.7840569, 151.0682088, 6.82, 101.24, 0.13, 150.56
ATT, 0.00, 0.89, 0.00, 0.11, 0.00, 43.07, 46.94
CTUN, 557, 0.00, 6.79, 0.000000, 0.00, 0, 69, 557, 0
ATT, 0.00, 0.81, 0.00, 0.03, 0.00, 43.21, 46.94
CTUN, 557, 0.00, 6.79, 0.000000, 0.00, 0, 66, 557, 0
GPS, 3, 541658600, 12, 1.31, -33.7840573, 151.0682093, 6.95, 101.21, 0.13, 150.56
ATT, 0.00, 0.80, 0.00, 0.06, 0.00, 43.29, 46.94
CTUN, 557, 0.00, 6.92, 0.000000, 0.00, 0, 63, 557, 0
ATT, 0.00, 0.87, 0.00, 0.11, 0.00, 43.31, 46.94
CTUN, 557, 0.00, 7.06, 0.000000, 0.00, 0, 59, 557, 0
GPS, 3, 541658800, 12, 1.31, -33.7840573, 151.0682096, 7.06, 101.36, 0.14, 150.56
ATT, 0.00, 0.95, 0.00, 0.27, 0.00, 43.31, 46.94
CTUN, 557, 0.00, 7.10, 0.000000, 0.00, 0, 54, 557, 0
ATT, 0.00, 1.13, 0.00, 0.45, 0.00, 43.27, 46.94
CTUN, 558, 0.00, 7.07, 0.000000, 0.00, 0, 49, 558, 0
GPS, 3, 541659000, 12, 1.31, -33.7840570, 151.0682104, 7.17, 101.47, 0.28, 150.56
ATT, 0.00, 1.18, 0.00, 0.43, 0.00, 43.19, 46.94
CTUN, 557, 0.00, 7.13, 0.000000, 0.00, 0, 47, 557, 0
ATT, 0.00, 1.11, 0.00, 0.50, 0.00, 43.12, 46.94
CTUN, 558, 0.00, 7.39, 0.000000, 0.00, 0, 45, 557, 0
GPS, 3, 541659200, 12, 1.31, -33.7840567, 151.0682110, 7.25, 101.57, 0.22, 150.56
ATT, 0.00, 1.16, 0.00, 0.54, 0.00, 43.02, 46.94
CTUN, 557, 0.00, 7.30, 0.000000, 0.00, 0, 40, 557, 0
DU32, 7, 8569
CURR, 557, 55118, 1173, 1272, 4732, 38.06734
ATT, 0.00, 0.98, 0.00, 0.57, 0.00, 42.98, 46.94
CTUN, 557, 0.00, 7.20, 0.000000, 0.00, 0, 38, 557, 0
GPS, 3, 541659400, 11, 1.59, -33.7840563, 151.0682116, 7.33, 101.64, 0.21, 150.56
ATT, 0.00, 0.87, 0.00, 0.47, 0.00, 43.00, 46.94
CTUN, 557, 0.00, 7.34, 0.000000, 0.00, 0, 36, 557, 0
ATT, 0.00, 0.72, 0.00, 0.37, 0.00, 43.07, 46.94
CTUN, 557, 0.00, 7.28, 0.000000, 0.00, 0, 31, 558, 0
GPS, 3, 541659600, 11, 1.59, -33.7840561, 151.0682124, 7.39, 101.72, 0.36, 124.00
ATT, 0.00, 0.81, 0.00, 0.27, 0.00, 43.17, 46.94
CTUN, 557, 0.00, 7.28, 0.000000, 0.00, 0, 28, 557, 0
ATT, 0.00, 0.86, 0.00, 0.24, 0.00, 43.35, 46.94
CTUN, 557, 0.00, 7.32, 0.000000, 0.00, 0, 26, 557, 0
GPS, 3, 541659800, 11, 1.59, -33.7840565, 151.0682126, 7.43, 101.71, 0.13, 124.00
ATT, 0.00, 0.83, 0.00, 0.24, 0.00, 43.57, 46.94
CTUN, 557, 0.00, 7.49, 0.000000, 0.00, 0, 21, 557, 0
ATT, 0.00, 0.76, 0.00, 0.22, 0.00, 43.79, 46.94
CTUN, 557, 0.00, 7.41, 0.000000, 0.00, 0, 17, 557, 0
GPS, 3, 541660000, 11, 1.59, -33.7840565, 151.0682130, 7.47, 101.78, 0.26, 124.00
ATT, 0.00, 0.68, 0.00, 0.21, 0.00, 43.97, 46.94
CTUN, 557, 0.00, 7.34, 0.000000, 0.00, 0, 16, 557, 0
ATT, 0.00, 0.68, 0.00, 0.06, 0.00, 44.13, 46.94
CTUN, 557, 0.00, 7.32, 0.000000, 0.00, 0, 15, 557, 0
GPS, 3, 541660200, 12, 1.31, -33.7840568, 151.0682136, 7.49, 101.75, 0.21, 124.00
ATT, 0.00, 0.65, 0.00, 0.07, 0.00, 44.20, 46.94
CTUN, 558, 0.00, 7.47, 0.000000, 0.00, 0, 12, 557, 0
DU32, 7, 8569
CURR, 557, 60689, 1174, 1266, 4752, 41.58598
ATT, 0.00, 0.67, 0.00, 0.22, 0.00, 44.19, 46.94
CTUN, 557, 0.00, 7.47, 0.000000, 0.00, 0, 8, 557, 0
GPS, 3, 541660400, 11, 1.59, -33.7840572, 151.0682141, 7.50, 101.63, 0.24, 124.00
ATT, 0.00, 0.76, 0.00, 0.30, 0.00, 44.15, 46.94
CTUN, 557, 0.00, 7.35, 0.000000, 0.00, 0, 3, 557, 0
ATT, 0.00, 0.65, 0.00, 0.47, 0.00, 44.04, 46.94
CTUN, 557, 0.00, 7.51, 0.000000, 0.00, 0, 1, 557, 0
GPS, 3, 541660600, 11, 1.59, -33.7840573, 151.0682146, 7.50, 101.64, 0.21, 124.00
ATT, 0.00, 0.74, 0.00, 0.44, 0.00, 43.86, 46.94
CTUN, 557, 0.00, 7.48, 0.000000, 0.00, 0, 1, 557, 0
ATT, 0.00, 0.75, 0.00, 0.45, 0.00, 43.63, 46.94
CTUN, 557, 0.00, 7.50, 0.000000, 0.00, 0, -1, 557, 0
GPS, 3, 541660800, 11, 1.59, -33.7840578, 151.0682153, 7.50, 101.52, 0.24, 124.00
ATT, 0.00, 0.82, 0.00, 0.42, 0.00, 43.47, 46.94
CTUN, 557, 0.00, 7.37, 0.000000, 0.00, 0, -4, 557, 0
ATT, 0.00, 0.75, 0.00, 0.35, 0.00, 43.34, 46.94
CTUN, 557, 0.00, 7.40, 0.000000, 0.00, 0, -7, 558, 0
GPS, 3, 541661000, 11, 1.59, -33.7840581, 151.0682158, 7.48, 101.42, 0.20, 124.00
ATT, 0.00, 0.64, 0.00, 0.23, 0.00, 43.25, 46.94
CTUN, 557, 0.00, 7.34, 0.000000, 0.00, 0, -9, 557, 0
ATT, 0.00, 0.75, 0.00, 0.13, 0.00, 43.23, 46.94
CTUN, 557, 0.00, 7.52, 0.000000, 0.00, 0, -12, 558, 0
GPS, 3, 541661200, 11, 1.59, -33.7840584, 151.0682163, 7.45, 101.32, 0.23, 124.00
ATT, 0.00, 0.63, 0.00, 0.13, 0.00, 43.23, 46.94
CTUN, 557, 0.00, 7.26, 0.000000, 0.00, 0, -13, 557, 0
DU32, 7, 8569
CURR, 557, 66259, 1170, 1269, 4712, 45.11383
ATT, 0.00, 0.54, 0.00, 0.04, 0.00, 43.34, 46.94
CTUN, 557, 0.00, 7.36, 0.000000, 0.00, 0, -17, 557, 0
GPS, 3, 541661400, 11, 1.59, -33.7840584, 151.0682169, 7.41, 101.26, 0.24, 124.00
ATT, 0.00, 0.57, 0.00, 0.10, 0.00, 43.48, 46.94
CTUN, 557, 0.00, 7.29, 0.000000, 0.00, 0, -19, 557, 0
ATT, 0.00, 0.47, 0.00, 0.20, 0.00, 43.65, 46.94
CTUN, 557, 0.00, 7.37, 0.000000, 0.00, 0, -20, 557, 0
GPS, 3, 541661600, 11, 1.59, -33.7840585, 151.0682174, 7.36, 101.19, 0.19, 124.00
ATT, 0.00, 0.31, 0.00, 0.17, 0.00, 43.87, 46.94
CTUN, 557, 0.00, 7.20, 0.000000, 0.00, 0, -24, 557, 0
ATT, 0.00, 0.37, 0.00, 0.29, 0.00, 44.12, 46.94
CTUN, 557, 0.00, 7.12, 0.000000, 0.00, 0, -25, 557, 0
GPS, 3, 541661800, 12, 1.31, -33.7840586, 151.0682178, 7.30, 101.11, 0.26, 124.00
ATT, 0.00, 0.32, 0.00, 0.31, 0.00, 44.31, 46.94
CTUN, 563, 0.00, 7.19, 0.000000, 0.00, 0, -26, 561, 0
ATT, 0.00, 0.30, 0.00, 0.33, 0.00, 44.48, 46.94
CTUN, 569, 0.00, 7.23, 0.000000, 0.00, 0, -28, 569, 0
GPS, 3, 541662000, 12, 1.31, -33.7840591, 151.0682180, 7.24, 100.93, 0.20, 124.00
ATT, 0.00, 0.24, 0.00, 0.27, 0.00, 44.64, 46.94
CTUN, 584, 0.00, 7.29, 0.000000, 0.00, 0, -30, 584, 0
ATT, 0.00, 0.17, 0.00, 0.17, 0.00, 44.77, 46.94
CTUN, 589, 0.00, 7.13, 0.000000, 0.00, 0, -25, 589, 0
GPS, 3, 541662200, 11, 1.59, -33.7840597, 151.0682186, 7.18, 100.70, 0.24, 124.00
CTUN, 595, 0.00, 7.03, 0.000000, 0.00, 0, -20, 595, 0
ATT, 0.00, 0.43, 0.00, 0.11, 0.00, 44.81, 46.94
DU32, 7, 8569
CURR, 595, 71957, 1165, 1408, 4732, 48.78940
CTUN, 595, 0.00, 7.10, 0.000000, 0.00, 0, -17, 595, 0
ATT, 0.00, 0.49, 0.00, -0.01, 0.00, 44.83, 46.94
GPS, 3, 541662400, 12, 1.31, -33.7840598, 151.0682191, 7.13, 100.57, 0.27, 124.00
CTUN, 596, 0.00, 7.04, 0.000000, 0.00, 0, -11, 595, 0
ATT, 0.00, 0.53, 0.00, -0.15, 0.00, 44.83, 46.94
CTUN, 595, 0.00, 7.00, 0.000000, 0.00, 0, -7, 595, 0
ATT, 0.00, 0.66, 0.00, -0.16, 0.00, 44.77, 46.94
GPS, 3, 541662600, 12, 1.31, -33.7840600, 151.0682194, 7.10, 100.52, 0.17, 124.00
CTUN, 595, 0.00, 6.92, 0.000000, 0.00, 0, -1, 595, 0
ATT, 0.00, 0.77, 0.00, -0.02, 0.00, 44.67, 46.94
CTUN, 595, 0.00, 6.86, 0.000000, 0.00, 0, 2, 595, 0
GPS, 3, 541662800, 12, 1.31, -33.7840603, 151.0682201, 7.08, 100.44, 0.30, 126.64
ATT, 0.00, 0.94, 0.00, 0.11, 0.00, 44.52, 46.94
CTUN, 595, 0.00, 6.91, 0.000000, 0.00, 0, 8, 594, 0
ATT, 0.00, 0.98, 0.00, 0.24, 0.00, 44.33, 46.94
CTUN, 595, 0.00, 6.91, 0.000000, 0.00, 0, 13, 595, 0
GPS, 3, 541663000, 11, 1.36, -33.7840606, 151.0682205, 7.08, 100.38, 0.26, 132.39
ATT, 0.00, 1.00, 0.00, 0.34, 0.00, 44.09, 46.94
CTUN, 595, 0.00, 6.87, 0.000000, 0.00, 0, 18, 596, 0
ATT, 0.00, 0.93, 0.00, 0.49, 0.00, 43.80, 46.94
CTUN, 595, 0.00, 7.04, 0.000000, 0.00, 0, 23, 595, 0
GPS, 3, 541663200, 12, 1.31, -33.7840611, 151.0682212, 7.10, 100.31, 0.32, 133.69
ATT, 0.00, 0.75, 0.00, 0.55, 0.00, 43.47, 46.94
CTUN, 595, 0.00, 6.91, 0.000000, 0.00, 0, 28, 595, 0
ATT, 0.00, 0.55, 0.00, 0.53, 0.00, 43.18, 46.94
DU32, 7, 8569
CURR, 595, 77311, 1166, 1426, 4752, 52.56604
CTUN, 595, 0.00, 6.95, 0.000000, 0.00, 0, 34, 595, 0
GPS, 3, 541663400, 12, 1.31, -33.7840616, 151.0682217, 7.15, 100.30, 0.28, 138.03
ATT, 0.00, 0.34, 0.00, 0.42, 0.00, 42.87, 46.94
CTUN, 595, 0.00, 6.91, 0.000000, 0.00, 0, 39, 595, 0
ATT, 0.00, 0.01, 0.00, 0.44, 0.00, 42.61, 46.94
CTUN, 595, 0.00, 7.04, 0.000000, 0.00, 0, 43, 595, 0
GPS, 3, 541663600, 12, 1.31, -33.7840623, 151.0682222, 7.20, 100.30, 0.40, 143.57
ATT, 0.00, -0.06, -0.24, 0.24, 0.00, 42.38, 46.94
CTUN, 595, 0.00, 7.08, 0.000000, 0.00, 0, 48, 595, 0
ATT, 0.00, -0.12, -2.18, 0.03, 0.00, 42.21, 46.94
CTUN, 595, 0.00, 7.07, 0.000000, 0.00, 0, 50, 595, 0
GPS, 3, 541663800, 12, 1.31, -33.7840631, 151.0682226, 7.28, 100.29, 0.42, 152.50
ATT, -0.93, -0.20, -3.63, -1.12, 0.00, 42.08, 46.94
CTUN, 595, 0.00, 7.24, 0.000000, 0.00, 0, 54, 596, 0
ATT, 0.00, -0.85, -3.88, -2.25, 0.00, 42.04, 46.94
GPS, 3, 541664000, 12, 1.31, -33.7840636, 151.0682229, 7.36, 100.29, 0.37, 159.06
CTUN, 595, 0.00, 7.23, 0.000000, 0.00, 0, 57, 596, 0
ATT, 0.00, -0.62, -4.24, -3.18, 0.00, 42.02, 46.94
CTUN, 595, 0.00, 7.29, 0.000000, 0.00, 0, 62, 595, 0
ATT, 0.00, -0.45, -4.48, -3.58, 0.00, 42.01, 46.94
GPS, 3, 541664200, 11, 1.59, -33.7840641, 151.0682232, 7.48, 100.34, 0.28, 156.71
CTUN, 594, 0.00, 7.28, 0.000000, 0.00, 1, 64, 598, 0
ATT, 0.00, -0.32, -5.94, -4.23, 0.00, 42.07, 46.94
CTUN, 594, 0.00, 7.26, 0.000000, 0.00, 1, 67, 595, 0
DU32, 7, 8569
CURR, 594, 83266, 1164, 1435, 4732, 56.73338
ATT, 0.00, -0.21, -6.42, -4.95, 0.00, 42.15, 46.94
GPS, 3, 541664400, 11, 1.59, -33.7840643, 151.0682240, 7.58, 100.44, 0.37, 139.59
CTUN, 594, 0.00, 7.42, 0.000000, 0.00, 1, 71, 595, 0
ATT, 0.00, -0.22, -6.42, -5.38, 0.00, 42.18, 46.94
CTUN, 594, 0.00, 7.50, 0.000000, 0.00, 2, 74, 596, 0
ATT, 0.00, -0.11, -5.94, -5.64, 0.00, 42.16, 46.94
GPS, 3, 541664600, 11, 1.59, -33.7840642, 151.0682248, 7.71, 100.52, 0.29, 126.12
CTUN, 594, 0.00, 7.42, 0.000000, 0.00, 2, 77, 596, 0
ATT, 0.00, -0.25, -5.57, -5.57, 0.00, 42.06, 46.94
CTUN, 594, 0.00, 7.62, 0.000000, 0.00, 2, 81, 597, 0
ATT, 0.00, -0.21, -5.82, -5.41, 0.00, 41.92, 46.94
GPS, 3, 541664800, 11, 1.59, -33.7840640, 151.0682260, 7.83, 100.66, 0.46, 105.25
CTUN, 594, 0.00, 7.63, 0.000000, 0.00, 2, 85, 596, 0
ATT, 0.00, -0.05, -5.21, -5.24, 0.00, 41.68, 46.94
CTUN, 594, 0.00, 7.75, 0.000000, 0.00, 1, 88, 595, 0
ATT, 0.00, -0.22, -2.91, -4.78, 0.00, 41.47, 46.94
GPS, 3, 541665000, 10, 1.62, -33.7840637, 151.0682275, 7.99, 100.74, 0.55, 96.58
CTUN, 594, 0.00, 7.77, 0.000000, 0.00, 1, 92, 595, 0
ATT, 0.00, -0.33, -0.84, -3.32, 0.00, 41.27, 46.94
CTUN, 594, 0.00, 7.90, 0.000000, 0.00, 0, 95, 594, 0
ATT, 0.00, -0.13, 0.00, -1.42, 0.00, 41.13, 46.94
GPS, 3, 541665200, 11, 1.59, -33.7840634, 151.0682289, 8.15, 100.89, 0.61, 84.85
CTUN, 594, 0.00, 8.00, 0.000000, 0.00, 0, 100, 594, 0
ATT, 0.00, -0.24, 0.00, 0.05, 0.00, 41.11, 46.94
CTUN, 595, 0.00, 8.09, 0.000000, 0.00, 0, 102, 594, 0
ATT, 0.00, -0.67, 0.00, 0.74, 0.00, 41.25, 46.94
GPS, 3, 541665400, 11, 1.59, -33.7840627, 151.0682304, 8.33, 101.05, 0.71, 71.63
DU32, 7, 8569
CURR, 594, 89218, 1165, 1442, 4732, 60.81558
CTUN, 594, 0.00, 8.21, 0.000000, 0.00, 0, 105, 594, 0
ATT, 0.00, -0.90, 0.00, 1.01, 0.00, 41.45, 46.94
CTUN, 594, 0.00, 8.26, 0.000000, 0.00, 0, 108, 594, 0
ATT, 0.00, -0.86, 0.00, 1.18, 0.00, 41.71, 46.94
GPS, 3, 541665600, 11, 1.59, -33.7840624, 151.0682316, 8.52, 101.22, 0.58, 71.10
CTUN, 594, 0.00, 8.37, 0.000000, 0.00, 0, 109, 594, 0
ATT, 0.00, -0.79, 0.00, 1.29, 0.00, 42.00, 46.94
CTUN, 594, 0.00, 8.65, 0.000000, 0.00, 0, 112, 592, 0
ATT, 0.00, -0.61, 0.00, 1.18, 0.00, 42.29, 46.94
GPS, 3, 541665800, 11, 1.59, -33.7840616, 151.0682329, 8.73, 101.41, 0.67, 64.75
CTUN, 594, 0.00, 8.60, 0.000000, 0.00, 0, 113, 594, 0
ATT, 0.00, -0.63, 0.00, 0.90, 0.00, 42.55, 46.94
CTUN, 594, 0.00, 8.60, 0.000000, 0.00, 0, 114, 594, 0
ATT, 0.00, -0.40, 0.00, 0.86, 0.00, 42.65, 46.94
GPS, 3, 541666000, 11, 1.59, -33.7840612, 151.0682339, 8.93, 101.61, 0.46, 64.66
CTUN, 594, 0.00, 8.83, 0.000000, 0.00, 0, 115, 594, 0
ATT, 0.00, -0.26, 0.00, 1.00, 0.00, 42.78, 46.94
CTUN, 594, 0.00, 8.94, 0.000000, 0.00, 0, 116, 594, 0
GPS, 3, 541666200, 11, 1.59, -33.7840607, 151.0682348, 9.14, 101.80, 0.42, 66.38
ATT, 0.00, 0.01, 0.00, 1.02, 0.00, 42.94, 46.94
CTUN, 594, 0.00, 9.11, 0.000000, 0.00, 0, 118, 594, 0
ATT, 0.00, 0.20, 0.00, 0.83, 0.00, 43.07, 46.94
CTUN, 594, 0.00, 9.18, 0.000000, 0.00, 0, 118, 594, 0
GPS, 3, 541666400, 12, 1.31, -33.7840605, 151.0682355, 9.36, 101.97, 0.29, 62.64
DU32, 7, 8569
CURR, 594, 95156, 1163, 1424, 4712, 64.89012
ATT, 0.00, 0.19, 0.00, 0.67, 0.00, 43.14, 46.94
CTUN, 594, 0.00, 9.33, 0.000000, 0.00, 0, 119, 594, 0
ATT, 0.00, 0.07, 0.00, 0.63, 0.00, 43.08, 46.94
CTUN, 592, 0.00, 9.42, 0.000000, 0.00, 0, 118, 594, 0
GPS, 3, 541666600, 12, 1.31, -33.7840605, 151.0682360, 9.59, 102.19, 0.24, 62.64
CTUN, 594, 0.00, 9.48, 0.000000, 0.00, 0, 120, 594, 0
ATT, 0.00, -0.22, 0.00, 0.50, 0.00, 42.90, 46.94
CTUN, 592, 0.00, 9.68, 0.000000, 0.00, 0, 120, 596, 0
ATT, 0.00, -0.21, 0.00, 0.48, 0.00, 42.71, 46.94
GPS, 3, 541666800, 12, 1.31, -33.7840603, 151.0682363, 9.81, 102.38, 0.08, 62.64
CTUN, 594, 0.00, 9.82, 0.000000, 0.00, 0, 121, 594, 0
ATT, 0.00, -0.31, 0.00, 0.39, 0.00, 42.54, 46.94
CTUN, 594, 0.00, 9.89, 0.000000, 0.00, 0, 122, 594, 0
ATT, 0.00, -0.34, -0.12, 0.39, 0.00, 42.46, 46.94
GPS, 3, 541667000, 12, 1.31, -33.7840601, 151.0682365, 10.05, 102.58, 0.13, 62.64
CTUN, 594, 0.00, 9.99, 0.000000, 0.00, 0, 123, 596, 0
ATT, 0.00, -0.31, -0.97, 0.00, 0.00, 42.46, 46.94
CTUN, 594, 0.00, 10.18, 0.000000, 0.00, 0, 123, 594, 0
GPS, 3, 541667200, 12, 1.31, -33.7840599, 151.0682366, 10.28, 102.79, 0.14, 62.64
ATT, 0.00, -0.45, 0.00, -0.44, 0.00, 42.49, 46.94
CTUN, 594, 0.00, 10.21, 0.000000, 0.00, 0, 124, 594, 0
ATT, 0.00, -0.32, 0.00, -0.17, 0.00, 42.47, 46.94
CTUN, 594, 0.00, 10.42, 0.000000, 0.00, 0, 125, 594, 0
GPS, 3, 541667400, 12, 1.31, -33.7840599, 151.0682368, 10.52, 103.01, 0.07, 62.64
DU32, 7, 8569
CURR, 582, 100504, 1165, 1428, 4732, 68.84348
ATT, 0.00, -0.23, -6.42, -0.36, 0.00, 42.42, 46.94
CTUN, 585, 0.00, 10.51, 0.000000, 0.00, 0, 125, 585, 0
ATT, 0.00, 0.10, -12.97, -3.07, 0.00, 42.32, 46.94
CTUN, 585, 0.00, 10.77, 0.000000, 0.00, 0, 122, 582, 0
GPS, 3, 541667600, 12, 1.31, -33.7840596, 151.0682369, 10.74, 103.21, 0.04, 62.64
ATT, 0.00, -0.48, -15.76, -7.87, 0.00, 42.44, 46.94
CTUN, 585, 0.00, 10.89, 0.000000, 0.00, 3, 120, 584, 0
ATT, 0.00, -0.05, -16.49, -11.19, 0.00, 42.53, 46.94
CTUN, 585, 0.00, 10.98, 0.000000, 0.00, 8, 116, 593, 0
GPS, 3, 541667800, 11, 1.35, -33.7840594, 151.0682372, 10.97, 103.49, 0.12, 62.64
ATT, 0.00, 0.31, -16.25, -13.20, 0.00, 42.57, 46.94
CTUN, 582, 0.00, 11.11, 0.000000, 0.00, 12, 115, 593, 0
ATT, 0.00, 1.01, -16.73, -13.99, 0.00, 42.58, 46.94
CTUN, 585, 0.00, 11.21, 0.000000, 0.00, 13, 112, 598, 0
GPS, 3, 541668000, 12, 1.31, -33.7840588, 151.0682379, 11.20, 103.72, 0.35, 54.82
PM, 0, 0, 50, 0, 1000, 10452, 10, 4
CTUN, 581, 0.00, 11.24, 0.000000, 0.00, 14, 109, 599, 0
ATT, 0.00, 1.88, -16.85, -14.30, 0.00, 42.62, 46.94
CTUN, 582, 0.00, 11.51, 0.000000, 0.00, 15, 108, 600, 0
ATT, 0.00, 2.03, -13.58, -14.44, 0.00, 42.72, 46.94
GPS, 3, 541668200, 12, 1.31, -33.7840577, 151.0682392, 11.45, 103.92, 0.70, 47.83
CTUN, 585, 0.00, 11.64, 0.000000, 0.00, 13, 106, 595, 0
ATT, 0.00, 1.36, -7.03, -12.88, 0.00, 42.74, 46.94
CTUN, 582, 0.00, 11.65, 0.000000, 0.00, 8, 105, 590, 0
ATT, 0.00, 0.83, 0.00, -7.91, 0.00, 42.56, 46.94
GPS, 3, 541668400, 12, 1.31, -33.7840563, 151.0682414, 11.67, 104.09, 1.12, 51.04
DU32, 7, 8569
CURR, 595, 105835, 1161, 1436, 4752, 72.60352
CTUN, 598, 0.00, 11.96, 0.000000, 0.00, 2, 105, 597, 0
ATT, 0.00, 1.61, 0.00, -1.89, 0.00, 42.28, 46.94
CTUN, 601, 0.00, 11.99, 0.000000, 0.00, 0, 105, 601, 0
GPS, 3, 541668600, 12, 1.31, -33.7840544, 151.0682441, 11.90, 104.26, 1.49, 52.81
ATT, 0.00, 0.79, 0.00, 1.03, 0.00, 42.29, 46.94
CTUN, 609, 0.00, 12.25, 0.000000, 0.00, 0, 107, 609, 0
ATT, 0.00, -0.25, 0.00, 2.05, 0.00, 42.36, 46.94
CTUN, 609, 0.00, 12.40, 0.000000, 0.00, 0, 108, 609, 0
GPS, 3, 541668800, 12, 1.31, -33.7840527, 151.0682470, 12.14, 104.41, 1.59, 54.80
ATT, 0.00, -0.19, 0.00, 2.85, 0.00, 42.47, 46.94
CTUN, 609, 0.00, 12.47, 0.000000, 0.00, 0, 110, 609, 0
ATT, 0.00, 0.27, 0.00, 3.72, 0.00, 42.65, 46.94
CTUN, 607, 0.00, 12.61, 0.000000, 0.00, 1, 114, 610, 0
GPS, 3, 541669000, 12, 1.31, -33.7840510, 151.0682494, 12.40, 104.63, 1.35, 54.84
ATT, 0.00, -0.02, 0.00, 4.17, 0.00, 42.85, 46.94
CTUN, 610, 0.00, 12.70, 0.000000, 0.00, 1, 115, 611, 0
ATT, 0.00, -0.81, 0.00, 4.06, 0.00, 43.07, 46.94
CTUN, 610, 0.00, 12.88, 0.000000, 0.00, 1, 116, 611, 0
GPS, 3, 541669200, 12, 1.31, -33.7840497, 151.0682515, 12.66, 104.83, 1.08, 56.96
ATT, 0.00, -0.66, 0.00, 4.36, 0.00, 43.33, 46.94
CTUN, 610, 0.00, 12.98, 0.000000, 0.00, 1, 119, 611, 0
ATT, 0.00, -0.33, 0.00, 4.42, 0.00, 43.49, 46.94
CTUN, 610, 0.00, 13.02, 0.000000, 0.00, 1, 121, 611, 0
GPS, 3, 541669400, 12, 1.31, -33.7840484, 151.0682535, 12.90, 105.01, 1.09, 56.73
DU32, 7, 8569
CURR, 610, 111914, 1156, 1478, 4732, 76.99265
ATT, 0.00, -0.52, 0.00, 4.17, 0.00, 43.65, 46.94
CTUN, 610, 0.00, 13.02, 0.000000, 0.00, 1, 124, 611, 0
ATT, 0.00, -0.36, 0.00, 3.55, 0.00, 43.62, 46.94
CTUN, 610, 0.00, 13.18, 0.000000, 0.00, 0, 127, 610, 0
GPS, 3, 541669600, 12, 1.31, -33.7840477, 151.0682548, 13.18, 105.21, 0.70, 58.48
CTUN, 609, 0.00, 13.16, 0.000000, 0.00, 0, 127, 610, 0
ATT, 0.00, -0.13, 0.00, 3.02, 0.00, 43.43, 46.94
CTUN, 610, 0.00, 13.33, 0.000000, 0.00, 0, 128, 610, 0
ATT, 0.00, -0.86, 0.00, 1.67, 0.00, 43.31, 46.94
GPS, 3, 541669800, 12, 1.31, -33.7840471, 151.0682555, 13.43, 105.45, 0.43, 58.59
CTUN, 610, 0.00, 13.35, 0.000000, 0.00, 0, 128, 610, 0
ATT, 0.00, -0.59, -0.48, 0.93, 0.00, 42.88, 46.94
CTUN, 588, 0.00, 13.51, 0.000000, 0.00, 0, 127, 588, 0
GPS, 3, 541670000, 12, 1.31, -33.7840466, 151.0682558, 13.67, 105.69, 0.21, 58.59
ATT, 0.00, -0.87, -1.45, 0.11, 0.00, 42.44, 46.94
CTUN, 578, 0.00, 13.58, 0.000000, 0.00, 0, 126, 578, 0
ATT, 0.00, -0.54, -4.12, -0.45, 0.00, 42.00, 46.94
CTUN, 581, 0.00, 13.79, 0.000000, 0.00, 0, 120, 581, 0
GPS, 3, 541670200, 12, 1.31, -33.7840462, 151.0682560, 13.90, 105.94, 0.22, 49.24
ATT, 0.00, 0.16, -3.63, -2.35, 0.00, 41.54, 46.94
CTUN, 581, 0.00, 13.92, 0.000000, 0.00, 0, 114, 581, 0
ATT, 0.00, 0.39, -2.18, -3.44, 0.00, 41.30, 46.94
CTUN, 581, 0.00, 14.06, 0.000000, 0.00, 0, 110, 581, 0
GPS, 3, 541670400, 12, 1.31, -33.7840458, 151.0682563, 14.11, 106.17, 0.18, 49.24
DU32, 7, 8569
CURR, 581, 117276, 1159, 1377, 4793, 80.93954
ATT, 0.00, 0.76, -1.69, -2.83, 0.00, 41.22, 46.94
CTUN, 581, 0.00, 14.11, 0.000000, 0.00, 0, 104, 581, 0
ATT, 0.00, 0.61, -3.15, -2.30, 0.00, 41.38, 46.94
CTUN, 578, 0.00, 14.15, 0.000000, 0.00, 0, 99, 578, 0
GPS, 3, 541670600, 11, 1.59, -33.7840454, 151.0682566, 14.31, 106.37, 0.19, 49.24
ATT, 0.00, 0.74, -6.30, -3.08, 0.00, 41.76, 46.94
CTUN, 576, 0.00, 14.42, 0.000000, 0.00, 0, 93, 576, 0
ATT, 0.00, 0.66, -6.91, -4.38, 0.00, 42.17, 46.94
CTUN, 576, 0.00, 14.44, 0.000000, 0.00, 1, 87, 577, 0
GPS, 3, 541670800, 11, 1.59, -33.7840452, 151.0682570, 14.49, 106.50, 0.21, 45.63
ATT, 0.00, 0.81, -6.54, -5.42, 0.00, 42.48, 46.94
CTUN, 576, 0.00, 14.43, 0.000000, 0.00, 2, 81, 578, 0
ATT, 0.00, 0.28, -4.48, -5.88, 0.00, 42.85, 46.94
CTUN, 578, 0.00, 14.62, 0.000000, 0.00, 2, 74, 580, 0
GPS, 3, 541671000, 11, 1.59, -33.7840447, 151.0682577, 14.64, 106.68, 0.43, 45.31
CTUN, 578, 0.00, 14.65, 0.000000, 0.00, 1, 69, 579, 0
ATT, 0.00, -0.41, 0.00, -4.69, 0.00, 43.27, 46.94
CTUN, 578, 0.00, 14.77, 0.000000, 0.00, 0, 62, 578, 0
ATT, 0.00, -0.46, 0.00, -1.93, 0.00, 43.60, 46.94
GPS, 3, 541671200, 11, 1.59, -33.7840441, 151.0682584, 14.77, 106.78, 0.45, 43.46
CTUN, 578, 0.00, 14.78, 0.000000, 0.00, 0, 57, 578, 0
ATT, 0.00, -0.72, 0.00, -0.93, 0.00, 43.88, 46.94
CTUN, 578, 0.00, 14.95, 0.000000, 0.00, 0, 54, 578, 0
ATT, 0.00, -0.66, 0.00, -0.17, 0.00, 44.06, 46.94
GPS, 3, 541671400, 11, 1.59, -33.7840432, 151.0682593, 14.88, 106.93, 0.65, 39.78
DU32, 7, 8569
CURR, 578, 122485, 1158, 1340, 4732, 84.51080
CTUN, 578, 0.00, 15.09, 0.000000, 0.00, 0, 49, 578, 0
ATT, 0.00, -0.24, 0.00, 0.09, 0.00, 44.17, 46.94
CTUN, 576, 0.00, 14.96, 0.000000, 0.00, 0, 46, 576, 0
GPS, 3, 541671600, 12, 1.31, -33.7840424, 151.0682601, 14.99, 107.00, 0.56, 39.25
ATT, 0.00, -0.17, 0.00, 0.28, 0.00, 44.29, 46.94
CTUN, 578, 0.00, 15.09, 0.000000, 0.00, 0, 41, 578, 0
ATT, 0.00, 0.28, 0.00, 0.54, 0.00, 44.33, 46.94
CTUN, 578, 0.00, 15.29, 0.000000, 0.00, 0, 39, 578, 0
GPS, 3, 541671800, 12, 1.31, -33.7840416, 151.0682610, 15.08, 107.09, 0.58, 37.35
ATT, 0.00, 0.95, 0.00, 1.16, 0.00, 44.33, 46.94
CTUN, 578, 0.00, 15.23, 0.000000, 0.00, 0, 38, 578, 0
ATT, 0.00, 1.27, 0.00, 1.37, 0.00, 44.16, 46.94
CTUN, 578, 0.00, 15.30, 0.000000, 0.00, 0, 36, 578, 0
GPS, 3, 541672000, 12, 1.31, -33.7840409, 151.0682618, 15.17, 107.14, 0.48, 40.65
ATT, 0.00, 0.83, 0.00, 1.28, 0.00, 43.81, 46.94
CTUN, 580, 0.00, 15.32, 0.000000, 0.00, 0, 33, 578, 0
ATT, 0.00, 0.56, 0.00, 1.30, 0.00, 43.32, 46.94
CTUN, 580, 0.00, 15.38, 0.000000, 0.00, 0, 32, 580, 0
GPS, 3, 541672200, 12, 1.31, -33.7840405, 151.0682624, 15.25, 107.15, 0.34, 42.95
ATT, 0.00, 0.51, 0.00, 1.33, 0.00, 42.65, 46.94
CTUN, 580, 0.00, 15.45, 0.000000, 0.00, 0, 31, 578, 0
ATT, 0.00, -0.10, 0.00, 1.18, 0.00, 42.10, 46.94
GPS, 3, 541672400, 12, 1.31, -33.7840400, 151.0682627, 15.33, 107.20, 0.25, 41.68
CTUN, 578, 0.00, 15.48, 0.000000, 0.00, 0, 30, 578, 0
DU32, 7, 8569
CURR, 578, 128265, 1159, 1378, 4693, 88.51186
MODE, LOITER, 573
NTUN, 0.00, 0.00, 0.000000, 0.000000, 0.000000, 0.000000, 35.64275, 21.21807, 0.000000, 0.000000, -0.50, 0.77
ATT, 0.00, -0.62, 0.00, 0.76, 0.00, 41.53, 46.94
CTUN, 578, 0.00, 15.48, 15.64000, 0.00, 0, 29, 583, 0
NTUN, 0.00, 2.19, -0.139526, -0.122802, 35.50322, 21.09527, 33.78491, 17.66426, 0.000000, 0.000000, 0.00, 0.00
GPS, 3, 541672600, 12, 1.31, -33.7840394, 151.0682632, 15.40, 107.28, 0.24, 45.51
ATT, 0.00, -1.01, 0.00, 0.38, 0.00, 40.97, 46.94
CTUN, 578, 0.00, 15.45, 15.64000, 0.00, 0, 28, 562, 0
NTUN, 0.01, 0.04, 2.975677, 1.276794, 30.63445, 15.77370, 33.25607, 12.57133, -28.35937, -23.41277, 0.04, 2.14
CTUN, 578, 0.00, 15.48, 15.64000, 0.00, 0, 27, 549, 0
ATT, 0.00, -1.59, 0.00, 0.87, 0.00, 40.64, 46.94
NTUN, 0.03, 0.26, 3.817017, 1.981995, 27.69370, 13.29501, 31.88891, 8.054206, -33.11636, -20.54142, 0.34, 2.24
GPS, 3, 541672800, 12, 1.31, -33.7840389, 151.0682633, 15.45, 107.32, 0.16, 45.51
CTUN, 580, 0.00, 15.50, 15.64000, 0.00, 0, 25, 556, 0
NTUN, 0.04, 0.36, 4.221741, 2.877502, 24.52397, 11.18144, 30.67963, 1.860697, -37.69727, -14.13578, 0.80, 2.20
CTUN, 580, 0.00, 15.58, 15.64000, 0.00, 0, 15, 554, 0
ATT, 0.00, -1.27, 0.00, 2.19, 0.00, 40.63, 46.94
GPS, 3, 541673000, 12, 1.31, -33.7840386, 151.0682634, 15.50, 107.32, 0.10, 45.51
NTUN, 0.05, 0.46, 4.302551, 4.033936, 21.22532, 9.492929, 28.10256, -4.147888, -41.31974, -6.055628, 1.31, 2.05
CTUN, 580, 0.00, 15.55, 15.64000, 0.00, 0, 10, 562, 0
ATT, 0.00, -0.84, 0.00, 1.88, 0.00, 41.50, 46.94
NTUN, 0.05, 0.56, 4.269867, 5.385010, 17.93111, 8.098349, 26.18946, -8.604609, -42.94209, 1.054201, 1.70, 1.83
CTUN, 577, 0.00, 15.51, 15.64000, 0.00, 0, 4, 587, 0
GPS, 3, 541673200, 12, 1.31, -33.7840383, 151.0682632, 15.52, 107.33, 0.16, 45.51
ATT, 0.00, 0.02, 0.00, 1.61, 0.00, 42.40, 46.94
CTUN, 580, 0.00, 15.56, 15.64000, 0.00, 0, 2, 579, 0
NTUN, 0.08, 0.59, 3.906921, 8.793457, 11.50856, 8.793457, 22.88161, -13.36282, -43.53349, 8.066760, 2.05, 1.57
CTUN, 580, 0.00, 15.51, 15.64000, 0.00, 0, 0, 590, 0
NTUN, 0.09, 0.68, 3.665619, 11.01068, 8.396763, 11.01068, 19.71756, -15.59374, -45.01731, 42.77499, 3.61, 0.24
GPS, 3, 541673400, 12, 1.31, -33.7840380, 151.0682628, 15.52, 107.34, 0.23, 348.22
ATT, 0.00, 1.66, 0.00, 0.81, 0.00, 43.40, 46.94
DU32, 7, 8569
CURR, 580, 131690, 1160, 1369, 4712, 91.90388
CTUN, 580, 0.00, 15.54, 15.64000, 0.00, 0, 1, 600, 0
NTUN, 0.11, 0.73, 3.379578, 13.37292, 5.424949, 13.37292, 16.29901, -16.28686, -44.01833, 58.86105, 4.25, -0.52
ATT, 0.00, 2.08, 0.00, 0.16, 0.00, 43.99, 46.94
CTUN, 580, 0.00, 15.61, 15.64000, 0.00, 0, 4, 592, 0
NTUN, 0.13, 0.76, 3.135620, 15.73578, 3.135620, 15.73578, 13.13995, -15.03680, -36.89329, 62.62854, 4.11, -1.00
GPS, 3, 541673600, 12, 1.31, -33.7840381, 151.0682622, 15.53, 107.33, 0.26, 307.68
CTUN, 580, 0.00, 15.51, 15.64000, 0.00, 0, 7, 592, 0
ATT, 0.00, 2.78, 0.00, -0.74, 0.00, 44.63, 46.94
NTUN, 0.18, 0.79, 3.369171, 18.02191, 3.369171, 18.02191, 9.919848, -12.38752, -8.664490, 62.86133, 2.96, -2.21
CTUN, 580, 0.00, 15.57, 15.64000, 0.00, 0, 8, 601, 0
GPS, 3, 541673800, 12, 1.31, -33.7840383, 151.0682615, 15.55, 107.33, 0.32, 272.29
NTUN, 0.20, 0.78, 3.979095, 20.09619, 3.979095, 20.09619, 7.938953, -8.392674, -1.839149, 61.95232, 2.63, -2.47
ATT, 0.00, 2.15, 0.00, -1.75, 0.00, 45.01, 46.94
CTUN, 581, 0.00, 15.52, 15.64000, 0.00, 0, 9, 583, 0
NTUN, 0.22, 0.76, 4.874420, 22.00305, 4.874420, 22.00305, 8.196249, -5.121629, 1.953247, 60.06860, 2.39, -2.56
CTUN, 577, 0.00, 15.62, 15.64000, 0.00, 0, 11, 578, 0
ATT, 0.00, 1.97, 0.00, -2.08, 0.00, 45.17, 46.94
GPS, 3, 541674000, 12, 1.31, -33.7840385, 151.0682609, 15.57, 107.32, 0.27, 261.48
CTUN, 580, 0.00, 15.58, 15.64000, 0.00, 0, 10, 580, 0
NTUN, 0.24, 0.74, 5.860138, 23.64453, 5.860138, 23.64453, 8.107992, -1.498148, 3.759582, 57.25227, 2.19, -2.52
ATT, 0.00, 1.90, 0.00, -2.08, 0.00, 45.32, 46.94
CTUN, 580, 0.00, 15.59, 15.64000, 0.00, 0, 8, 577, 0
NTUN, 0.24, 0.74, 6.881622, 25.07837, 6.881622, 25.07837, 7.920422, 1.424023, 5.318024, 55.48321, 2.05, -2.52
GPS, 3, 541674200, 12, 1.31, -33.7840389, 151.0682605, 15.59, 107.32, 0.23, 247.90
ATT, 0.00, 2.42, 0.00, -2.23, 0.00, 45.42, 46.94
CTUN, 580, 0.00, 15.65, 15.64000, 0.00, 0, 5, 580, 0
NTUN, 0.27, 0.73, 9.236572, 27.21112, 9.236572, 27.21112, 6.419273, 5.523617, 11.04535, 47.24744, 1.82, -2.39
CTUN, 580, 0.00, 15.59, 15.64000, 0.00, 0, 4, 568, 0
ATT, 0.00, 3.09, 0.00, -2.02, 0.00, 45.28, 46.94
NTUN, 0.28, 0.70, 10.82144, 27.78546, 10.82144, 27.78546, 3.842556, 9.434837, 17.84869, 41.74341, 1.47, -2.41
GPS, 3, 541674400, 12, 1.31, -33.7840390, 151.0682603, 15.60, 107.35, 0.17, 234.05
CTUN, 580, 0.00, 15.56, 15.64000, 0.00, 0, 3, 583, 0
NTUN, 0.29, 0.66, 12.57504, 27.94098, 12.57504, 27.94098, -0.096074, 14.48734, 25.71314, 34.57088, 0.36, -2.48
DU32, 7, 8569
CURR, 580, 136370, 1162, 1333, 4732, 96.11584
ATT, 0.00, 3.13, 0.00, -1.81, 0.00, 44.89, 46.94
CTUN, 580, 0.00, 15.56, 15.64000, 0.00, 0, 1, 580, 0
GPS, 3, 541674600, 12, 1.31, -33.7840393, 151.0682603, 15.61, 107.34, 0.20, 205.24
NTUN, 0.30, 0.63, 14.55002, 27.67694, 14.55002, 27.67694, -3.511078, 18.33116, 32.74976, 26.35962, -0.24, -2.44
CTUN, 580, 0.00, 15.58, 15.64000, 0.00, 0, 0, 580, 0
ATT, 0.00, 1.96, 0.00, -1.41, 0.00, 44.05, 46.94
NTUN, 0.31, 0.59, 16.84036, 27.06323, 16.84036, 27.06323, -6.324392, 20.57608, 42.90344, 19.86292, -0.91, -2.60
CTUN, 580, 0.00, 15.51, 15.64000, 0.00, 0, 2, 579, 0
GPS, 3, 541674800, 12, 1.31, -33.7840397, 151.0682604, 15.60, 107.33, 0.27, 181.04
ATT, 0.00, 0.94, 0.00, -0.84, 0.00, 43.27, 46.94
NTUN, 0.31, 0.53, 19.40280, 26.22992, 19.40280, 26.22992, -9.181022, 21.19097, 52.88322, 16.58270, -1.42, -2.90
CTUN, 580, 0.00, 15.53, 15.64000, 0.00, 0, 2, 578, 0
ATT, 0.00, 0.05, 0.00, -0.80, 0.00, 42.54, 46.94
NTUN, 0.33, 0.47, 22.20309, 25.33691, 22.20309, 25.33691, -9.529201, 19.19585, 59.00293, 15.06995, -1.69, -3.12
CTUN, 578, 0.00, 15.59, 15.64000, 0.00, 0, 3, 580, 0
GPS, 3, 541675000, 12, 1.31, -33.7840401, 151.0682606, 15.60, 107.33, 0.35, 170.52
CTUN, 578, 0.00, 15.69, 15.64000, 0.00, 0, 4, 585, 0
NTUN, 0.35, 0.41, 27.96509, 23.95795, 27.96509, 23.95795, -8.492794, 16.42464, 68.40912, 22.13086, -1.85, -3.53
ATT, 0.00, -1.64, 0.00, -1.36, 0.00, 41.83, 46.94
CTUN, 581, 0.00, 15.65, 15.64000, 0.00, 0, 4, 578, 0
NTUN, 0.36, 0.37, 30.57086, 23.60858, 30.57086, 23.60858, -6.208070, 13.53702, 68.05774, 27.50635, -1.70, -3.83
GPS, 3, 541675200, 12, 1.31, -33.7840406, 151.0682607, 15.62, 107.32, 0.31, 169.32
ATT, 0.00, -2.21, 0.00, -2.04, 0.00, 41.54, 46.94
NTUN, 0.36, 0.37, 32.88559, 23.59412, 32.88559, 23.59412, -1.794544, 10.42651, 65.14728, 34.85535, -0.99, -4.19
CTUN, 578, 0.00, 15.64, 15.64000, 0.00, 0, 5, 578, 0
ATT, 0.00, -2.15, 0.00, -2.84, 0.00, 41.53, 46.94
GPS, 3, 541675400, 12, 1.31, -33.7840410, 151.0682609, 15.63, 107.31, 0.30, 171.27
NTUN, 0.40, 0.34, 34.80713, 23.86273, 34.80713, 23.86273, 4.282090, 7.089588, 60.40949, 39.71329, -0.60, -4.17
CTUN, 578, 0.00, 15.69, 15.64000, 0.00, 0, 4, 577, 0
DU32, 7, 8569
CURR, 580, 140431, 1161, 1341, 4712, 99.98549
ATT, 0.00, -1.53, 0.00, -3.29, 0.00, 41.83, 46.94
NTUN, 0.42, 0.33, 36.26044, 24.21387, 36.26044, 24.21387, 8.437284, 6.662338, 53.38919, 43.47659, -0.18, -4.01
CTUN, 578, 0.00, 15.51, 15.64000, 0.00, 0, 2, 571, 0
GPS, 3, 541675600, 12, 1.31, -33.7840412, 151.0682611, 15.64, 107.30, 0.17, 173.33
CTUN, 578, 0.00, 15.62, 15.64000, 0.00, 0, 2, 576, 0
NTUN, 0.44, 0.33, 37.26114, 24.60846, 37.26114, 24.60846, 13.25078, 6.060412, 48.10810, 45.98578, 0.11, -3.88
ATT, 0.00, -0.55, 0.00, -3.19, 0.00, 42.35, 46.94
CTUN, 578, 0.00, 15.58, 15.64000, 0.00, 0, 0, 579, 0
NTUN, 0.44, 0.33, 37.82205, 24.87311, 37.82205, 24.87311, 16.14006, 7.630496, 41.60913, 45.64648, 0.33, -3.58
GPS, 3, 541675800, 12, 1.31, -33.7840414, 151.0682613, 15.63, 107.26, 0.10, 173.33
ATT, 0.00, 0.12, 0.00, -3.15, 0.00, 42.80, 46.94
CTUN, 578, 0.00, 15.61, 15.64000, 0.00, 0, -1, 584, 0
NTUN, 0.45, 0.33, 37.97064, 24.74713, 37.97064, 24.74713, 18.90946, 9.096325, 33.74457, 40.17261, 0.37, -3.03
CTUN, 578, 0.00, 15.57, 15.64000, 0.00, 0, -1, 589, 0
ATT, 0.00, 0.66, 0.00, -2.57, 0.00, 43.01, 46.94
NTUN, 0.45, 0.32, 37.83757, 24.31219, 37.83757, 24.31219, 19.73998, 10.35445, 32.65584, 36.60670, 0.25, -2.85
GPS, 3, 541676000, 12, 1.31, -33.7840412, 151.0682614, 15.62, 107.26, 0.02, 173.33
CTUN, 578, 0.00, 15.55, 15.64000, 0.00, 0, 0, 582, 0
NTUN, 0.44, 0.32, 37.46777, 23.75165, 37.46777, 23.75165, 19.62462, 10.79067, 30.33865, 34.45003, 0.25, -2.66
ATT, 0.00, 0.30, 0.00, -1.61, 0.00, 43.21, 46.94
CTUN, 580, 0.00, 15.61, 15.64000, 0.00, 0, 0, 595, 0
GPS, 3, 541676200, 12, 1.31, -33.7840412, 151.0682617, 15.61, 107.24, 0.04, 173.33
NTUN, 0.43, 0.31, 36.98831, 23.15228, 36.98831, 23.15228, 19.50842, 10.08344, 29.15695, 34.94580, 0.31, -2.63
ATT, 0.00, 0.21, 0.00, -1.27, 0.00, 43.25, 46.94
CTUN, 578, 0.00, 15.58, 15.64000, 0.00, 0, 2, 590, 0
