dump 8

ArduCopter V3.1-rc3.1
Free RAM: 1138
APM 2
FMT, 128, 89, FMT, BBnNZ, Type,Length,Name,Format
FMT, 129, 23, PARM, Nf, Name,Value
FMT, 130, 35, GPS, BIBcLLeeEe, Status,Time,NSats,HDop,Lat,Lng,RelAlt,Alt,Spd,GCrs
FMT, 131, 27, IMU, ffffff, GyrX,GyrY,GyrZ,AccX,AccY,AccZ
FMT, 132, 67, MSG, Z, Message
FMT, 9, 19, CURR, hIhhhf, Thr,ThrInt,Volt,Curr,Vcc,CurrTot
FMT, 11, 11, MOT, hhhh, Mot1,Mot2,Mot3,Mot4
FMT, 12, 28, OF, hhBccffee, Dx,Dy,SQual,X,Y,Lat,Lng,Roll,Pitch
FMT, 5, 49, NTUN, Ecffffffffee, WPDst,WPBrg,PErX,PErY,DVelX,DVelY,VelX,VelY,DAcX,DAcY,DRol,DPit
FMT, 4, 25, CTUN, hcefchhhh, ThrIn,SonAlt,BarAlt,WPAlt,DesSonAlt,AngBst,CRate,ThrOut,DCRate
FMT, 15, 21, MAG, hhhhhhhhh, MagX,MagY,MagZ,OfsX,OfsY,OfsZ,MOfsX,MOfsY,MOfsZ
FMT, 6, 17, PM, BBBHHIhB, RenCnt,RenBlw,FixCnt,NLon,NLoop,MaxT,PMT,I2CErr
FMT, 8, 20, CMD, BBBBBeLL, CTot,CNum,CId,COpt,Prm1,Alt,Lat,Lng
FMT, 1, 17, ATT, cccccCC, RollIn,Roll,PitchIn,Pitch,YawIn,Yaw,NavYaw
FMT, 17, 37, INAV, cccfffiiff, BAlt,IAlt,IClb,ACorrX,ACorrY,ACorrZ,GLat,GLng,ILat,ILng
FMT, 3, 6, MODE, Mh, Mode,ThrCrs
FMT, 10, 3, STRT, , 
FMT, 13, 4, EV, B, Id
FMT, 20, 6, D16, Bh, Id,Value
FMT, 21, 6, DU16, BH, Id,Value
FMT, 22, 8, D32, Bi, Id,Value
FMT, 23, 8, DU32, BI, Id,Value
FMT, 24, 8, DFLT, Bf, Id,Value
FMT, 14, 28, PID, Biiiiif, Id,Error,P,I,D,Out,Gain
FMT, 18, 25, CAM, ILLeccC, GPSTime,Lat,Lng,Alt,Roll,Pitch,Yaw
FMT, 19, 5, ERR, BB, Subsys,ECode
D32, 9, 876
CMD, 1, 0, 16, 0, 0, 0.00, -33.7845782, 151.0675505
EV, 10
GPS, 3, 544401800, 9, 1.92, -33.7845785, 151.0675504, 0.93, 93.65, 0.12, 78.35
ATT, 0.00, 11.53, 0.00, 21.79, 0.00, 8.76, 8.76
CTUN, 0, 0.00, 0.04, 0.000000, 0.00, 0, 0, 0, 0
GPS, 3, 544409200, 9, 1.92, -33.7845983, 151.0675515, 0.91, 93.46, 0.16, 78.35
ATT, 0.00, 11.34, 0.00, 21.89, 0.00, 8.56, 8.56
CTUN, 0, 0.00, 0.04, 0.000000, 0.00, 0, 0, 0, 0
ATT, 0.00, 11.38, 0.00, 21.79, 0.00, 8.79, 8.79
CTUN, 0, 0.00, 0.00, 0.000000, 0.00, 0, -1, 0, 0
DU32, 7, 8793
CURR, 0, 0, 1129, 68, 4752, 0.075388
GPS, 3, 544409400, 10, 1.68, -33.7845985, 151.0675515, 0.80, 93.48, 0.27, 78.35
ATT, 0.00, 11.25, 0.00, 21.70, 0.00, 8.63, 8.63
CTUN, 0, 0.00, 0.07, 0.000000, 0.00, 0, -3, 0, 0
ATT, 0.00, 11.27, 0.00, 21.66, 0.00, 8.75, 8.75
CTUN, 0, 0.00, 0.04, 0.000000, 0.00, 0, -4, 0, 0
GPS, 3, 544409600, 10, 1.68, -33.7845987, 151.0675516, 0.70, 93.49, 0.32, 78.35
ATT, 0.00, 11.18, 0.00, 21.64, 0.00, 8.56, 8.56
CTUN, 0, 0.00, 0.05, 0.000000, 0.00, 0, -5, 0, 0
ATT, 0.00, 11.24, 0.00, 21.59, 0.00, 8.78, 8.78
CTUN, 0, 0.00, 0.09, 0.000000, 0.00, 0, -5, 0, 0
GPS, 3, 544409800, 10, 1.68, -33.7845988, 151.0675515, 0.61, 93.47, 0.49, 18.67
ATT, 0.00, 11.21, 0.00, 21.60, 28.80, 8.65, 8.65
CTUN, 0, 0.00, 0.14, 0.000000, 0.00, 0, -6, 0, 0
ATT, 0.00, 11.20, 0.00, 21.54, 44.52, 8.77, 8.77
CTUN, 0, 0.00, 0.04, 0.000000, 0.00, 0, -7, 0, 0
GPS, 3, 544410000, 10, 1.68, -33.7845991, 151.0675514, 0.54, 93.45, 0.49, 354.14
ATT, 0.00, 11.16, 0.00, 21.50, 44.52, 8.76, 8.76
CTUN, 0, 0.00, 0.06, 0.000000, 0.00, 0, -8, 0, 0
ATT, 0.00, 11.14, 0.00, 21.54, 44.52, 8.77, 8.77
CTUN, 0, 0.00, 0.02, 0.000000, 0.00, 0, -9, 0, 0
GPS, 3, 544410200, 10, 1.68, -33.7845994, 151.0675514, 0.47, 93.45, 0.27, 354.14
ATT, 0.00, 11.24, 0.00, 21.56, 44.52, 8.90, 8.90
CTUN, 0, 0.00, 0.04, 0.000000, 0.00, 0, -9, 0, 0
ATT, 0.00, 11.36, 0.00, 21.66, 44.52, 8.98, 8.98
CTUN, 0, 0.00, 0.04, 0.000000, 0.00, 0, -9, 0, 0
DU32, 7, 8793
CURR, 0, 0, 1133, 53, 4772, 0.225480
GPS, 3, 544410400, 10, 1.68, -33.7845997, 151.0675514, 0.40, 93.41, 0.25, 354.14
ATT, 0.00, 11.34, 0.00, 21.72, 44.52, 8.87, 8.87
CTUN, 0, 0.00, 0.05, 0.000000, 0.00, 0, -10, 0, 0
ATT, 0.00, 11.51, 0.00, 21.74, 44.40, 9.09, 9.09
CTUN, 0, 0.00, 0.14, 0.000000, 0.00, 0, -10, 0, 0
GPS, 3, 544410600, 10, 1.68, -33.7846002, 151.0675514, 0.34, 93.35, 0.26, 354.14
ATT, 0.00, 11.51, 0.00, 21.74, 44.52, 9.05, 9.05
CTUN, 0, 0.00, 0.06, 0.000000, 0.00, 0, -11, 0, 0
ATT, 0.00, 11.59, 0.00, 21.75, 44.52, 9.19, 9.19
CTUN, 0, 0.00, 0.05, 0.000000, 0.00, 0, -11, 0, 0
GPS, 3, 544410800, 10, 1.68, -33.7846006, 151.0675511, 0.29, 93.33, 0.25, 354.14
ATT, 0.00, 11.54, 0.00, 21.75, 44.52, 9.01, 9.01
CTUN, 0, 0.00, 0.13, 0.000000, 0.00, 0, -12, 0, 0
ATT, 0.00, 11.52, 0.00, 21.75, 44.40, 9.16, 9.16
CTUN, 0, 0.00, 0.01, 0.000000, 0.00, 0, -12, 0, 0
GPS, 3, 544411000, 10, 1.68, -33.7846008, 151.0675508, 0.24, 93.30, 0.29, 354.14
ATT, 0.00, 11.45, 0.00, 21.82, 44.52, 9.04, 9.04
CTUN, 0, 0.00, -0.01, 0.000000, 0.00, 0, -12, 0, 0
ATT, 0.00, 11.53, 0.00, 21.78, 44.52, 9.21, 9.21
CTUN, 0, 0.00, 0.03, 0.000000, 0.00, 0, -12, 0, 0
GPS, 3, 544411200, 10, 1.68, -33.7846015, 151.0675509, 0.19, 93.30, 0.12, 354.14
ATT, 0.00, 11.54, 0.00, 21.81, 44.52, 9.20, 9.20
CTUN, 0, 0.00, 0.09, 0.000000, 0.00, 0, -13, 0, 0
ATT, 0.00, 11.54, 0.00, 21.87, 44.52, 9.08, 9.08
CTUN, 0, 0.00, 0.01, 0.000000, 0.00, 0, -12, 0, 0
DU32, 7, 8793
CURR, 0, 0, 1133, 51, 4793, 0.370673
GPS, 3, 544411400, 10, 1.68, -33.7846016, 151.0675508, 0.15, 93.32, 0.03, 354.14
ATT, 0.00, 11.60, 0.00, 21.90, 44.52, 9.22, 9.22
CTUN, 0, 0.00, 0.07, 0.000000, 0.00, 0, -13, 0, 0
ATT, 0.00, 11.61, 0.00, 21.89, 44.52, 9.20, 9.20
CTUN, 0, 0.00, 0.03, 0.000000, 0.00, 0, -13, 0, 0
GPS, 3, 544411600, 10, 1.68, -33.7846010, 151.0675505, 0.11, 93.34, 0.34, 354.14
ATT, 0.00, 11.67, 0.00, 21.85, 44.52, 9.35, 9.35
CTUN, 0, 0.00, 0.09, 0.000000, 0.00, 0, -14, 0, 0
ATT, 0.00, 11.52, 0.00, 21.75, 44.52, 9.14, 9.14
CTUN, 0, 0.00, 0.08, 0.000000, 0.00, 0, -14, 0, 0
GPS, 3, 544411800, 10, 1.68, -33.7846011, 151.0675503, 0.08, 93.33, 0.23, 354.14
ATT, 0.00, 11.58, 0.00, 21.71, 44.52, 9.32, 9.32
CTUN, 0, 0.00, 0.08, 0.000000, 0.00, 0, -14, 0, 0
ATT, 0.00, 11.59, 0.00, 21.72, 0.00, 9.35, 9.35
CTUN, 0, 0.00, 0.00, 0.000000, 0.00, 0, -14, 0, 0
GPS, 3, 544412000, 10, 1.68, -33.7846016, 151.0675503, 0.05, 93.31, 0.05, 354.14
ATT, 0.00, 11.65, 0.00, 21.75, 0.00, 9.43, 9.43
CTUN, 0, 0.00, 0.08, 0.000000, 0.00, 0, -14, 0, 0
ATT, 0.00, 11.60, 0.00, 21.78, 0.00, 9.27, 9.27
CTUN, 0, 0.00, 0.09, 0.000000, 0.00, 0, -14, 0, 0
GPS, 3, 544412200, 10, 1.68, -33.7846020, 151.0675502, 0.02, 93.28, 0.03, 354.14
ATT, 0.00, 11.67, 0.00, 21.81, 0.00, 9.44, 9.44
CTUN, 0, 0.00, 0.02, 0.000000, 0.00, 0, -14, 0, 0
ATT, 0.00, 11.66, 0.00, 21.86, 0.00, 9.37, 9.37
CTUN, 0, 0.00, 0.15, 0.000000, 0.00, 0, -15, 0, 0
DU32, 7, 8793
CURR, 0, 0, 1131, 56, 4813, 0.525133
GPS, 3, 544412400, 10, 1.68, -33.7846019, 151.0675499, 0.00, 93.27, 0.13, 354.14
ATT, 0.00, 11.66, 0.00, 21.84, 0.00, 9.43, 9.43
CTUN, 0, 0.00, 0.04, 0.000000, 0.00, 0, -15, 0, 0
ATT, 0.00, 11.65, 0.00, 21.82, 0.00, 9.44, 9.44
CTUN, 0, 0.00, -0.04, 0.000000, 0.00, 0, -15, 0, 0
GPS, 3, 544412600, 10, 1.68, -33.7846022, 151.0675499, -0.02, 93.27, 0.03, 354.14
ATT, 0.00, 11.67, 0.00, 21.77, 0.00, 9.51, 9.51
CTUN, 0, 0.00, 0.08, 0.000000, 0.00, 0, -15, 0, 0
ATT, 0.00, 11.72, 0.00, 21.79, 0.00, 9.64, 9.64
CTUN, 0, 0.00, 0.00, 0.000000, 0.00, 0, -15, 0, 0
GPS, 3, 544412800, 10, 1.68, -33.7846025, 151.0675498, -0.04, 93.26, 0.01, 354.14
ATT, 0.00, 11.74, 0.00, 21.82, 0.00, 9.64, 9.64
CTUN, 0, 0.00, 0.15, 0.000000, 0.00, 0, -14, 0, 0
ATT, 0.00, 11.72, 0.00, 21.85, 0.00, 9.58, 9.58
CTUN, 0, 0.00, 0.09, 0.000000, 0.00, 0, -15, 0, 0
GPS, 3, 544413000, 10, 1.68, -33.7846025, 151.0675496, -0.05, 93.26, 0.08, 354.14
CTUN, 0, 0.00, 0.09, 0.000000, 0.00, 0, -14, 0, 0
ATT, 0.00, 11.72, 0.00, 21.86, 0.00, 9.61, 9.61
PM, 0, 0, 50, 1, 1000, 7322768, 0, 4
CTUN, 0, 0.00, 0.05, 0.000000, 0.00, 0, -14, 0, 0
ATT, 0.00, 11.72, 0.00, 21.82, 0.00, 9.66, 9.66
GPS, 3, 544413200, 10, 1.68, -33.7846025, 151.0675493, -0.06, 93.24, 0.12, 354.14
CTUN, 0, 0.00, 0.04, 0.000000, 0.00, 0, -13, 0, 0
ATT, 0.00, 11.63, 0.00, 21.80, 0.00, 9.50, 9.50
CTUN, 0, 0.00, 0.05, 0.000000, 0.00, 0, -13, 0, 0
ATT, 0.00, 11.72, 0.00, 21.79, 0.00, 9.65, 9.65
DU32, 7, 8793
CURR, 0, 0, 1133, 58, 4793, 0.678313
GPS, 3, 544413400, 10, 1.68, -33.7846023, 151.0675491, -0.08, 93.23, 0.16, 354.14
CTUN, 0, 0.00, 0.06, 0.000000, 0.00, 0, -13, 0, 0
ATT, 0.00, 11.72, 0.00, 21.80, 0.00, 9.65, 9.65
CTUN, 0, 0.00, 0.00, 0.000000, 0.00, 0, -13, 0, 0
ATT, 0.00, 11.63, 0.00, 21.83, 0.00, 9.60, 9.60
GPS, 3, 544413600, 10, 1.68, -33.7846027, 151.0675490, -0.09, 93.21, 0.06, 354.14
CTUN, 0, 0.00, -0.01, 0.000000, 0.00, 0, -13, 0, 0
ATT, 0.00, 11.69, 0.00, 21.79, 0.00, 9.74, 9.74
CTUN, 0, 0.00, -0.04, 0.000000, 0.00, 0, -13, 0, 0
ATT, 0.00, 11.70, 0.00, 21.85, 0.00, 9.72, 9.72
GPS, 3, 544413800, 10, 1.68, -33.7846029, 151.0675489, -0.11, 93.18, 0.04, 354.14
CTUN, 0, 0.00, 0.14, 0.000000, 0.00, 0, -13, 0, 0
ATT, 0.00, 11.69, 0.00, 21.91, 0.00, 9.66, 9.66
CTUN, 0, 0.00, 0.05, 0.000000, 0.00, 0, -13, 0, 0
ATT, 0.00, 11.71, 0.00, 21.90, 0.00, 9.71, 9.71
GPS, 3, 544414000, 10, 1.68, -33.7846027, 151.0675486, -0.11, 93.16, 0.10, 354.14
CTUN, 0, 0.00, 0.09, 0.000000, 0.00, 0, -13, 0, 0
ATT, 0.00, 11.74, 0.00, 21.87, 0.00, 9.79, 9.79
CTUN, 0, 0.00, 0.01, 0.000000, 0.00, 0, -13, 0, 0
ATT, 0.00, 11.61, 0.00, 21.82, 0.00, 9.61, 9.61
GPS, 3, 544414200, 10, 1.68, -33.7846026, 151.0675484, -0.11, 93.16, 0.10, 354.14
CTUN, 0, 0.00, 0.13, 0.000000, 0.00, 0, -12, 0, 0
ATT, 0.00, 11.67, 0.00, 21.81, 0.00, 9.75, 9.75
CTUN, 0, 0.00, -0.09, 0.000000, 0.00, 0, -12, 0, 0
ATT, 0.00, 11.66, 0.00, 21.82, 0.00, 9.76, 9.76
GPS, 3, 544414400, 10, 1.68, -33.7846030, 151.0675484, -0.12, 93.15, 0.07, 354.14
CTUN, 0, 0.00, 0.02, 0.000000, 0.00, 0, -12, 0, 0
DU32, 7, 8793
CURR, 0, 0, 1129, 53, 4772, 0.826890
ATT, 0.00, 11.71, 0.00, 21.80, 0.00, 9.85, 9.85
CTUN, 0, 0.00, 0.10, 0.000000, 0.00, 0, -12, 0, 0
ATT, 0.00, 11.65, 0.00, 21.84, 0.00, 9.66, 9.66
GPS, 3, 544414600, 10, 1.68, -33.7846027, 151.0675482, -0.13, 93.15, 0.13, 354.14
CTUN, 0, 0.00, 0.00, 0.000000, 0.00, 0, -13, 0, 0
ATT, 0.00, 11.74, 0.00, 21.85, 1.56, 9.94, 9.94
CTUN, 0, 0.00, 0.00, 0.000000, 0.00, 0, -12, 0, 0
ATT, 0.00, 11.70, 0.00, 21.79, 22.08, 9.84, 9.84
GPS, 3, 544414800, 10, 1.68, -33.7846028, 151.0675480, -0.14, 93.13, 0.04, 354.14
CTUN, 0, 0.00, 0.12, 0.000000, 0.00, 0, -13, 0, 0
ATT, 0.00, 11.70, 0.00, 21.77, 44.64, 9.90, 9.90
CTUN, 0, 0.00, 0.08, 0.000000, 0.00, 0, -13, 0, 0
ATT, 0.00, 11.72, 0.00, 21.75, 44.40, 9.97, 9.97
GPS, 3, 544415000, 10, 1.68, -33.7846032, 151.0675478, -0.13, 93.10, 0.06, 354.14
CTUN, 0, 0.00, 0.02, 0.000000, 0.00, 0, -12, 0, 0
ATT, 0.00, 11.70, 0.00, 21.80, 44.40, 9.90, 9.90
CTUN, 0, 0.00, 0.04, 0.000000, 0.00, 0, -13, 0, 0
ATT, 0.00, 11.66, 0.00, 21.81, 44.52, 9.81, 9.81
GPS, 3, 544415200, 10, 1.68, -33.7846030, 151.0675477, -0.14, 93.09, 0.13, 354.14
CTUN, 0, 0.00, 0.04, 0.000000, 0.00, 0, -13, 0, 0
ATT, 0.00, 11.68, 0.00, 21.85, 44.64, 9.88, 9.88
CTUN, 0, 0.00, 0.01, 0.000000, 0.00, 0, -12, 0, 0
ATT, 0.00, 11.66, 0.00, 21.75, 44.40, 9.91, 9.91
GPS, 3, 544415400, 10, 1.68, -33.7846031, 151.0675475, -0.14, 93.07, 0.13, 354.14
CTUN, 0, 0.00, -0.02, 0.000000, 0.00, 0, -12, 0, 0
DU32, 7, 8793
CURR, 0, 0, 1129, 54, 4752, 0.976364
ATT, 0.00, 11.63, 0.00, 21.70, 44.40, 9.89, 9.89
CTUN, 0, 0.00, 0.00, 0.000000, 0.00, 0, -12, 0, 0
ATT, 0.00, 11.67, 0.00, 21.71, 44.64, 9.97, 9.97
GPS, 3, 544415600, 10, 1.68, -33.7846035, 151.0675475, -0.15, 93.04, 0.03, 354.14
CTUN, 0, 0.00, -0.02, 0.000000, 0.00, 0, -12, 0, 0
ATT, 0.00, 11.61, 0.00, 21.74, 44.64, 9.78, 9.78
CTUN, 0, 0.00, -0.03, 0.000000, 0.00, 0, -12, 0, 0
ATT, 0.00, 11.66, 0.00, 21.74, 44.52, 9.95, 9.95
GPS, 3, 544415800, 10, 1.68, -33.7846040, 151.0675475, -0.16, 93.03, 0.10, 354.14
CTUN, 0, 0.00, -0.01, 0.000000, 0.00, 0, -12, 0, 0
ATT, 0.00, 11.68, 0.00, 21.82, 44.40, 9.93, 9.93
CTUN, 0, 0.00, -0.06, 0.000000, 0.00, 0, -12, 0, 0
ATT, 0.00, 11.73, 0.00, 21.80, 44.40, 10.09, 10.09
GPS, 3, 544416000, 10, 1.68, -33.7846042, 151.0675475, -0.17, 93.03, 0.03, 354.14
CTUN, 0, 0.00, -0.06, 0.000000, 0.00, 0, -11, 0, 0
ATT, 0.00, 11.66, 0.00, 21.83, 44.40, 9.87, 9.87
CTUN, 0, 0.00, -0.09, 0.000000, 0.00, 0, -11, 0, 0
ATT, 0.00, 11.71, 0.00, 21.80, 44.64, 10.06, 10.06
GPS, 3, 544416200, 10, 1.68, -33.7846049, 151.0675476, -0.18, 93.02, 0.14, 354.14
CTUN, 0, 0.00, 0.01, 0.000000, 0.00, 0, -11, 0, 0
ATT, 0.00, 11.71, 0.00, 21.74, 44.64, 10.14, 10.14
CTUN, 0, 0.00, 0.04, 0.000000, 0.00, 0, -12, 0, 0
ATT, 0.00, 11.75, 0.00, 21.85, 44.64, 10.11, 10.11
GPS, 3, 544416400, 10, 1.68, -33.7846054, 151.0675477, -0.18, 93.02, 0.08, 354.14
CTUN, 0, 0.00, -0.03, 0.000000, 0.00, 0, -12, 0, 0
DU32, 7, 8793
CURR, 0, 0, 1132, 52, 4732, 1.127903
ATT, 0.00, 11.70, 0.00, 21.83, 44.64, 10.10, 10.10
CTUN, 0, 0.00, 0.02, 0.000000, 0.00, 0, -12, 0, 0
ATT, 0.00, 11.69, 0.00, 21.78, 44.64, 10.12, 10.12
GPS, 3, 544416600, 10, 1.68, -33.7846056, 151.0675476, -0.18, 92.99, 0.03, 354.14
CTUN, 0, 0.00, 0.04, 0.000000, 0.00, 0, -11, 0, 0
ATT, 0.00, 11.69, 0.00, 21.78, 44.40, 10.14, 10.14
CTUN, 0, 0.00, 0.00, 0.000000, 0.00, 0, -11, 0, 0
ATT, 0.00, 11.69, 0.00, 21.72, 44.40, 10.20, 10.20
GPS, 3, 544416800, 10, 1.68, -33.7846058, 151.0675475, -0.18, 93.00, 0.09, 354.14
CTUN, 0, 0.00, 0.03, 0.000000, 0.00, 0, -11, 0, 0
ATT, 0.00, 11.65, 0.00, 21.74, 44.52, 10.12, 10.12
CTUN, 0, 0.00, -0.07, 0.000000, 0.00, 0, -10, 0, 0
ATT, 0.00, 11.59, 0.00, 21.71, 44.64, 10.03, 10.03
GPS, 3, 544417000, 10, 1.68, -33.7846060, 151.0675475, -0.18, 92.99, 0.08, 354.14
CTUN, 0, 0.00, 0.02, 0.000000, 0.00, 0, -11, 0, 0
ATT, 0.00, 11.61, 0.00, 21.71, 44.64, 10.13, 10.13
CTUN, 0, 0.00, 0.00, 0.000000, 0.00, 0, -11, 0, 0
ATT, 0.00, 11.66, 0.00, 21.65, 44.64, 10.23, 10.23
GPS, 3, 544417200, 10, 1.68, -33.7846063, 151.0675475, -0.18, 92.99, 0.05, 354.14
CTUN, 0, 0.00, 0.00, 0.000000, 0.00, 0, -10, 0, 0
ATT, 0.00, 11.69, 0.00, 21.72, 44.64, 10.20, 10.20
CTUN, 0, 0.00, -0.06, 0.000000, 0.00, 0, -10, 0, 0
ATT, 0.00, 11.65, 0.00, 21.70, 44.64, 10.20, 10.20
GPS, 3, 544417400, 10, 1.68, -33.7846062, 151.0675475, -0.18, 93.01, 0.19, 354.14
CTUN, 0, 0.00, -0.12, 0.000000, 0.00, 0, -10, 0, 0
DU32, 7, 8793
CURR, 0, 0, 1132, 56, 4772, 1.280337
ATT, 0.00, 11.58, 0.00, 21.71, 44.52, 10.06, 10.06
CTUN, 0, 0.00, -0.04, 0.000000, 0.00, 0, -9, 0, 0
ATT, 0.00, 11.65, 0.00, 21.65, 44.64, 10.21, 10.21
GPS, 3, 544417600, 10, 1.68, -33.7846064, 151.0675474, -0.19, 92.99, 0.11, 354.14
CTUN, 0, 0.00, 0.03, 0.000000, 0.00, 0, -9, 0, 0
ATT, 0.00, 11.68, 0.00, 21.59, 44.64, 10.28, 10.28
CTUN, 0, 0.00, -0.08, 0.000000, 0.00, 0, -8, 0, 0
ATT, 0.00, 11.64, 0.00, 21.68, 44.40, 10.17, 10.17
GPS, 3, 544417800, 10, 1.68, -33.7846067, 151.0675475, -0.19, 93.00, 0.01, 354.14
CTUN, 0, 0.00, 0.00, 0.000000, 0.00, 0, -8, 0, 0
ATT, 0.00, 11.62, 0.00, 21.67, 44.40, 10.22, 10.22
CTUN, 0, 0.00, -0.07, 0.000000, 0.00, 0, -8, 0, 0
ATT, 0.00, 11.61, 0.00, 21.72, 44.52, 10.10, 10.10
GPS, 3, 544418000, 10, 1.68, -33.7846067, 151.0675475, -0.19, 92.99, 0.10, 354.14
CTUN, 0, 0.00, -0.07, 0.000000, 0.00, 0, -9, 0, 0
ATT, 0.00, 11.67, 0.00, 21.71, 44.40, 10.24, 10.24
CTUN, 0, 0.00, -0.01, 0.000000, 0.00, 0, -8, 0, 0
ATT, 0.00, 11.66, 0.00, 21.71, 44.52, 10.26, 10.26
GPS, 3, 544418200, 10, 1.68, -33.7846076, 151.0675476, -0.19, 92.95, 0.16, 354.14
CTUN, 0, 0.00, 0.02, 0.000000, 0.00, 0, -8, 0, 0
ATT, 0.00, 11.69, 0.00, 21.68, 44.64, 10.33, 10.33
CTUN, 0, 0.00, 0.00, 0.000000, 0.00, 0, -8, 0, 0
ATT, 0.00, 11.76, 0.00, 21.73, 44.52, 10.42, 10.42
GPS, 3, 544418400, 10, 1.68, -33.7846078, 151.0675477, -0.18, 92.97, 0.03, 354.14
CTUN, 0, 0.00, -0.05, 0.000000, 0.00, 0, -8, 0, 0
DU32, 7, 8793
CURR, 0, 0, 1124, 59, 4752, 1.432347
ATT, 0.00, 11.74, 0.00, 21.82, 44.40, 10.36, 10.36
CTUN, 0, 0.00, 0.01, 0.000000, 0.00, 0, -7, 0, 0
ATT, 0.00, 11.70, 0.00, 21.79, 44.40, 10.33, 10.33
GPS, 3, 544418600, 10, 1.68, -33.7846082, 151.0675478, -0.18, 92.98, 0.03, 354.14
CTUN, 0, 0.00, -0.04, 0.000000, 0.00, 0, -8, 0, 0
ATT, 0.00, 11.68, 0.00, 21.76, 44.40, 10.31, 10.31
CTUN, 0, 0.00, 0.03, 0.000000, 0.00, 0, -8, 0, 0
ATT, 0.00, 11.67, 0.00, 21.78, 44.52, 10.32, 10.32
GPS, 3, 544418800, 10, 1.68, -33.7846082, 151.0675478, -0.17, 92.97, 0.08, 354.14
CTUN, 0, 0.00, -0.01, 0.000000, 0.00, 0, -8, 0, 0
ATT, 0.00, 11.73, 0.00, 21.74, 44.52, 10.47, 10.47
CTUN, 0, 0.00, 0.00, 0.000000, 0.00, 0, -8, 0, 0
ATT, 0.00, 11.69, 0.00, 21.74, 44.40, 10.40, 10.40
GPS, 3, 544419000, 10, 1.68, -33.7846088, 151.0675479, -0.17, 92.99, 0.09, 354.14
CTUN, 0, 0.00, -0.10, 0.000000, 0.00, 0, -7, 0, 0
ATT, 0.00, 11.58, 0.00, 21.64, 44.40, 10.27, 10.27
CTUN, 0, 0.00, 0.00, 0.000000, 0.00, 0, -7, 0, 0
ATT, 0.00, 11.66, 0.00, 21.74, 44.16, 10.39, 10.39
GPS, 3, 544419200, 10, 1.68, -33.7846094, 151.0675479, -0.17, 92.98, 0.15, 354.14
CTUN, 0, 0.00, -0.08, 0.000000, 0.00, 0, -7, 0, 0
ATT, 0.00, 11.70, 0.00, 21.75, 44.28, 10.43, 10.43
CTUN, 0, 0.00, -0.02, 0.000000, 0.00, 0, -7, 0, 0
ATT, 0.00, 11.72, 0.00, 21.74, 44.16, 10.50, 10.50
GPS, 3, 544419400, 10, 1.68, -33.7846096, 151.0675480, -0.17, 92.98, 0.06, 354.14
CTUN, 0, 0.00, -0.03, 0.000000, 0.00, 0, -6, 0, 0
DU32, 7, 8793
CURR, 0, 0, 1131, 51, 4772, 1.583586
ATT, 0.00, 11.71, 0.00, 21.78, 44.28, 10.45, 10.45
CTUN, 0, 0.00, 0.08, 0.000000, 0.00, 0, -6, 0, 0
ATT, 0.00, 11.70, 0.00, 21.73, 44.16, 10.49, 10.49
GPS, 3, 544419600, 10, 1.68, -33.7846102, 151.0675481, -0.16, 92.97, 0.16, 354.14
CTUN, 0, 0.00, -0.06, 0.000000, 0.00, 0, -6, 0, 0
ATT, 0.00, 11.72, 0.00, 21.73, 44.52, 10.49, 10.49
CTUN, 0, 0.00, -0.08, 0.000000, 0.00, 0, -6, 0, 0
ATT, 0.00, 11.76, 0.00, 21.69, 44.52, 10.65, 10.65
GPS, 3, 544419800, 10, 1.68, -33.7846105, 151.0675481, -0.16, 92.97, 0.05, 354.14
CTUN, 0, 0.00, 0.00, 0.000000, 0.00, 0, -6, 0, 0
ATT, 0.00, 11.74, 0.00, 21.74, 44.40, 10.54, 10.54
CTUN, 0, 0.00, 0.03, 0.000000, 0.00, 0, -6, 0, 0
ATT, 0.00, 11.68, 0.00, 21.70, 44.52, 10.45, 10.45
GPS, 3, 544420000, 10, 1.68, -33.7846109, 151.0675482, -0.15, 92.98, 0.09, 354.14
CTUN, 0, 0.00, 0.01, 0.000000, 0.00, 0, -6, 0, 0
ATT, 0.00, 11.70, 0.00, 21.69, 44.52, 10.53, 10.53
CTUN, 0, 0.00, -0.05, 0.000000, 0.00, 0, -5, 0, 0
ATT, 0.00, 11.75, 0.00, 21.66, 44.52, 10.65, 10.65
GPS, 3, 544420200, 10, 1.68, -33.7846114, 151.0675482, -0.15, 92.98, 0.12, 354.14
CTUN, 0, 0.00, -0.07, 0.000000, 0.00, 0, -6, 0, 0
ATT, 0.00, 11.76, 0.00, 21.73, 44.40, 10.64, 10.64
CTUN, 0, 0.00, -0.06, 0.000000, 0.00, 0, -6, 0, 0
ATT, 0.00, 11.75, 0.00, 21.71, 44.52, 10.68, 10.68
GPS, 3, 544420400, 10, 1.68, -33.7846118, 151.0675483, -0.15, 92.97, 0.02, 354.14
CTUN, 0, 0.00, -0.07, 0.000000, 0.00, 0, -6, 0, 0
DU32, 7, 8793
CURR, 0, 0, 1131, 49, 4772, 1.734078
ATT, 0.00, 11.71, 0.00, 21.74, 44.52, 10.58, 10.58
CTUN, 0, 0.00, -0.11, 0.000000, 0.00, 0, -6, 0, 0
ATT, 0.00, 11.70, 0.00, 21.69, 44.52, 10.61, 10.61
GPS, 3, 544420600, 10, 1.68, -33.7846122, 151.0675485, -0.15, 92.99, 0.05, 354.14
CTUN, 0, 0.00, -0.07, 0.000000, 0.00, 0, -6, 0, 0
ATT, 0.00, 11.74, 0.00, 21.69, 44.52, 10.70, 10.70
CTUN, 0, 0.00, -0.02, 0.000000, 0.00, 0, -6, 0, 0
ATT, 0.00, 11.75, 0.00, 21.65, 44.52, 10.75, 10.75
GPS, 3, 544420800, 10, 1.68, -33.7846125, 151.0675485, -0.16, 92.98, 0.02, 354.14
CTUN, 0, 0.00, -0.07, 0.000000, 0.00, 0, -6, 0, 0
ATT, 0.00, 11.71, 0.00, 21.68, 44.52, 10.65, 10.65
CTUN, 0, 0.00, -0.02, 0.000000, 0.00, 0, -5, 0, 0
ATT, 0.00, 11.64, 0.00, 21.66, 44.52, 10.55, 10.55
GPS, 3, 544421000, 10, 1.68, -33.7846129, 151.0675486, -0.15, 92.99, 0.05, 354.14
CTUN, 0, 0.00, -0.04, 0.000000, 0.00, 0, -5, 0, 0
ATT, 0.00, 11.72, 0.00, 21.63, 44.52, 10.77, 10.77
CTUN, 0, 0.00, -0.12, 0.000000, 0.00, 0, -5, 0, 0
ATT, 0.00, 11.70, 0.00, 21.67, 44.40, 10.68, 10.68
GPS, 3, 544421200, 10, 1.68, -33.7846133, 151.0675487, -0.15, 92.97, 0.01, 354.14
CTUN, 0, 0.00, -0.02, 0.000000, 0.00, 0, -5, 0, 0
ATT, 0.00, 11.69, 0.00, 21.70, 44.52, 10.69, 10.69
CTUN, 0, 0.00, -0.02, 0.000000, 0.00, 0, -5, 0, 0
ATT, 0.00, 11.69, 0.00, 21.71, 44.52, 10.64, 10.64
GPS, 3, 544421400, 10, 1.68, -33.7846137, 151.0675487, -0.15, 92.96, 0.01, 354.14
CTUN, 0, 0.00, 0.00, 0.000000, 0.00, 0, -5, 0, 0
DU32, 7, 8793
CURR, 0, 0, 1126, 55, 4793, 1.888481
ATT, 0.00, 11.69, 0.00, 21.63, 44.52, 10.74, 10.74
CTUN, 0, 0.00, -0.01, 0.000000, 0.00, 0, -5, 0, 0
ATT, 0.00, 11.55, 0.00, 21.60, 44.52, 10.46, 10.46
GPS, 3, 544421600, 10, 1.68, -33.7846139, 151.0675487, -0.14, 92.96, 0.09, 354.14
CTUN, 0, 0.00, 0.00, 0.000000, 0.00, 0, -4, 0, 0
ATT, 0.00, 11.64, 0.00, 21.62, 44.52, 10.71, 10.71
CTUN, 0, 0.00, 0.01, 0.000000, 0.00, 0, -4, 0, 0
ATT, 0.00, 11.62, 0.00, 21.59, 44.52, 10.66, 10.66
GPS, 3, 544421800, 10, 1.68, -33.7846137, 151.0675487, -0.13, 92.97, 0.28, 354.14
CTUN, 0, 0.00, -0.22, 0.000000, 0.00, 0, -4, 0, 0
ATT, 0.00, 11.56, 0.00, 21.56, 44.52, 10.55, 10.55
CTUN, 0, 0.00, -0.13, 0.000000, 0.00, 0, -4, 0, 0
ATT, 0.00, 11.57, 0.00, 21.51, 44.52, 10.61, 10.61
GPS, 3, 544422000, 10, 1.68, -33.7846144, 151.0675487, -0.14, 92.95, 0.06, 354.14
CTUN, 0, 0.00, -0.09, 0.000000, 0.00, 0, -4, 0, 0
ATT, 0.00, 11.60, 0.00, 21.47, 44.52, 10.74, 10.74
CTUN, 0, 0.00, -0.05, 0.000000, 0.00, 0, -3, 0, 0
ATT, 0.00, 11.62, 0.00, 21.58, 44.52, 10.68, 10.68
GPS, 3, 544422200, 10, 1.68, -33.7846145, 151.0675488, -0.15, 92.98, 0.12, 354.14
CTUN, 0, 0.00, -0.09, 0.000000, 0.00, 0, -4, 0, 0
ATT, 0.00, 11.60, 0.00, 21.62, 44.52, 10.68, 10.68
CTUN, 0, 0.00, -0.06, 0.000000, 0.00, 0, -3, 0, 0
ATT, 0.00, 11.63, 0.00, 21.65, 44.52, 10.72, 10.72
GPS, 3, 544422400, 10, 1.68, -33.7846150, 151.0675489, -0.14, 92.96, 0.05, 354.14
CTUN, 0, 0.00, -0.03, 0.000000, 0.00, 0, -3, 0, 0
DU32, 7, 8793
CURR, 0, 0, 1125, 50, 4772, 2.035923
ATT, 0.00, 11.65, 0.00, 21.61, 44.40, 10.80, 10.80
CTUN, 0, 0.00, -0.15, 0.000000, 0.00, 0, -3, 0, 0
ATT, 0.00, 11.56, 0.00, 21.61, 44.52, 10.63, 10.63
GPS, 3, 544422600, 10, 1.68, -33.7846154, 151.0675491, -0.14, 92.96, 0.03, 354.14
CTUN, 0, 0.00, -0.13, 0.000000, 0.00, 0, -3, 0, 0
ATT, 0.00, 11.68, 0.00, 21.67, 44.52, 10.82, 10.82
CTUN, 0, 0.00, -0.09, 0.000000, 0.00, 0, -3, 0, 0
ATT, 0.00, 11.68, 0.00, 21.60, 44.40, 10.81, 10.81
GPS, 3, 544422800, 10, 1.68, -33.7846159, 151.0675491, -0.15, 92.97, 0.06, 354.14
CTUN, 0, 0.00, -0.05, 0.000000, 0.00, 0, -3, 0, 0
ATT, 0.00, 11.68, 0.00, 21.66, 44.52, 10.79, 10.79
CTUN, 0, 0.00, -0.07, 0.000000, 0.00, 0, -3, 0, 0
ATT, 0.00, 11.63, 0.00, 21.65, 44.40, 10.76, 10.76
GPS, 3, 544423000, 10, 1.68, -33.7846163, 151.0675493, -0.14, 92.97, 0.04, 354.14
CTUN, 0, 0.00, -0.01, 0.000000, 0.00, 0, -3, 0, 0
ATT, 0.00, 11.61, 0.00, 21.68, 44.52, 10.75, 10.75
PM, 0, 0, 50, 0, 1000, 10444, 0, 4
CTUN, 0, 0.00, -0.05, 0.000000, 0.00, 0, -2, 0, 0
ATT, 0.00, 11.67, 0.00, 21.62, 44.52, 10.94, 10.94
GPS, 3, 544423200, 10, 1.68, -33.7846167, 151.0675493, -0.14, 92.98, 0.09, 354.14
CTUN, 0, 0.00, -0.10, 0.000000, 0.00, 0, -2, 0, 0
ATT, 0.00, 11.65, 0.00, 21.66, 44.52, 10.81, 10.81
CTUN, 0, 0.00, -0.11, 0.000000, 0.00, 0, -2, 0, 0
ATT, 0.00, 11.59, 0.00, 21.63, 44.52, 10.73, 10.73
GPS, 3, 544423400, 10, 1.68, -33.7846171, 151.0675493, -0.14, 92.97, 0.05, 354.14
CTUN, 0, 0.00, -0.14, 0.000000, 0.00, 0, -2, 0, 0
DU32, 7, 8793
CURR, 0, 0, 1131, 56, 4793, 2.190512
ATT, 0.00, 11.58, 0.00, 21.62, 44.52, 10.75, 10.75
CTUN, 0, 0.00, -0.10, 0.000000, 0.00, 0, -1, 0, 0
ATT, 0.00, 11.62, 0.00, 21.66, 44.52, 10.81, 10.81
GPS, 3, 544423600, 10, 1.68, -33.7846175, 151.0675494, -0.14, 92.97, 0.05, 354.14
CTUN, 0, 0.00, -0.23, 0.000000, 0.00, 0, -1, 0, 0
ATT, 0.00, 11.66, 0.00, 21.66, 44.52, 10.89, 10.89
CTUN, 0, 0.00, -0.13, 0.000000, 0.00, 0, -1, 0, 0
ATT, 0.00, 11.64, 0.00, 21.66, 44.52, 10.87, 10.87
GPS, 3, 544423800, 10, 1.68, -33.7846180, 151.0675496, -0.14, 92.98, 0.03, 354.14
CTUN, 0, 0.00, -0.13, 0.000000, 0.00, 0, -1, 0, 0
ATT, 0.00, 11.60, 0.00, 21.67, 44.40, 10.71, 10.71
CTUN, 0, 0.00, -0.09, 0.000000, 0.00, 0, -1, 0, 0
ATT, 0.00, 11.64, 0.00, 21.67, 44.52, 10.84, 10.84
GPS, 3, 544424000, 10, 1.68, -33.7846182, 151.0675496, -0.14, 92.98, 0.05, 354.14
CTUN, 0, 0.00, -0.03, 0.000000, 0.00, 0, -1, 0, 0
ATT, 0.00, 11.67, 0.00, 21.72, 44.52, 10.93, 10.93
CTUN, 0, 0.00, -0.01, 0.000000, 0.00, 0, -1, 0, 0
ATT, 0.00, 11.70, 0.00, 21.67, 44.40, 10.99, 10.99
GPS, 3, 544424200, 10, 1.68, -33.7846187, 151.0675497, -0.13, 92.98, 0.02, 354.14
CTUN, 0, 0.00, -0.09, 0.000000, 0.00, 0, -1, 0, 0
ATT, 0.00, 11.68, 0.00, 21.66, 44.52, 10.95, 10.95
CTUN, 0, 0.00, -0.05, 0.000000, 0.00, 0, -1, 0, 0
ATT, 0.00, 11.72, 0.00, 21.65, 44.52, 11.04, 11.04
GPS, 3, 544424400, 10, 1.68, -33.7846190, 151.0675496, -0.13, 92.97, 0.04, 354.14
CTUN, 0, 0.00, -0.07, 0.000000, 0.00, 0, -1, 0, 0
DU32, 7, 8793
CURR, 0, 0, 1130, 54, 4712, 2.342432
ATT, 0.00, 11.74, 0.00, 21.75, 44.52, 11.02, 11.02
CTUN, 0, 0.00, -0.08, 0.000000, 0.00, 0, 0, 0, 0
ATT, 0.00, 11.70, 0.00, 21.73, 44.52, 11.02, 11.02
GPS, 3, 544424600, 10, 1.68, -33.7846194, 151.0675498, -0.12, 92.99, 0.02, 354.14
CTUN, 0, 0.00, -0.07, 0.000000, 0.00, 0, 0, 0, 0
ATT, 0.00, 11.64, 0.00, 21.73, 44.52, 10.86, 10.86
CTUN, 0, 0.00, -0.10, 0.000000, 0.00, 0, 0, 0, 0
ATT, 0.00, 11.69, 0.00, 21.72, 44.52, 10.95, 10.95
GPS, 3, 544424800, 10, 1.68, -33.7846198, 151.0675498, -0.12, 92.98, 0.04, 354.14
CTUN, 0, 0.00, 0.00, 0.000000, 0.00, 0, -1, 0, 0
ATT, 0.00, 11.71, 0.00, 21.75, 44.52, 11.04, 11.04
CTUN, 0, 0.00, -0.04, 0.000000, 0.00, 0, 0, 0, 0
ATT, 0.00, 11.58, 0.00, 21.69, 44.52, 11.03, 11.03
GPS, 3, 544425000, 10, 1.68, -33.7846202, 151.0675499, -0.11, 92.98, 0.02, 354.14
CTUN, 0, 0.00, -0.02, 0.000000, 0.00, 0, 0, 0, 0
ATT, 0.00, 11.46, 0.00, 21.72, 44.52, 10.88, 10.88
CTUN, 0, 0.00, -0.07, 0.000000, 0.00, 0, 0, 0, 0
ATT, 0.00, 11.68, 0.00, 21.71, 44.52, 11.13, 11.13
GPS, 3, 544425200, 10, 1.68, -33.7846205, 151.0675499, -0.10, 92.98, 0.08, 354.14
CTUN, 0, 0.00, -0.09, 0.000000, 0.00, 0, 0, 0, 0
ATT, 0.00, 11.68, 0.00, 21.79, 44.52, 10.90, 10.90
CTUN, 0, 0.00, -0.06, 0.000000, 0.00, 0, 0, 0, 0
ATT, 0.00, 11.56, 0.00, 21.73, 44.52, 10.91, 10.91
GPS, 3, 544425400, 10, 1.68, -33.7846209, 151.0675499, -0.10, 92.99, 0.04, 354.14
CTUN, 0, 0.00, 0.00, 0.000000, 0.00, 0, 1, 0, 0
DU32, 7, 8793
CURR, 0, 0, 1130, 55, 4752, 2.494016
ATT, 0.00, 11.47, 0.00, 21.73, 44.40, 10.87, 10.87
CTUN, 0, 0.00, -0.03, 0.000000, 0.00, 0, 1, 0, 0
ATT, 0.00, 11.58, 0.00, 21.89, 44.52, 10.98, 10.98
GPS, 3, 544425600, 10, 1.68, -33.7846213, 151.0675500, -0.09, 93.00, 0.07, 354.14
CTUN, 0, 0.00, -0.03, 0.000000, 0.00, 0, 1, 0, 0
ATT, 0.00, 11.64, 0.00, 22.04, 44.40, 10.98, 10.98
CTUN, 0, 0.00, -0.11, 0.000000, 0.00, 0, 1, 0, 0
ATT, 0.00, 11.61, 0.00, 21.95, 44.52, 10.90, 10.90
GPS, 3, 544425800, 10, 1.68, -33.7846214, 151.0675501, -0.08, 93.01, 0.18, 354.14
CTUN, 0, 0.00, -0.21, 0.000000, 0.00, 0, 1, 0, 0
ATT, 0.00, 11.60, 0.00, 21.81, 44.52, 10.91, 10.91
CTUN, 0, 0.00, -0.07, 0.000000, 0.00, 0, 1, 0, 0
ATT, 0.00, 11.48, 0.00, 21.55, 44.52, 10.71, 10.71
GPS, 3, 544426000, 10, 1.68, -33.7846221, 151.0675502, -0.09, 93.01, 0.04, 354.14
CTUN, 0, 0.00, -0.11, 0.000000, 0.00, 0, 1, 0, 0
ATT, 0.00, 11.53, 0.00, 21.39, 44.52, 10.85, 10.85
CTUN, 0, 0.00, -0.10, 0.000000, 0.00, 0, 1, 0, 0
ATT, 0.00, 11.68, 0.00, 21.90, 44.52, 10.90, 10.90
GPS, 3, 544426200, 10, 1.68, -33.7846225, 151.0675503, -0.08, 93.03, 0.01, 354.14
CTUN, 0, 0.00, -0.08, 0.000000, 0.00, 0, 2, 0, 0
ATT, 0.00, 11.79, 0.00, 22.29, 44.52, 10.80, 10.80
CTUN, 0, 0.00, -0.10, 0.000000, 0.00, 0, 2, 0, 0
ATT, 0.00, 11.88, 0.00, 22.26, 44.52, 10.91, 10.91
GPS, 3, 544426400, 10, 1.68, -33.7846230, 151.0675505, -0.08, 93.02, 0.08, 354.14
CTUN, 0, 0.00, -0.13, 0.000000, 0.00, 0, 2, 0, 0
DU32, 7, 8793
CURR, 0, 0, 1132, 55, 4772, 2.644473
ATT, 0.00, 11.98, 0.00, 22.31, 44.52, 10.92, 10.92
CTUN, 0, 0.00, -0.04, 0.000000, 0.00, 0, 1, 0, 0
ATT, 0.00, 12.07, 0.00, 22.49, 44.52, 10.90, 10.90
GPS, 3, 544426600, 10, 1.68, -33.7846234, 151.0675506, -0.08, 93.04, 0.04, 354.14
CTUN, 0, 0.00, -0.13, 0.000000, 0.00, 0, 1, 0, 0
ATT, 0.00, 12.20, 0.00, 22.52, 44.52, 11.08, 11.08
CTUN, 0, 0.00, -0.19, 0.000000, 0.00, 0, 1, 0, 0
ATT, 0.00, 11.98, 0.00, 22.47, 44.40, 10.82, 10.82
GPS, 3, 544426800, 10, 1.68, -33.7846236, 151.0675507, -0.08, 93.05, 0.01, 354.14
CTUN, 0, 0.00, -0.13, 0.000000, 0.00, 0, 1, 0, 0
ATT, 0.00, 11.86, 0.00, 22.39, 44.52, 10.74, 10.74
CTUN, 0, 0.00, -0.07, 0.000000, 0.00, 0, 1, 0, 0
ATT, 0.00, 11.86, 0.00, 22.22, 44.40, 10.82, 10.82
GPS, 3, 544427000, 10, 1.68, -33.7846235, 151.0675507, -0.08, 93.08, 0.11, 354.14
CTUN, 0, 0.00, -0.05, 0.000000, 0.00, 0, 1, 0, 0
ATT, 0.00, 11.79, 0.00, 22.13, 44.52, 10.67, 10.67
CTUN, 0, 0.00, -0.03, 0.000000, 0.00, 0, 1, 0, 0
ATT, 0.00, 11.61, 0.00, 21.89, 34.56, 10.59, 10.59
GPS, 3, 544427200, 10, 1.68, -33.7846237, 151.0675508, -0.07, 93.09, 0.02, 354.14
CTUN, 0, 0.00, -0.03, 0.000000, 0.00, 0, 2, 0, 0
ATT, 0.00, 11.57, 0.00, 21.75, 22.92, 10.60, 10.60
CTUN, 0, 0.00, -0.12, 0.000000, 0.00, 0, 2, 0, 0
ATT, 0.00, 11.80, 0.00, 21.94, 11.76, 10.75, 10.75
EV, 15
GPS, 3, 544427400, 10, 1.68, -33.7846236, 151.0675508, -0.07, 93.11, 0.07, 354.14
CTUN, 155, 0.00, -0.12, 0.000000, 0.00, 0, 2, 138, 0
DU32, 7, 8825
CURR, 155, 0, 1130, 51, 4635, 2.793450
ATT, 0.00, 11.85, 0.00, 22.06, 0.00, 10.60, 10.60
CTUN, 156, 0.00, -0.01, 0.000000, 0.00, 2, 3, 158, 0
ATT, 0.00, 11.49, 0.00, 21.54, 0.00, 10.66, 10.66
GPS, 3, 544427600, 11, 1.34, -33.7846231, 151.0675506, -0.06, 93.14, 0.18, 354.14
CTUN, 156, 0.00, -0.05, 0.000000, 0.00, 2, 3, 158, 0
ATT, 0.00, 11.34, 0.00, 21.37, 0.00, 10.72, 10.72
CTUN, 154, 0.00, -0.02, 0.000000, 0.00, 2, 4, 156, 0
ATT, 0.00, 11.49, 0.00, 21.28, 0.00, 12.14, 12.14
GPS, 3, 544427800, 11, 1.34, -33.7846225, 151.0675504, -0.06, 93.13, 0.28, 354.14
CTUN, 156, 0.00, -0.04, 0.000000, 0.00, 2, 4, 158, 0
ATT, 0.00, 11.33, 0.00, 21.43, 0.00, 13.94, 13.94
CTUN, 154, 0.00, -0.12, 0.000000, 0.00, 2, 3, 156, 0
ATT, 0.00, 11.13, 0.00, 20.97, 0.00, 14.39, 14.39
GPS, 3, 544428000, 11, 1.34, -33.7846218, 151.0675501, -0.05, 93.11, 0.37, 349.14
CTUN, 154, 0.00, -0.09, 0.000000, 0.00, 2, 2, 156, 0
ATT, 0.00, 11.17, 0.00, 21.27, 0.00, 13.85, 13.85
CTUN, 159, 0.00, -0.10, 0.000000, 0.00, 2, 3, 161, 0
ATT, 0.00, 11.28, 0.00, 20.90, 0.00, 14.15, 14.15
GPS, 3, 544428200, 11, 1.34, -33.7846218, 151.0675500, -0.05, 93.11, 0.21, 349.14
CTUN, 159, 0.00, -0.10, 0.000000, 0.00, 2, 1, 161, 0
ATT, 0.00, 11.24, 0.00, 21.14, 6.36, 14.26, 14.54
CTUN, 159, 0.00, -0.18, 0.000000, 0.00, 2, 6, 161, 0
ATT, 0.00, 11.80, 0.00, 21.79, 17.28, 14.41, 15.18
GPS, 3, 544428400, 11, 1.34, -33.7846211, 151.0675498, -0.05, 93.12, 0.32, 349.14
CTUN, 159, 0.00, -0.07, 0.000000, 0.00, 2, 4, 161, 0
DU32, 7, 8825
CURR, 159, 1584, 1076, 760, 4752, 4.967360
ATT, 0.00, 11.83, 0.00, 21.92, 29.52, 14.46, 15.79
CTUN, 139, 0.00, -0.02, 0.000000, 0.00, 2, 4, 161, 0
ATT, 0.00, 11.68, 0.00, 22.09, 33.96, 15.34, 15.34
GPS, 3, 544428600, 11, 1.34, -33.7846205, 151.0675496, -0.05, 93.10, 0.32, 349.14
CTUN, 0, 0.00, -0.06, 0.000000, 0.00, 0, -2, 0, 0
ATT, 0.00, 12.65, 0.00, 22.19, 36.96, 17.02, 17.02
CTUN, 0, 0.00, -0.09, 0.000000, 0.00, 0, 1, 0, 0
ATT, 0.00, 12.06, 0.00, 22.06, 38.52, 15.89, 15.89
GPS, 3, 544428800, 11, 1.34, -33.7846199, 151.0675494, -0.05, 93.13, 0.39, 349.14
CTUN, 0, 0.00, -0.14, 0.000000, 0.00, 0, 0, 0, 0
ATT, 0.00, 12.09, 0.00, 22.13, 39.36, 16.00, 16.00
CTUN, 0, 0.00, -0.07, 0.000000, 0.00, 0, 1, 0, 0
ATT, 0.00, 12.02, 0.00, 22.27, 38.76, 15.84, 15.84
GPS, 3, 544429000, 10, 1.68, -33.7846200, 151.0675495, -0.05, 93.13, 0.17, 349.14
CTUN, 0, 0.00, -0.12, 0.000000, 0.00, 0, 1, 0, 0
ATT, 0.00, 12.42, 0.00, 22.65, 28.80, 16.14, 16.14
CTUN, 0, 0.00, -0.11, 0.000000, 0.00, 0, 1, 0, 0
ATT, 0.00, 12.84, 0.00, 23.10, 0.36, 16.20, 16.20
GPS, 3, 544429200, 10, 1.68, -33.7846198, 151.0675495, -0.05, 93.17, 0.22, 349.14
CTUN, 0, 0.00, -0.06, 0.000000, 0.00, 0, 1, 0, 0
ATT, 0.00, 12.88, 0.00, 23.15, 0.00, 16.16, 16.16
CTUN, 0, 0.00, -0.04, 0.000000, 0.00, 0, 1, 0, 0
ATT, 0.00, 12.74, 0.00, 23.12, 0.00, 15.97, 15.97
GPS, 3, 544429400, 10, 1.68, -33.7846195, 151.0675495, -0.05, 93.20, 0.22, 349.14
CTUN, 0, 0.00, -0.17, 0.000000, 0.00, 0, 1, 0, 0
DU32, 7, 8793
CURR, 0, 1745, 1130, 52, 4772, 5.438258
ATT, 0.00, 12.71, 0.00, 23.09, 0.00, 15.89, 15.89
CTUN, 0, 0.00, -0.06, 0.000000, 0.00, 0, 0, 0, 0
ATT, 0.00, 12.60, 0.00, 23.07, 0.00, 15.60, 15.60
GPS, 3, 544429600, 10, 1.68, -33.7846197, 151.0675496, -0.06, 93.20, 0.10, 349.14
CTUN, 0, 0.00, -0.14, 0.000000, 0.00, 0, 0, 0, 0
ATT, 0.00, 12.79, 0.00, 23.24, 0.00, 15.67, 15.67
CTUN, 0, 0.00, -0.12, 0.000000, 0.00, 0, 0, 0, 0
ATT, 0.00, 13.00, 0.00, 23.41, 0.00, 15.82, 15.82
GPS, 3, 544429800, 10, 1.68, -33.7846201, 151.0675497, -0.06, 93.20, 0.02, 349.14
CTUN, 0, 0.00, -0.07, 0.000000, 0.00, 0, 0, 0, 0
ATT, 0.00, 13.12, 0.00, 23.63, 0.00, 15.78, 15.78
CTUN, 0, 0.00, -0.13, 0.000000, 0.00, 0, 0, 0, 0
ATT, 0.00, 13.23, 0.00, 23.86, 0.00, 15.75, 15.75
GPS, 3, 544430000, 10, 1.68, -33.7846203, 151.0675498, -0.07, 93.22, 0.03, 349.14
CTUN, 0, 0.00, -0.10, 0.000000, 0.00, 0, 0, 0, 0
ATT, 0.00, 13.15, 0.00, 23.89, 0.00, 15.57, 15.57
CTUN, 0, 0.00, -0.05, 0.000000, 0.00, 0, 0, 0, 0
ATT, 0.00, 13.08, 0.00, 23.90, 0.00, 15.47, 15.47
GPS, 3, 544430200, 10, 1.68, -33.7846202, 151.0675498, -0.07, 93.24, 0.06, 349.14
CTUN, 0, 0.00, -0.08, 0.000000, 0.00, 0, 0, 0, 0
ATT, 0.00, 12.87, 0.00, 23.72, 0.00, 15.19, 15.19
CTUN, 0, 0.00, -0.09, 0.000000, 0.00, 0, 0, 0, 0
ATT, 0.00, 12.79, 0.00, 23.50, 0.00, 15.19, 15.19
GPS, 3, 544430400, 10, 1.68, -33.7846203, 151.0675500, -0.07, 93.26, 0.00, 349.14
CTUN, 0, 0.00, -0.12, 0.000000, 0.00, 0, 0, 0, 0
DU32, 7, 8793
CURR, 0, 1745, 1130, 53, 4752, 5.585408
ATT, 0.00, 12.83, 0.00, 23.49, 0.00, 15.21, 15.21
CTUN, 0, 0.00, -0.16, 0.000000, 0.00, 0, 0, 0, 0
ATT, 0.00, 12.85, 0.00, 23.58, 0.00, 15.00, 15.00
GPS, 3, 544430600, 10, 1.68, -33.7846202, 151.0675499, -0.08, 93.30, 0.09, 349.14
CTUN, 0, 0.00, -0.06, 0.000000, 0.00, 0, 0, 0, 0
ATT, 0.00, 12.79, 0.00, 23.46, 6.00, 15.05, 15.05
CTUN, 0, 0.00, -0.08, 0.000000, 0.00, 0, 0, 0, 0
ATT, 0.00, 12.57, 0.00, 23.28, 22.56, 14.83, 14.83
GPS, 3, 544430800, 10, 1.68, -33.7846201, 151.0675500, -0.08, 93.32, 0.10, 349.14
CTUN, 0, 0.00, -0.14, 0.000000, 0.00, 0, 0, 0, 0
ATT, 0.00, 12.63, 0.00, 23.15, 40.44, 14.90, 14.90
CTUN, 0, 0.00, -0.02, 0.000000, 0.00, 0, 0, 0, 0
ATT, 0.00, 12.70, 0.00, 23.04, 44.52, 15.03, 15.03
GPS, 3, 544431000, 10, 1.68, -33.7846201, 151.0675501, -0.08, 93.35, 0.09, 349.14
CTUN, 0, 0.00, -0.05, 0.000000, 0.00, 0, 0, 0, 0
ATT, 0.00, 12.81, 0.00, 23.03, 44.52, 15.09, 15.09
CTUN, 0, 0.00, -0.12, 0.000000, 0.00, 0, 0, 0, 0
ATT, 0.00, 12.85, 0.00, 23.08, 44.64, 15.01, 15.01
GPS, 3, 544431200, 10, 1.68, -33.7846205, 151.0675502, -0.08, 93.37, 0.05, 349.14
CTUN, 0, 0.00, -0.17, 0.000000, 0.00, 0, 0, 0, 0
ATT, 0.00, 12.83, 0.00, 23.32, 44.52, 14.86, 14.86
CTUN, 0, 0.00, -0.09, 0.000000, 0.00, 0, 0, 0, 0
ATT, 0.00, 12.91, 0.00, 23.61, 44.52, 14.92, 14.92
GPS, 3, 544431400, 10, 1.68, -33.7846206, 151.0675504, -0.08, 93.40, 0.03, 349.14
CTUN, 0, 0.00, -0.17, 0.000000, 0.00, 0, 0, 0, 0
DU32, 7, 8793
CURR, 0, 1745, 1130, 56, 4772, 5.734591
ATT, 0.00, 12.98, 0.00, 23.53, 44.52, 14.89, 14.89
CTUN, 0, 0.00, -0.18, 0.000000, 0.00, 0, 0, 0, 0
ATT, 0.00, 13.09, 0.00, 23.32, 44.64, 14.93, 14.93
GPS, 3, 544431600, 10, 1.68, -33.7846208, 151.0675506, -0.09, 93.42, 0.03, 349.14
CTUN, 0, 0.00, -0.11, 0.000000, 0.00, 0, 0, 0, 0
ATT, 0.00, 13.07, 0.00, 23.37, 44.52, 14.84, 14.84
CTUN, 0, 0.00, -0.10, 0.000000, 0.00, 0, 0, 0, 0
ATT, 0.00, 13.07, 0.00, 23.48, 44.64, 14.82, 14.82
GPS, 3, 544431800, 10, 1.68, -33.7846210, 151.0675507, -0.10, 93.45, 0.03, 349.14
CTUN, 0, 0.00, -0.11, 0.000000, 0.00, 0, 0, 0, 0
ATT, 0.00, 13.04, 0.00, 23.44, 44.52, 14.92, 14.92
CTUN, 0, 0.00, -0.10, 0.000000, 0.00, 0, 0, 0, 0
ATT, 0.00, 12.91, 0.00, 23.40, 35.04, 14.81, 14.81
GPS, 3, 544432000, 10, 1.68, -33.7846211, 151.0675508, -0.10, 93.49, 0.03, 349.14
EV, 15
CTUN, 199, 0.00, -0.11, 0.000000, 0.00, 8, 0, 208, 0
ATT, 0.00, 12.70, 0.00, 23.07, 0.00, 14.96, 14.96
CTUN, 199, 0.00, 0.00, 0.000000, 0.00, 7, 1, 206, 0
ATT, 0.00, 12.29, 0.00, 22.81, 0.00, 14.52, 14.52
GPS, 3, 544432200, 10, 1.68, -33.7846214, 151.0675511, -0.09, 93.52, 0.03, 349.14
CTUN, 200, 0.00, 0.00, 0.000000, 0.00, 7, 0, 207, 0
ATT, 0.00, 12.44, 0.00, 22.61, 0.00, 15.19, 15.19
CTUN, 203, 0.00, -0.14, 0.000000, 0.00, 7, 2, 208, 0
ATT, 0.00, 12.39, 0.00, 22.60, 0.00, 14.98, 14.98
GPS, 3, 544432400, 10, 1.68, -33.7846216, 151.0675512, -0.08, 93.56, 0.02, 349.14
CTUN, 203, 0.00, -0.07, 0.000000, 0.00, 8, 1, 211, 0
DU32, 7, 8825
CURR, 204, 2785, 1077, 775, 4772, 6.782169
ATT, 0.00, 12.33, 0.00, 22.55, 0.00, 14.92, 14.92
CTUN, 203, 0.00, -0.16, 0.000000, 0.00, 7, 2, 207, 0
GPS, 3, 544432600, 10, 1.68, -33.7846219, 151.0675514, -0.08, 93.57, 0.02, 349.14
ATT, 0.00, 12.36, 0.00, 22.63, 0.00, 14.75, 14.75
CTUN, 200, 0.00, -0.12, 0.000000, 0.00, 7, 2, 207, 0
ATT, 0.00, 12.30, 0.00, 22.55, 0.00, 14.76, 14.76
CTUN, 200, 0.00, -0.15, 0.000000, 0.00, 7, 2, 207, 0
GPS, 3, 544432800, 10, 1.68, -33.7846222, 151.0675516, -0.09, 93.60, 0.02, 349.14
ATT, 0.00, 12.25, 0.00, 22.50, 0.00, 14.84, 14.84
CTUN, 200, 0.00, -0.14, 0.000000, 0.00, 7, 1, 207, 0
ATT, 0.00, 12.31, 0.00, 22.44, 0.00, 14.84, 14.84
CTUN, 200, 0.00, -0.05, 0.000000, 0.00, 7, -2, 208, 0
ATT, 0.00, 12.24, 0.00, 22.07, 0.00, 15.06, 15.06
GPS, 3, 544433000, 10, 1.68, -33.7846225, 151.0675517, -0.09, 93.59, 0.03, 349.14
CTUN, 200, 0.00, -0.16, 0.000000, 0.00, 7, 0, 207, 0
ATT, 0.00, 12.09, 0.00, 22.05, 0.00, 15.02, 15.02
PM, 0, 0, 50, 0, 1000, 10456, 0, 4
CTUN, 201, 0.00, -0.13, 0.000000, 0.00, 7, -2, 210, 0
ATT, 0.00, 11.88, 0.00, 22.03, 0.00, 14.88, 14.88
GPS, 3, 544433200, 10, 1.68, -33.7846228, 151.0675519, -0.10, 93.61, 0.01, 349.14
CTUN, 201, 0.00, -0.01, 0.000000, 0.00, 7, -3, 208, 0
ATT, 0.00, 11.95, 0.00, 22.19, 0.00, 14.71, 14.71
CTUN, 201, 0.00, -0.11, 0.000000, 0.00, 7, -2, 208, 0
ATT, 0.00, 12.12, 0.00, 22.40, 0.00, 14.67, 14.67
GPS, 3, 544433400, 10, 1.68, -33.7846232, 151.0675521, -0.10, 93.60, 0.02, 349.14
CTUN, 201, 0.00, -0.09, 0.000000, 0.00, 7, -2, 208, 0
DU32, 7, 8825
CURR, 201, 4862, 1053, 776, 4752, 8.968721
ATT, 0.00, 12.22, 0.00, 22.22, 0.00, 14.99, 14.99
CTUN, 203, 0.00, -0.12, 0.000000, 0.00, 7, -5, 210, 0
GPS, 3, 544433600, 10, 1.68, -33.7846231, 151.0675521, -0.11, 93.61, 0.14, 349.14
ATT, 0.00, 11.92, 0.00, 22.13, 0.00, 14.83, 14.83
CTUN, 203, 0.00, -0.25, 0.000000, 0.00, 7, -1, 210, 0
ATT, 0.00, 11.85, 0.00, 21.73, 0.00, 14.94, 14.94
CTUN, 203, 0.00, -0.10, 0.000000, 0.00, 7, -3, 210, 0
GPS, 3, 544433800, 10, 1.68, -33.7846232, 151.0675522, -0.12, 93.63, 0.12, 349.14
ATT, 0.00, 11.58, 0.00, 21.25, 0.00, 15.02, 15.02
CTUN, 203, 0.00, -0.13, 0.000000, 0.00, 7, -2, 210, 0
ATT, 0.00, 11.45, 0.00, 21.43, 0.00, 14.75, 14.75
CTUN, 203, 0.00, -0.14, 0.000000, 0.00, 7, -2, 210, 0
GPS, 3, 544434000, 10, 1.68, -33.7846234, 151.0675525, -0.13, 93.66, 0.03, 349.14
ATT, 0.00, 11.67, 0.00, 21.73, 0.00, 14.77, 14.77
CTUN, 203, 0.00, -0.16, 0.000000, 0.00, 7, 0, 210, 0
ATT, 0.00, 11.97, 0.00, 21.83, 0.00, 15.14, 15.14
CTUN, 201, 0.00, -0.15, 0.000000, 0.00, 7, 0, 210, 0
GPS, 3, 544434200, 10, 1.68, -33.7846235, 151.0675526, -0.13, 93.67, 0.10, 349.14
ATT, 0.00, 11.98, 0.00, 21.99, 0.00, 15.06, 15.06
CTUN, 201, 0.00, -0.11, 0.000000, 0.00, 7, -5, 208, 0
ATT, 0.00, 12.05, 0.00, 22.01, 0.00, 15.00, 15.00
CTUN, 200, 0.00, -0.16, 0.000000, 0.00, 7, -3, 207, 0
GPS, 3, 544434400, 10, 1.68, -33.7846238, 151.0675528, -0.14, 93.68, 0.06, 349.14
ATT, 0.00, 12.08, 0.00, 22.09, 0.00, 14.93, 14.93
CTUN, 199, 0.00, -0.07, 0.000000, 0.00, 7, -4, 206, 0
DU32, 7, 8825
CURR, 203, 6744, 1065, 776, 4752, 11.02401
ATT, 0.00, 12.10, 0.00, 22.08, 0.00, 14.93, 14.93
CTUN, 201, 0.00, -0.10, 0.000000, 0.00, 7, -3, 208, 0
GPS, 3, 544434600, 10, 1.68, -33.7846240, 151.0675529, -0.14, 93.70, 0.07, 349.14
ATT, 0.00, 12.14, 0.00, 22.02, 0.00, 15.03, 15.03
CTUN, 201, 0.00, -0.16, 0.000000, 0.00, 7, -1, 208, 0
ATT, 0.00, 12.13, 0.00, 21.85, 0.00, 15.27, 15.27
CTUN, 201, 0.00, -0.10, 0.000000, 0.00, 7, -2, 208, 0
GPS, 3, 544434800, 10, 1.68, -33.7846243, 151.0675531, -0.15, 93.71, 0.05, 349.14
CTUN, 201, 0.00, -0.18, 0.000000, 0.00, 7, -3, 208, 0
ATT, 0.00, 12.06, 0.00, 21.94, 0.00, 15.06, 15.06
CTUN, 201, 0.00, -0.24, 0.000000, 0.00, 7, 0, 208, 0
ATT, 0.00, 12.22, 0.00, 21.86, 0.00, 15.55, 15.55
GPS, 3, 544435000, 10, 1.68, -33.7846245, 151.0675533, -0.16, 93.72, 0.05, 349.14
CTUN, 200, 0.00, -0.04, 0.000000, 0.00, 7, -3, 206, 0
ATT, 0.00, 12.11, 0.00, 22.08, 0.00, 15.26, 15.26
CTUN, 200, 0.00, -0.19, 0.000000, 0.00, 7, -2, 207, 0
ATT, 0.00, 12.12, 0.00, 22.15, 0.00, 15.25, 15.25
GPS, 3, 544435200, 10, 1.68, -33.7846248, 151.0675535, -0.16, 93.72, 0.04, 349.14
CTUN, 200, 0.00, -0.24, 0.000000, 0.00, 7, 0, 207, 0
ATT, 0.00, 12.11, 0.00, 22.26, 0.00, 15.09, 15.09
CTUN, 200, 0.00, -0.23, 0.000000, 0.00, 7, 0, 207, 0
ATT, 0.00, 12.22, 0.00, 22.30, 0.00, 15.09, 15.09
GPS, 3, 544435400, 10, 1.68, -33.7846250, 151.0675537, -0.16, 93.75, 0.02, 349.14
CTUN, 200, 0.00, -0.26, 0.000000, 0.00, 7, 0, 207, 0
ATT, 0.00, 12.24, 0.00, 22.14, 0.00, 15.25, 15.25
DU32, 7, 8825
CURR, 200, 8819, 1061, 759, 4635, 13.21291
CTUN, 203, 0.00, -0.20, 0.000000, 0.00, 7, 1, 207, 0
ATT, 0.00, 12.17, 0.00, 21.85, 0.00, 15.44, 15.44
GPS, 3, 544435600, 10, 1.68, -33.7846252, 151.0675539, -0.17, 93.74, 0.02, 349.14
CTUN, 200, 0.00, -0.19, 0.000000, 0.00, 7, 0, 207, 0
ATT, 0.00, 12.06, 0.00, 22.08, 0.00, 15.17, 15.17
CTUN, 201, 0.00, -0.16, 0.000000, 0.00, 7, 0, 208, 0
ATT, 0.00, 12.23, 0.00, 22.20, 0.00, 15.18, 15.18
GPS, 3, 544435800, 10, 1.68, -33.7846253, 151.0675540, -0.17, 93.77, 0.03, 349.14
CTUN, 201, 0.00, -0.16, 0.000000, 0.00, 7, 1, 206, 0
ATT, 0.00, 12.33, 0.00, 22.19, 0.00, 15.35, 15.35
CTUN, 201, 0.00, -0.25, 0.000000, 0.00, 7, 3, 208, 0
ATT, 0.00, 12.05, 0.00, 21.99, 0.00, 15.29, 15.29
GPS, 3, 544436000, 10, 1.68, -33.7846254, 151.0675543, -0.17, 93.77, 0.04, 349.14
CTUN, 201, 0.00, -0.21, 0.000000, 0.00, 7, 1, 208, 0
ATT, 0.00, 12.02, 0.00, 22.06, 0.00, 15.09, 15.09
CTUN, 201, 0.00, -0.11, 0.000000, 0.00, 7, 4, 208, 0
ATT, 0.00, 12.20, 0.00, 22.19, 0.00, 15.05, 15.05
GPS, 3, 544436200, 10, 1.68, -33.7846256, 151.0675545, -0.16, 93.80, 0.01, 349.14
CTUN, 201, 0.00, -0.13, 0.000000, 0.00, 7, 8, 208, 0
ATT, 0.00, 12.22, 0.00, 21.93, 0.00, 15.37, 15.37
CTUN, 201, 0.00, -0.11, 0.000000, 0.00, 7, 8, 208, 0
ATT, 0.00, 12.05, 0.00, 21.89, 0.00, 15.24, 15.24
GPS, 3, 544436400, 10, 1.68, -33.7846258, 151.0675547, -0.15, 93.81, 0.01, 349.14
CTUN, 201, 0.00, -0.18, 0.000000, 0.00, 7, 8, 208, 0
DU32, 7, 8825
CURR, 201, 10898, 1059, 760, 4712, 15.36491
ATT, 0.00, 12.05, 0.00, 22.10, 0.00, 15.14, 15.14
CTUN, 201, 0.00, -0.17, 0.000000, 0.00, 7, 8, 208, 0
ATT, 0.00, 12.12, 0.00, 22.44, 0.00, 14.98, 14.98
GPS, 3, 544436600, 10, 1.68, -33.7846258, 151.0675548, -0.13, 93.82, 0.04, 349.14
CTUN, 200, 0.00, -0.13, 0.000000, 0.00, 7, 5, 207, 0
ATT, 0.00, 12.13, 0.00, 22.36, 0.00, 15.10, 15.10
CTUN, 199, 0.00, -0.19, 0.000000, 0.00, 7, 6, 207, 0
ATT, 0.00, 12.07, 0.00, 22.14, 0.00, 15.30, 15.30
GPS, 3, 544436800, 10, 1.68, -33.7846255, 151.0675548, -0.12, 93.85, 0.21, 349.14
CTUN, 201, 0.00, -0.14, 0.000000, 0.00, 7, 5, 208, 0
ATT, 0.00, 11.65, 0.00, 21.83, 0.00, 15.06, 15.06
CTUN, 201, 0.00, -0.19, 0.000000, 0.00, 7, 6, 208, 0
GPS, 3, 544437000, 10, 1.68, -33.7846256, 151.0675548, -0.11, 93.87, 0.14, 349.14
ATT, 0.00, 11.41, 0.00, 21.23, 0.00, 15.20, 15.20
CTUN, 201, 0.00, -0.20, 0.000000, 0.00, 6, 4, 207, 0
ATT, 0.00, 11.46, 0.00, 21.35, 0.00, 15.35, 15.35
CTUN, 201, 0.00, -0.25, 0.000000, 0.00, 6, 8, 207, 0
GPS, 3, 544437200, 10, 1.68, -33.7846257, 151.0675549, -0.11, 93.89, 0.08, 349.14
ATT, 0.00, 11.46, 0.00, 21.65, 0.00, 15.39, 15.39
CTUN, 201, 0.00, -0.20, 0.000000, 0.00, 7, 7, 208, 0
ATT, 0.00, 11.65, 0.00, 22.00, 0.00, 15.33, 15.33
CTUN, 201, 0.00, -0.18, 0.000000, 0.00, 7, 7, 207, 0
GPS, 3, 544437400, 10, 1.68, -33.7846259, 151.0675550, -0.11, 93.89, 0.06, 349.14
ATT, 0.00, 11.91, 0.00, 22.26, 0.00, 15.44, 15.44
CTUN, 201, 0.00, -0.22, 0.000000, 0.00, 7, 4, 208, 0
DU32, 7, 8825
CURR, 201, 12974, 1057, 767, 4693, 17.54741
ATT, 0.00, 12.10, 0.00, 22.07, 0.00, 15.82, 15.82
CTUN, 201, 0.00, -0.07, 0.000000, 0.00, 7, 4, 208, 0
GPS, 3, 544437600, 10, 1.68, -33.7846260, 151.0675551, -0.11, 93.91, 0.05, 349.14
ATT, 0.00, 12.12, 0.00, 22.09, 0.00, 15.77, 15.77
CTUN, 200, 0.00, -0.11, 0.000000, 0.00, 7, 8, 206, 0
ATT, 0.00, 12.05, 0.00, 22.08, 0.00, 15.73, 15.73
CTUN, 200, 0.00, -0.21, 0.000000, 0.00, 7, 6, 206, 0
GPS, 3, 544437800, 10, 1.68, -33.7846262, 151.0675552, -0.10, 93.92, 0.02, 349.14
ATT, 0.00, 11.89, 0.00, 22.04, 0.00, 15.55, 15.55
CTUN, 201, 0.00, -0.13, 0.000000, 0.00, 7, 4, 206, 0
ATT, 0.00, 11.84, 0.00, 22.21, 0.00, 15.46, 15.46
CTUN, 199, 0.00, -0.25, 0.000000, 0.00, 7, 4, 208, 0
GPS, 3, 544438000, 10, 1.68, -33.7846264, 151.0675554, -0.10, 93.95, 0.03, 349.14
ATT, 0.00, 11.92, 0.00, 22.27, 0.00, 15.55, 15.55
CTUN, 201, 0.00, -0.10, 0.000000, 0.00, 7, 4, 208, 0
ATT, 0.00, 11.93, 0.00, 22.18, 0.00, 15.66, 15.66
CTUN, 201, 0.00, -0.12, 0.000000, 0.00, 7, 3, 208, 0
GPS, 3, 544438200, 10, 1.68, -33.7846267, 151.0675555, -0.10, 93.95, 0.04, 349.14
ATT, 0.00, 12.09, 0.00, 22.38, 0.00, 15.54, 15.54
CTUN, 201, 0.00, -0.21, 0.000000, 0.00, 7, 2, 208, 0
ATT, 0.00, 12.10, 0.00, 22.33, 0.00, 15.71, 15.71
CTUN, 201, 0.00, -0.13, 0.000000, 0.00, 7, 6, 208, 0
GPS, 3, 544438400, 10, 1.68, -33.7846267, 151.0675556, -0.10, 93.97, 0.03, 349.14
ATT, 0.00, 11.97, 0.00, 22.34, 0.00, 15.69, 15.69
CTUN, 201, 0.00, -0.13, 0.000000, 0.00, 7, 6, 208, 0
DU32, 7, 8825
CURR, 201, 15046, 1057, 757, 4693, 19.66040
ATT, 0.00, 11.95, 0.00, 22.04, 0.00, 15.75, 15.75
CTUN, 201, 0.00, -0.26, 0.000000, 0.00, 7, 5, 208, 0
GPS, 3, 544438600, 10, 1.68, -33.7846266, 151.0675557, -0.09, 93.98, 0.07, 349.14
ATT, 0.00, 11.94, 0.00, 21.82, 0.00, 15.78, 15.78
CTUN, 201, 0.00, -0.12, 0.000000, 0.00, 7, 6, 208, 0
ATT, 0.00, 11.74, 0.00, 21.83, 0.00, 15.59, 15.59
CTUN, 201, 0.00, -0.12, 0.000000, 0.00, 7, 6, 208, 0
GPS, 3, 544438800, 10, 1.68, -33.7846264, 151.0675557, -0.09, 94.01, 0.13, 349.14
ATT, 0.00, 11.64, 0.00, 21.87, 0.00, 15.45, 15.45
CTUN, 201, 0.00, -0.13, 0.000000, 0.00, 6, 1, 207, 0
ATT, 0.00, 11.68, 0.00, 21.77, 0.00, 15.58, 15.58
CTUN, 201, 0.00, -0.14, 0.000000, 0.00, 6, 3, 207, 0
GPS, 3, 544439000, 10, 1.68, -33.7846262, 151.0675557, -0.09, 94.04, 0.16, 349.14
ATT, 0.00, 11.62, 0.00, 21.59, 0.00, 15.72, 15.72
CTUN, 201, 0.00, -0.15, 0.000000, 0.00, 7, 4, 208, 0
ATT, 0.00, 11.53, 0.00, 21.67, 0.00, 15.57, 15.57
CTUN, 201, 0.00, -0.22, 0.000000, 0.00, 6, 4, 207, 0
GPS, 3, 544439200, 10, 1.68, -33.7846257, 151.0675555, -0.09, 94.09, 0.24, 349.14
ATT, 0.00, 11.30, 0.00, 21.60, 0.00, 15.50, 15.50
CTUN, 201, 0.00, -0.18, 0.000000, 0.00, 6, 5, 207, 0
ATT, 0.00, 11.15, 0.00, 21.55, 0.00, 15.37, 15.37
CTUN, 200, 0.00, -0.18, 0.000000, 0.00, 6, 5, 206, 0
GPS, 3, 544439400, 10, 1.68, -33.7846254, 151.0675555, -0.09, 94.14, 0.16, 349.14
ATT, 0.00, 11.08, 0.00, 21.57, 0.00, 15.40, 15.40
CTUN, 201, 0.00, -0.24, 0.000000, 0.00, 6, 3, 209, 0
DU32, 7, 8825
CURR, 201, 17123, 1059, 760, 4752, 21.78022
ATT, 0.00, 11.35, 0.00, 21.74, 0.00, 15.55, 15.55
CTUN, 201, 0.00, -0.18, 0.000000, 0.00, 6, 2, 207, 0
GPS, 3, 544439600, 10, 1.68, -33.7846253, 151.0675555, -0.09, 94.17, 0.11, 349.14
ATT, 0.00, 11.57, 0.00, 21.75, 0.00, 15.86, 15.86
CTUN, 203, 0.00, -0.17, 0.000000, 0.00, 6, 5, 205, 0
ATT, 0.00, 11.58, 0.00, 21.90, 0.00, 15.88, 15.88
CTUN, 201, 0.00, -0.24, 0.000000, 0.00, 7, 3, 208, 0
GPS, 3, 544439800, 10, 1.68, -33.7846250, 151.0675555, -0.10, 94.18, 0.17, 349.14
ATT, 0.00, 11.60, 0.00, 22.00, 0.00, 15.88, 15.88
CTUN, 203, 0.00, -0.26, 0.000000, 0.00, 7, 3, 210, 0
ATT, 0.00, 11.65, 0.00, 21.95, 0.00, 16.05, 16.05
CTUN, 203, 0.00, -0.20, 0.000000, 0.00, 7, 1, 210, 0
GPS, 3, 544440000, 10, 1.68, -33.7846246, 151.0675554, -0.11, 94.24, 0.21, 349.14
ATT, 0.00, 11.71, 0.00, 22.09, 0.00, 16.44, 16.44
CTUN, 200, 0.00, -0.25, 0.000000, 0.00, 7, 0, 207, 0
ATT, 0.00, 11.51, 0.00, 22.20, 0.00, 16.47, 16.47
CTUN, 200, 0.00, -0.17, 0.000000, 0.00, 7, 0, 207, 0
GPS, 3, 544440200, 10, 1.68, -33.7846243, 151.0675553, -0.12, 94.26, 0.19, 349.14
ATT, 0.00, 11.53, 0.00, 22.11, 0.00, 16.75, 16.75
CTUN, 200, 0.00, -0.17, 0.000000, 0.00, 7, 0, 207, 0
ATT, 0.00, 11.58, 0.00, 22.05, 0.00, 16.89, 16.89
CTUN, 200, 0.00, -0.19, 0.000000, 0.00, 7, 0, 207, 0
GPS, 3, 544440400, 10, 1.68, -33.7846241, 151.0675553, -0.13, 94.29, 0.13, 349.14
ATT, 0.00, 11.71, 0.00, 21.92, 0.00, 17.30, 17.30
CTUN, 200, 0.00, -0.18, 0.000000, 0.00, 7, -1, 207, 0
DU32, 7, 8825
CURR, 200, 19200, 1064, 741, 4693, 23.86930
ATT, 0.00, 11.75, 0.00, 22.13, 0.00, 17.34, 17.34
CTUN, 200, 0.00, -0.15, 0.000000, 0.00, 7, -2, 207, 0
GPS, 3, 544440600, 10, 1.68, -33.7846240, 151.0675554, -0.14, 94.31, 0.05, 349.14
ATT, 0.00, 12.08, 0.00, 22.34, 0.00, 17.74, 17.74
CTUN, 200, 0.00, -0.28, 0.000000, 0.00, 7, -2, 207, 0
ATT, 0.00, 12.12, 0.00, 22.42, 0.00, 17.69, 17.69
CTUN, 200, 0.00, -0.23, 0.000000, 0.00, 7, -2, 207, 0
GPS, 3, 544440800, 10, 1.68, -33.7846238, 151.0675554, -0.15, 94.35, 0.07, 349.14
ATT, 0.00, 12.34, 0.00, 22.76, 0.00, 17.79, 17.79
CTUN, 200, 0.00, -0.07, 0.000000, 0.00, 7, -2, 207, 0
ATT, 0.00, 12.16, 0.00, 22.94, 0.00, 17.49, 17.49
CTUN, 200, 0.00, -0.17, 0.000000, 0.00, 7, -4, 207, 0
GPS, 3, 544441000, 10, 1.68, -33.7846236, 151.0675555, -0.16, 94.36, 0.07, 349.14
ATT, 0.00, 12.06, 0.00, 22.90, 0.00, 17.48, 17.48
CTUN, 199, 0.00, -0.14, 0.000000, 0.00, 7, -1, 206, 0
ATT, 0.00, 12.11, 0.00, 22.76, 0.00, 17.48, 17.48
CTUN, 200, 0.00, -0.18, 0.000000, 0.00, 7, -2, 207, 0
GPS, 3, 544441200, 10, 1.68, -33.7846230, 151.0675553, -0.16, 94.39, 0.18, 349.14
ATT, 0.00, 12.19, 0.00, 22.62, 0.00, 17.57, 17.57
CTUN, 200, 0.00, -0.20, 0.000000, 0.00, 7, 0, 207, 0
ATT, 0.00, 11.97, 0.00, 22.57, 0.00, 17.30, 17.30
CTUN, 200, 0.00, -0.18, 0.000000, 0.00, 7, 0, 207, 0
GPS, 3, 544441400, 10, 1.68, -33.7846226, 151.0675553, -0.17, 94.41, 0.17, 349.14
ATT, 0.00, 11.83, 0.00, 22.54, 0.00, 17.19, 17.19
CTUN, 200, 0.00, -0.23, 0.000000, 0.00, 7, 0, 207, 0
DU32, 7, 8825
CURR, 200, 21273, 1053, 743, 4712, 25.95185
ATT, 0.00, 11.86, 0.00, 22.54, 0.00, 17.71, 17.71
CTUN, 199, 0.00, -0.15, 0.000000, 0.00, 7, 0, 208, 0
GPS, 3, 544441600, 10, 1.68, -33.7846224, 151.0675554, -0.17, 94.43, 0.06, 349.14
ATT, 0.00, 12.06, 0.00, 22.50, 0.00, 18.50, 18.50
CTUN, 200, 0.00, -0.15, 0.000000, 0.00, 7, 2, 207, 0
ATT, 0.00, 12.10, 0.00, 22.82, 0.00, 18.19, 18.19
CTUN, 200, 0.00, -0.19, 0.000000, 0.00, 7, 0, 207, 0
GPS, 3, 544441800, 10, 1.68, -33.7846219, 151.0675552, -0.17, 94.46, 0.13, 349.14
ATT, 0.00, 12.33, 0.00, 22.98, 0.00, 18.33, 18.33
CTUN, 201, 0.00, -0.17, 0.000000, 0.00, 7, 0, 208, 0
ATT, 0.00, 12.12, 0.00, 23.00, 0.00, 18.17, 18.17
CTUN, 201, 0.00, -0.14, 0.000000, 0.00, 7, 1, 208, 0
GPS, 3, 544442000, 10, 1.68, -33.7846214, 151.0675552, -0.16, 94.50, 0.17, 349.14
ATT, 0.00, 11.68, 0.00, 22.69, 0.00, 18.13, 18.13
CTUN, 200, 0.00, -0.21, 0.000000, 0.00, 7, 0, 207, 0
ATT, 0.00, 11.67, 0.00, 22.45, 0.00, 18.42, 18.42
CTUN, 200, 0.00, -0.11, 0.000000, 0.00, 7, 0, 208, 0
GPS, 3, 544442200, 10, 1.68, -33.7846209, 151.0675550, -0.17, 94.52, 0.20, 349.14
ATT, 0.00, 11.70, 0.00, 22.45, 0.00, 18.29, 18.29
CTUN, 200, 0.00, -0.17, 0.000000, 0.00, 7, 0, 207, 0
ATT, 0.00, 11.71, 0.00, 22.57, 0.00, 18.22, 18.22
CTUN, 200, 0.00, -0.21, 0.000000, 0.00, 7, -1, 207, 0
GPS, 3, 544442400, 10, 1.68, -33.7846206, 151.0675550, -0.16, 94.51, 0.15, 349.14
ATT, 0.00, 11.73, 0.00, 22.53, 0.00, 18.36, 18.36
CTUN, 200, 0.00, -0.16, 0.000000, 0.00, 7, 0, 207, 0
DU32, 7, 8825
CURR, 200, 23350, 1058, 807, 4752, 28.02555
ATT, 0.00, 11.79, 0.00, 22.27, 0.00, 18.47, 18.47
CTUN, 201, 0.00, -0.18, 0.000000, 0.00, 7, 0, 208, 0
GPS, 3, 544442600, 10, 1.68, -33.7846201, 151.0675549, -0.17, 94.55, 0.16, 349.14
ATT, 0.00, 12.06, 0.00, 22.39, 0.00, 18.47, 18.47
CTUN, 201, 0.00, -0.18, 0.000000, 0.00, 7, -1, 208, 0
ATT, 0.00, 12.07, 0.00, 22.59, 0.00, 18.29, 18.29
CTUN, 201, 0.00, -0.14, 0.000000, 0.00, 7, 0, 208, 0
GPS, 3, 544442800, 10, 1.68, -33.7846198, 151.0675550, -0.17, 94.57, 0.14, 349.14
ATT, 0.00, 11.93, 0.00, 22.69, 0.00, 18.26, 18.26
CTUN, 201, 0.00, -0.29, 0.000000, 0.00, 7, 0, 207, 0
ATT, 0.00, 11.93, 0.00, 22.67, 0.00, 18.20, 18.20
CTUN, 201, 0.00, -0.16, 0.000000, 0.00, 7, -1, 208, 0
GPS, 3, 544443000, 10, 1.68, -33.7846195, 151.0675549, -0.18, 94.58, 0.12, 349.14
ATT, 0.00, 12.09, 0.00, 22.71, 0.00, 18.28, 18.28
CTUN, 201, 0.00, -0.16, 0.000000, 0.00, 7, 0, 208, 0
PM, 0, 0, 50, 0, 1000, 10476, 0, 4
ATT, 0.00, 12.06, 0.00, 22.68, 0.00, 18.32, 18.32
CTUN, 200, 0.00, -0.29, 0.000000, 0.00, 7, 0, 207, 0
GPS, 3, 544443200, 10, 1.68, -33.7846190, 151.0675548, -0.18, 94.61, 0.18, 349.14
ATT, 0.00, 12.08, 0.00, 22.66, 0.00, 18.42, 18.42
CTUN, 200, 0.00, -0.17, 0.000000, 0.00, 7, 1, 207, 0
ATT, 0.00, 11.96, 0.00, 22.60, 0.00, 18.30, 18.30
CTUN, 201, 0.00, -0.16, 0.000000, 0.00, 7, 0, 207, 0
GPS, 3, 544443400, 10, 1.68, -33.7846184, 151.0675547, -0.18, 94.62, 0.21, 349.14
ATT, 0.00, 11.98, 0.00, 22.46, 0.00, 18.23, 18.23
CTUN, 199, 0.00, -0.18, 0.000000, 0.00, 7, 0, 206, 0
DU32, 7, 8825
CURR, 199, 25425, 1051, 747, 4712, 30.07707
ATT, 0.00, 11.96, 0.00, 22.31, 0.00, 18.27, 18.27
CTUN, 200, 0.00, -0.19, 0.000000, 0.00, 7, 0, 206, 0
GPS, 3, 544443600, 10, 1.68, -33.7846180, 151.0675547, -0.18, 94.67, 0.16, 349.14
ATT, 0.00, 11.99, 0.00, 22.26, 0.00, 18.33, 18.33
CTUN, 201, 0.00, -0.13, 0.000000, 0.00, 7, 1, 208, 0
ATT, 0.00, 12.02, 0.00, 22.36, 0.00, 18.28, 18.28
CTUN, 201, 0.00, -0.21, 0.000000, 0.00, 7, 1, 208, 0
GPS, 3, 544443800, 10, 1.68, -33.7846176, 151.0675547, -0.17, 94.69, 0.17, 349.14
ATT, 0.00, 12.10, 0.00, 22.58, 0.00, 18.25, 18.25
CTUN, 200, 0.00, -0.14, 0.000000, 0.00, 7, 0, 208, 0
ATT, 0.00, 12.04, 0.00, 22.49, 0.00, 18.21, 18.21
CTUN, 200, 0.00, -0.15, 0.000000, 0.00, 7, 0, 207, 0
GPS, 3, 544444000, 10, 1.68, -33.7846174, 151.0675547, -0.17, 94.69, 0.10, 349.14
ATT, 0.00, 11.98, 0.00, 22.30, 0.00, 18.30, 18.30
CTUN, 200, 0.00, -0.19, 0.000000, 0.00, 7, 0, 207, 0
ATT, 0.00, 12.10, 0.00, 22.51, 0.00, 18.19, 18.19
CTUN, 200, 0.00, -0.18, 0.000000, 0.00, 7, -2, 207, 0
GPS, 3, 544444200, 10, 1.68, -33.7846173, 151.0675548, -0.17, 94.69, 0.02, 349.14
ATT, 0.00, 12.21, 0.00, 22.55, 0.00, 18.39, 18.39
CTUN, 201, 0.00, -0.21, 0.000000, 0.00, 7, 0, 208, 0
ATT, 0.00, 12.10, 0.00, 22.66, 0.00, 18.73, 18.73
CTUN, 201, 0.00, -0.14, 0.000000, 0.00, 7, -3, 206, 0
GPS, 3, 544444400, 10, 1.68, -33.7846170, 151.0675547, -0.18, 94.71, 0.05, 349.14
ATT, 0.00, 12.20, 0.00, 22.61, 0.00, 18.80, 18.80
CTUN, 200, 0.00, -0.05, 0.000000, 0.00, 7, -3, 207, 0
DU32, 7, 8825
CURR, 200, 27497, 1062, 734, 4673, 32.13109
ATT, 0.00, 12.14, 0.00, 22.74, 0.00, 18.60, 18.60
CTUN, 200, 0.00, -0.24, 0.000000, 0.00, 7, -3, 207, 0
GPS, 3, 544444600, 10, 1.68, -33.7846168, 151.0675547, -0.18, 94.72, 0.04, 349.14
ATT, 0.00, 12.03, 0.00, 22.80, 0.00, 18.68, 18.68
CTUN, 200, 0.00, -0.20, 0.000000, 0.00, 7, -4, 207, 0
ATT, 0.00, 12.04, 0.00, 22.78, 0.00, 18.53, 18.53
CTUN, 200, 0.00, -0.11, 0.000000, 0.00, 7, -5, 207, 0
GPS, 3, 544444800, 10, 1.68, -33.7846167, 151.0675547, -0.19, 94.73, 0.01, 349.14
ATT, 0.00, 12.08, 0.00, 22.69, 0.00, 18.63, 18.63
CTUN, 200, 0.00, -0.29, 0.000000, 0.00, 7, -5, 207, 0
ATT, 0.00, 12.09, 0.00, 22.74, 0.00, 18.61, 18.61
CTUN, 200, 0.00, -0.20, 0.000000, 0.00, 7, -5, 207, 0
GPS, 3, 544445000, 10, 1.68, -33.7846166, 151.0675549, -0.20, 94.75, 0.04, 349.14
ATT, 0.00, 12.05, 0.00, 22.70, 0.00, 18.75, 18.75
CTUN, 201, 0.00, -0.15, 0.000000, 0.00, 7, -4, 207, 0
ATT, 0.00, 12.14, 0.00, 22.59, 0.00, 18.81, 18.81
CTUN, 201, 0.00, -0.28, 0.000000, 0.00, 7, -4, 207, 0
GPS, 3, 544445200, 10, 1.68, -33.7846160, 151.0675547, -0.21, 94.77, 0.13, 349.14
ATT, 0.00, 12.23, 0.00, 22.50, 0.00, 18.86, 18.86
CTUN, 203, 0.00, -0.17, 0.000000, 0.00, 7, -5, 207, 0
ATT, 0.00, 11.88, 0.00, 22.25, 0.00, 18.68, 18.68
CTUN, 201, 0.00, -0.20, 0.000000, 0.00, 7, -6, 208, 0
GPS, 3, 544445400, 10, 1.68, -33.7846156, 151.0675548, -0.22, 94.81, 0.16, 349.14
ATT, 0.00, 11.49, 0.00, 21.89, 0.00, 18.56, 18.56
CTUN, 201, 0.00, -0.14, 0.000000, 0.00, 7, -6, 208, 0
DU32, 7, 8825
CURR, 201, 29570, 1059, 741, 4732, 34.16502
ATT, 0.00, 11.49, 0.00, 21.84, 0.00, 18.33, 18.33
CTUN, 200, 0.00, -0.18, 0.000000, 0.00, 7, -6, 208, 0
GPS, 3, 544445600, 10, 1.68, -33.7846153, 151.0675548, -0.23, 94.84, 0.07, 349.14
ATT, 0.00, 11.65, 0.00, 21.97, 0.00, 18.64, 18.64
CTUN, 200, 0.00, -0.23, 0.000000, 0.00, 7, -6, 207, 0
ATT, 0.00, 11.64, 0.00, 22.02, 0.00, 19.25, 19.25
CTUN, 200, 0.00, -0.19, 0.000000, 0.00, 7, -6, 207, 0
GPS, 3, 544445800, 10, 1.68, -33.7846151, 151.0675548, -0.24, 94.87, 0.04, 349.14
ATT, 0.00, 11.66, 0.00, 22.38, 0.00, 19.60, 19.60
CTUN, 199, 0.00, -0.15, 0.000000, 0.00, 7, -7, 206, 0
ATT, 0.00, 11.77, 0.00, 22.51, 0.00, 19.56, 19.56
CTUN, 200, 0.00, -0.19, 0.000000, 0.00, 7, -7, 207, 0
GPS, 3, 544446000, 10, 1.68, -33.7846147, 151.0675547, -0.24, 94.91, 0.06, 349.14
ATT, 0.00, 11.87, 0.00, 22.51, 0.00, 19.66, 19.66
CTUN, 199, 0.00, -0.20, 0.000000, 0.00, 7, -6, 207, 0
ATT, 0.00, 11.86, 0.00, 22.31, 0.00, 19.95, 19.95
CTUN, 200, 0.00, -0.18, 0.000000, 0.00, 7, -4, 207, 0
GPS, 3, 544446200, 10, 1.68, -33.7846145, 151.0675548, -0.25, 94.93, 0.03, 349.14
ATT, 0.00, 11.79, 0.00, 22.18, 0.00, 20.25, 20.25
CTUN, 199, 0.00, -0.19, 0.000000, 0.00, 7, -7, 207, 0
ATT, 0.00, 11.68, 0.00, 22.46, 0.00, 20.20, 20.20
CTUN, 199, 0.00, -0.21, 0.000000, 0.00, 7, -6, 206, 0
GPS, 3, 544446400, 10, 1.68, -33.7846141, 151.0675548, -0.25, 94.96, 0.06, 349.14
ATT, 0.00, 11.62, 0.00, 22.07, 0.00, 21.39, 21.39
CTUN, 201, 0.00, -0.18, 0.000000, 0.00, 7, -1, 208, 0
DU32, 7, 8825
CURR, 201, 31637, 1059, 629, 4693, 36.12673
ATT, 0.00, 11.55, 0.00, 22.17, 0.00, 22.39, 22.39
CTUN, 201, 0.00, -0.19, 0.000000, 0.00, 7, -8, 208, 0
GPS, 3, 544446600, 10, 1.68, -33.7846135, 151.0675545, -0.26, 95.00, 0.21, 349.14
ATT, 0.00, 11.54, 0.00, 22.45, 0.00, 22.91, 22.91
CTUN, 201, 0.00, -0.17, 0.000000, 0.00, 7, -12, 208, 0
ATT, 0.00, 11.42, 0.00, 22.22, 0.00, 23.61, 23.61
CTUN, 201, 0.00, -0.19, 0.000000, 0.00, 7, -7, 208, 0
GPS, 3, 544446800, 10, 1.68, -33.7846131, 151.0675544, -0.26, 95.02, 0.18, 349.14
ATT, 0.00, 10.80, 0.00, 22.25, 0.00, 23.28, 23.28
CTUN, 201, 0.00, -0.33, 0.000000, 0.00, 7, -7, 208, 0
ATT, 0.00, 11.33, 0.00, 22.47, 0.00, 24.62, 24.62
CTUN, 201, 0.00, -0.16, 0.000000, 0.00, 7, -10, 208, 0
GPS, 3, 544447000, 10, 1.68, -33.7846129, 151.0675544, -0.28, 95.03, 0.09, 349.14
ATT, 0.00, 11.29, 0.00, 22.29, 0.00, 25.74, 25.74
CTUN, 201, 0.00, -0.15, 0.000000, 0.00, 7, -10, 208, 0
ATT, 0.00, 11.81, 0.00, 22.71, 0.00, 26.43, 26.43
CTUN, 200, 0.00, -0.12, 0.000000, 0.00, 7, -7, 207, 0
GPS, 3, 544447200, 10, 1.68, -33.7846127, 151.0675544, -0.28, 95.08, 0.05, 349.14
ATT, 0.00, 11.70, 0.00, 22.68, 0.00, 27.12, 27.12
CTUN, 199, 0.00, -0.17, 0.000000, 0.00, 8, -8, 209, 0
ATT, 0.00, 12.18, 0.00, 22.80, 0.00, 28.42, 28.42
CTUN, 201, 0.00, -0.28, 0.000000, 0.00, 8, -1, 209, 0
GPS, 3, 544447400, 10, 1.68, -33.7846122, 151.0675543, -0.28, 95.11, 0.07, 349.14
ATT, 0.00, 11.85, 0.00, 22.85, 0.00, 28.74, 28.74
CTUN, 201, 0.00, -0.27, 0.000000, 0.00, 7, -8, 208, 0
DU32, 7, 8825
CURR, 201, 33715, 1056, 613, 4732, 38.13034
ATT, 0.00, 12.19, 0.00, 23.08, 0.00, 29.23, 29.23
CTUN, 201, 0.00, -0.19, 0.000000, 0.00, 7, -7, 208, 0
GPS, 3, 544447600, 10, 1.68, -33.7846120, 151.0675543, -0.29, 95.13, 0.03, 349.14
ATT, 0.00, 11.90, 0.00, 22.96, 0.00, 29.45, 29.45
CTUN, 201, 0.00, -0.31, 0.000000, 0.00, 8, 3, 209, 0
ATT, 0.00, 12.05, 0.00, 23.03, 0.00, 30.63, 30.63
CTUN, 201, 0.00, -0.33, 0.000000, 0.00, 8, -2, 209, 0
GPS, 3, 544447800, 10, 1.68, -33.7846117, 151.0675543, -0.29, 95.09, 0.06, 349.14
ATT, 0.00, 12.60, 0.00, 23.50, 0.00, 31.01, 31.01
