dump 1

ArduCopter V3.1-rc2
Free RAM: 1349
APM 2
FMT, 128, 89, FMT, BBnNZ, Type,Length,Name,Format
FMT, 129, 23, PARM, Nf, Name,Value
FMT, 130, 35, GPS, BIBcLLeeEe, Status,Time,NSats,HDop,Lat,Lng,RelAlt,Alt,Spd,GCrs
FMT, 131, 27, IMU, ffffff, GyrX,GyrY,GyrZ,AccX,AccY,AccZ
FMT, 132, 67, MSG, Z, Message
FMT, 9, 19, CURR, hIhhhf, Thr,ThrInt,Volt,Curr,Vcc,CurrTot
FMT, 11, 11, MOT, hhhh, Mot1,Mot2,Mot3,Mot4
FMT, 12, 28, OF, hhBccffee, Dx,Dy,SQual,X,Y,Lat,Lng,Roll,Pitch
FMT, 5, 49, NTUN, Ecffffffffee, WPDst,WPBrg,PErX,PErY,DVelX,DVelY,VelX,VelY,DAcX,DAcY,DRol,DPit
FMT, 4, 25, CTUN, hcefchhhh, ThrIn,SonAlt,BarAlt,WPAlt,DesSonAlt,AngBst,CRate,ThrOut,DCRate
FMT, 15, 21, MAG, hhhhhhhhh, MagX,MagY,MagZ,OfsX,OfsY,OfsZ,MOfsX,MOfsY,MOfsZ
FMT, 6, 17, PM, BBBHHIhB, RenCnt,RenBlw,FixCnt,NLon,NLoop,MaxT,PMT,I2CErr
FMT, 8, 20, CMD, BBBBBeLL, CTot,CNum,CId,COpt,Prm1,Alt,Lat,Lng
FMT, 1, 17, ATT, cccccCC, RollIn,Roll,PitchIn,Pitch,YawIn,Yaw,NavYaw
FMT, 17, 37, INAV, cccfffiiff, BAlt,IAlt,IClb,ACorrX,ACorrY,ACorrZ,GLat,GLng,ILat,ILng
FMT, 3, 6, MODE, Mh, Mode,ThrCrs
FMT, 10, 3, STRT, , 
FMT, 13, 4, EV, B, Id
FMT, 20, 6, D16, Bh, Id,Value
FMT, 21, 6, DU16, BH, Id,Value
FMT, 22, 8, D32, Bi, Id,Value
FMT, 23, 8, DU32, BI, Id,Value
FMT, 24, 8, DFLT, Bf, Id,Value
FMT, 14, 28, PID, Biiiiif, Id,Error,P,I,D,Out,Gain
FMT, 16, 15, DMP, ccccCC, DCMRoll,DMPRoll,DCMPtch,DMPPtch,DCMYaw,DMPYaw
FMT, 18, 25, CAM, ILLeccC, GPSTime,Lat,Lng,Alt,Roll,Pitch,Yaw
FMT, 19, 5, ERR, BB, Subsys,ECode
D32, 9, 2526
CMD, 6, 0, 16, 0, 0, 0.00, -33.7840693, 151.0681773
EV, 10
GPS, 3, 457662200, 13, 1.21, -33.7840695, 151.0681772, 0.32, 91.04, 0.01, 0.00
CTUN, 0, 0.00, 0.00, 0.000000, 0.00, 0, 0, 0, 0
ATT, 0.00, -0.90, 0.00, -0.18, 0.00, 25.31, 25.31
CTUN, 0, 0.00, 0.00, 0.000000, 0.00, 0, 0, 0, 0
GPS, 3, 457669600, 13, 1.21, -33.7840736, 151.0681729, 0.30, 92.16, 0.02, 0.00
ATT, 0.00, -0.79, 0.00, -0.37, 0.00, 25.27, 25.27
CTUN, 0, 0.00, -0.03, 0.000000, 0.00, 0, 0, 0, 0
ATT, 0.00, -0.79, 0.00, -0.36, 0.00, 25.26, 25.26
CTUN, 0, 0.00, -0.05, 0.000000, 0.00, 0, 0, 0, 0
GPS, 3, 457669800, 12, 1.25, -33.7840736, 151.0681729, 0.26, 92.20, 0.02, 0.00
ATT, 0.00, -0.80, 0.00, -0.34, 0.00, 25.24, 25.24
CTUN, 0, 0.00, -0.08, 0.000000, 0.00, 0, -1, 0, 0
ATT, 0.00, -0.80, 0.00, -0.32, 0.00, 25.22, 25.22
CTUN, 0, 0.00, -0.05, 0.000000, 0.00, 0, -1, 0, 0
GPS, 3, 457670000, 12, 1.25, -33.7840737, 151.0681730, 0.21, 92.21, 0.03, 0.00
ATT, 0.00, -0.80, 0.00, -0.31, 0.00, 25.22, 25.22
CTUN, 0, 0.00, -0.01, 0.000000, 0.00, 0, -2, 0, 0
PM, 0, 0, 51, 4, 1000, 7307084, 0, 4
ATT, 0.00, -0.80, 0.00, -0.30, 0.00, 25.21, 25.21
CTUN, 0, 0.00, -0.11, 0.000000, 0.00, 0, -2, 0, 0
GPS, 3, 457670200, 12, 1.25, -33.7840737, 151.0681731, 0.18, 92.23, 0.02, 0.00
DU32, 7, 98393
CURR, 0, 0, 1102, 0, 4505, 0.000000
ATT, 0.00, -0.80, 0.00, -0.29, 0.00, 25.21, 25.21
CTUN, 0, 0.00, -0.04, 0.000000, 0.00, 0, -2, 0, 0
ATT, 0.00, -0.81, 0.00, -0.29, 0.00, 25.21, 25.21
CTUN, 0, 0.00, -0.12, 0.000000, 0.00, 0, -3, 0, 0
GPS, 3, 457670400, 11, 1.27, -33.7840737, 151.0681732, 0.14, 92.24, 0.00, 0.00
ATT, 0.00, -0.81, 0.00, -0.29, 0.00, 25.22, 25.22
CTUN, 0, 0.00, -0.10, 0.000000, 0.00, 0, -3, 0, 0
ATT, 0.00, -0.82, 0.00, -0.28, 0.00, 25.19, 25.19
CTUN, 0, 0.00, -0.04, 0.000000, 0.00, 0, -3, 0, 0
GPS, 3, 457670600, 12, 1.25, -33.7840737, 151.0681732, 0.11, 92.27, 0.02, 0.00
ATT, 0.00, -0.82, 0.00, -0.27, 0.00, 25.19, 25.19
CTUN, 0, 0.00, -0.06, 0.000000, 0.00, 0, -3, 0, 0
ATT, 0.00, -0.83, 0.00, -0.25, 0.00, 25.19, 25.19
CTUN, 0, 0.00, -0.16, 0.000000, 0.00, 0, -4, 0, 0
GPS, 3, 457670800, 12, 1.25, -33.7840737, 151.0681734, 0.08, 92.29, 0.02, 0.00
ATT, 0.00, -0.84, 0.00, -0.24, 0.00, 25.19, 25.19
CTUN, 0, 0.00, -0.04, 0.000000, 0.00, 0, -4, 0, 0
ATT, 0.00, -0.84, 0.00, -0.24, 0.00, 25.17, 25.17
CTUN, 0, 0.00, -0.12, 0.000000, 0.00, 0, -4, 0, 0
GPS, 3, 457671000, 12, 1.25, -33.7840736, 151.0681734, 0.05, 92.31, 0.02, 0.00
ATT, 0.00, -0.84, 0.00, -0.23, 0.00, 25.17, 25.17
CTUN, 0, 0.00, -0.12, 0.000000, 0.00, 0, -4, 0, 0
ATT, 0.00, -0.85, 0.00, -0.22, 0.00, 25.16, 25.16
CTUN, 0, 0.00, 0.00, 0.000000, 0.00, 0, -5, 0, 0
GPS, 3, 457671200, 11, 1.27, -33.7840736, 151.0681736, 0.02, 92.32, 0.01, 0.00
DU32, 7, 98393
CURR, 0, 0, 1102, 0, 4487, 0.000000
ATT, 0.00, -0.86, 0.00, -0.21, 0.00, 25.16, 25.16
CTUN, 0, 0.00, -0.11, 0.000000, 0.00, 0, -5, 0, 0
ATT, 0.00, -0.86, 0.00, -0.20, 0.00, 25.16, 25.16
CTUN, 0, 0.00, -0.11, 0.000000, 0.00, 0, -5, 0, 0
GPS, 3, 457671400, 11, 1.27, -33.7840736, 151.0681737, 0.00, 92.33, 0.04, 0.00
ATT, 0.00, -0.86, 0.00, -0.19, 0.00, 25.16, 25.16
CTUN, 0, 0.00, -0.07, 0.000000, 0.00, 0, -5, 0, 0
ATT, 0.00, -0.88, 0.00, -0.17, 0.00, 25.15, 25.15
CTUN, 0, 0.00, -0.12, 0.000000, 0.00, 0, -5, 0, 0
GPS, 3, 457671600, 12, 1.23, -33.7840736, 151.0681739, -0.01, 92.33, 0.02, 0.00
ATT, 0.00, -0.88, 0.00, -0.16, 0.00, 25.16, 25.16
CTUN, 0, 0.00, -0.07, 0.000000, 0.00, 0, -5, 0, 0
ATT, 0.00, -0.87, 0.00, -0.17, 0.00, 25.15, 25.15
CTUN, 0, 0.00, -0.16, 0.000000, 0.00, 0, -5, 0, 0
GPS, 3, 457671800, 12, 1.23, -33.7840736, 151.0681741, -0.03, 92.32, 0.01, 0.00
ATT, 0.00, -0.86, 0.00, -0.16, 0.00, 25.15, 25.15
CTUN, 0, 0.00, -0.09, 0.000000, 0.00, 0, -6, 0, 0
ATT, 0.00, -0.87, 0.00, -0.14, 0.00, 25.14, 25.14
CTUN, 0, 0.00, -0.13, 0.000000, 0.00, 0, -6, 0, 0
GPS, 3, 457672000, 12, 1.23, -33.7840737, 151.0681742, -0.06, 92.31, 0.02, 0.00
ATT, 0.00, -0.87, 0.00, -0.14, 0.00, 25.14, 25.14
CTUN, 0, 0.00, -0.18, 0.000000, 0.00, 0, -6, 0, 0
ATT, 0.00, -0.87, 0.00, -0.11, 0.00, 25.14, 25.14
CTUN, 0, 0.00, -0.16, 0.000000, 0.00, 0, -6, 0, 0
GPS, 3, 457672200, 12, 1.23, -33.7840737, 151.0681743, -0.08, 92.31, 0.01, 0.00
DU32, 7, 98393
CURR, 0, 0, 1102, 0, 4487, 0.000000
ATT, 0.00, -0.87, 0.00, -0.11, 0.00, 25.13, 25.13
CTUN, 0, 0.00, -0.13, 0.000000, 0.00, 0, -6, 0, 0
ATT, 0.00, -0.87, 0.00, -0.10, 0.00, 25.13, 25.13
CTUN, 0, 0.00, -0.03, 0.000000, 0.00, 0, -6, 0, 0
GPS, 3, 457672400, 12, 1.27, -33.7840737, 151.0681745, -0.10, 92.29, 0.01, 0.00
ATT, 0.00, -0.88, 0.00, -0.10, 0.00, 25.12, 25.12
CTUN, 0, 0.00, -0.01, 0.000000, 0.00, 0, -6, 0, 0
ATT, 0.00, -0.88, 0.00, -0.10, 0.00, 25.13, 25.13
CTUN, 0, 0.00, -0.14, 0.000000, 0.00, 0, -6, 0, 0
GPS, 3, 457672600, 12, 1.27, -33.7840737, 151.0681746, -0.10, 92.29, 0.02, 0.00
ATT, 0.00, -0.89, 0.00, -0.08, 0.00, 25.13, 25.13
CTUN, 0, 0.00, -0.21, 0.000000, 0.00, 0, -6, 0, 0
ATT, 0.00, -0.89, 0.00, -0.07, 0.00, 25.12, 25.12
CTUN, 0, 0.00, -0.12, 0.000000, 0.00, 0, -7, 0, 0
GPS, 3, 457672800, 11, 1.30, -33.7840737, 151.0681748, -0.13, 92.27, 0.02, 0.00
ATT, 0.00, -0.89, 0.00, -0.06, 0.00, 25.11, 25.11
CTUN, 0, 0.00, -0.14, 0.000000, 0.00, 0, -6, 0, 0
ATT, 0.00, -0.90, 0.00, -0.07, 0.00, 25.12, 25.12
CTUN, 0, 0.00, -0.24, 0.000000, 0.00, 0, -6, 0, 0
GPS, 3, 457673000, 11, 1.30, -33.7840737, 151.0681750, -0.14, 92.25, 0.02, 0.00
ATT, 0.00, -0.90, 0.00, -0.06, 0.00, 25.11, 25.11
CTUN, 0, 0.00, -0.18, 0.000000, 0.00, 0, -7, 0, 0
ATT, 0.00, -0.89, 0.00, -0.05, 0.00, 25.11, 25.11
CTUN, 0, 0.00, -0.19, 0.000000, 0.00, 0, -7, 0, 0
GPS, 3, 457673200, 12, 1.27, -33.7840737, 151.0681751, -0.16, 92.24, 0.05, 0.00
DU32, 7, 98393
CURR, 0, 0, 1102, 0, 4505, 0.000000
ATT, 0.00, -0.90, 0.00, -0.03, 0.00, 25.11, 25.11
CTUN, 0, 0.00, -0.13, 0.000000, 0.00, 0, -7, 0, 0
ATT, 0.00, -0.89, 0.00, -0.04, 0.00, 25.10, 25.10
GPS, 3, 457673400, 12, 1.27, -33.7840737, 151.0681752, -0.18, 92.23, 0.00, 0.00
CTUN, 0, 0.00, -0.30, 0.000000, 0.00, 0, -7, 0, 0
ATT, 0.00, -0.89, 0.00, -0.03, 0.00, 25.11, 25.11
CTUN, 0, 0.00, -0.14, 0.000000, 0.00, 0, -7, 0, 0
ATT, 0.00, -0.91, 0.00, -0.02, 0.00, 25.10, 25.10
GPS, 3, 457673600, 12, 1.27, -33.7840737, 151.0681753, -0.20, 92.23, 0.02, 0.00
CTUN, 0, 0.00, -0.09, 0.000000, 0.00, 0, -7, 0, 0
ATT, 0.00, -0.92, 0.00, 0.00, 0.00, 25.11, 25.11
CTUN, 0, 0.00, -0.23, 0.000000, 0.00, 0, -7, 0, 0
ATT, 0.00, -0.92, 0.00, 0.00, 0.00, 25.11, 25.11
GPS, 3, 457673800, 12, 1.27, -33.7840736, 151.0681753, -0.20, 92.23, 0.02, 0.00
CTUN, 0, 0.00, -0.22, 0.000000, 0.00, 0, -7, 0, 0
ATT, 0.00, -0.92, 0.00, 0.01, 0.00, 25.09, 25.09
CTUN, 0, 0.00, -0.17, 0.000000, 0.00, 0, -7, 0, 0
ATT, 0.00, -0.93, 0.00, 0.02, 0.00, 25.09, 25.09
CTUN, 0, 0.00, -0.19, 0.000000, 0.00, 0, -7, 0, 0
GPS, 3, 457674000, 11, 1.30, -33.7840736, 151.0681755, -0.22, 92.21, 0.01, 0.00
ATT, 0.00, -0.94, 0.00, 0.02, 0.00, 25.09, 25.09
CTUN, 0, 0.00, -0.10, 0.000000, 0.00, 0, -7, 0, 0
ATT, 0.00, -0.94, 0.00, 0.03, 0.00, 25.07, 25.07
CTUN, 0, 0.00, -0.05, 0.000000, 0.00, 0, -7, 0, 0
GPS, 3, 457674200, 11, 1.30, -33.7840735, 151.0681756, -0.23, 92.19, 0.02, 0.00
DU32, 7, 98393
CURR, 0, 0, 1102, 0, 4487, 0.000000
ATT, 0.00, -0.93, 0.00, 0.03, 0.00, 25.08, 25.08
CTUN, 0, 0.00, -0.27, 0.000000, 0.00, 0, -7, 0, 0
ATT, 0.00, -0.94, 0.00, 0.04, 0.00, 25.07, 25.07
CTUN, 0, 0.00, -0.20, 0.000000, 0.00, 0, -7, 0, 0
GPS, 3, 457674400, 12, 1.23, -33.7840735, 151.0681757, -0.23, 92.20, 0.01, 0.00
ATT, 0.00, -0.94, 0.00, 0.04, 0.00, 25.07, 25.07
CTUN, 0, 0.00, -0.11, 0.000000, 0.00, 0, -7, 0, 0
ATT, 0.00, -0.95, 0.00, 0.05, 0.00, 25.08, 25.08
CTUN, 0, 0.00, -0.22, 0.000000, 0.00, 0, -7, 0, 0
GPS, 3, 457674600, 12, 1.23, -33.7840733, 151.0681759, -0.24, 92.20, 0.02, 0.00
ATT, 0.00, -0.95, 0.00, 0.06, 0.00, 25.07, 25.07
CTUN, 0, 0.00, -0.24, 0.000000, 0.00, 0, -7, 0, 0
ATT, 0.00, -0.95, 0.00, 0.06, 0.00, 25.07, 25.07
CTUN, 0, 0.00, -0.30, 0.000000, 0.00, 0, -7, 0, 0
GPS, 3, 457674800, 12, 1.23, -33.7840732, 151.0681761, -0.25, 92.19, 0.03, 0.00
ATT, 0.00, -0.94, 0.00, 0.06, 0.00, 25.07, 25.07
CTUN, 0, 0.00, -0.19, 0.000000, 0.00, 0, -7, 0, 0
ATT, 0.00, -0.94, 0.00, 0.07, 0.00, 25.08, 25.08
CTUN, 0, 0.00, -0.17, 0.000000, 0.00, 0, -7, 0, 0
GPS, 3, 457675000, 12, 1.23, -33.7840731, 151.0681762, -0.26, 92.19, 0.01, 0.00
ATT, 0.00, -0.94, 0.00, 0.08, 0.00, 25.06, 25.06
CTUN, 0, 0.00, -0.18, 0.000000, 0.00, 0, -7, 0, 0
ATT, 0.00, -0.94, 0.00, 0.08, 0.00, 25.06, 25.06
CTUN, 0, 0.00, -0.17, 0.000000, 0.00, 0, -7, 0, 0
GPS, 3, 457675200, 12, 1.23, -33.7840730, 151.0681763, -0.27, 92.20, 0.01, 0.00
DU32, 7, 98393
CURR, 0, 0, 1102, 0, 4505, 0.000000
ATT, 0.00, -0.95, 0.00, 0.10, 0.00, 25.07, 25.07
CTUN, 0, 0.00, -0.21, 0.000000, 0.00, 0, -7, 0, 0
ATT, 0.00, -0.95, 0.00, 0.10, 0.00, 25.07, 25.07
CTUN, 0, 0.00, -0.20, 0.000000, 0.00, 0, -7, 0, 0
GPS, 3, 457675400, 12, 1.23, -33.7840728, 151.0681765, -0.27, 92.19, 0.02, 0.00
ATT, 0.00, -0.95, 0.00, 0.11, 0.00, 25.07, 25.07
CTUN, 0, 0.00, -0.31, 0.000000, 0.00, 0, -7, 0, 0
ATT, 0.00, -0.96, 0.00, 0.11, 0.00, 25.06, 25.06
CTUN, 0, 0.00, -0.23, 0.000000, 0.00, 0, -7, 0, 0
GPS, 3, 457675600, 12, 1.23, -33.7840728, 151.0681766, -0.29, 92.19, 0.02, 0.00
ATT, 0.00, -0.96, 0.00, 0.11, 0.00, 25.05, 25.05
CTUN, 0, 0.00, -0.21, 0.000000, 0.00, 0, -7, 0, 0
ATT, 0.00, -0.96, 0.00, 0.14, 0.00, 25.05, 25.05
CTUN, 0, 0.00, -0.18, 0.000000, 0.00, 0, -7, 0, 0
GPS, 3, 457675800, 12, 1.23, -33.7840726, 151.0681768, -0.29, 92.18, 0.01, 0.00
ATT, 0.00, -0.96, 0.00, 0.14, 0.00, 25.04, 25.04
CTUN, 0, 0.00, -0.22, 0.000000, 0.00, 0, -7, 0, 0
ATT, 0.00, -0.96, 0.00, 0.14, 0.00, 25.02, 25.02
CTUN, 0, 0.00, -0.28, 0.000000, 0.00, 0, -7, 0, 0
GPS, 3, 457676000, 13, 1.21, -33.7840725, 151.0681768, -0.30, 92.20, 0.02, 0.00
ATT, 0.00, -0.97, 0.00, 0.14, 0.00, 25.03, 25.03
CTUN, 0, 0.00, -0.26, 0.000000, 0.00, 0, -6, 0, 0
ATT, 0.00, -0.97, 0.00, 0.14, 0.00, 25.02, 25.02
CTUN, 0, 0.00, -0.34, 0.000000, 0.00, 0, -6, 0, 0
GPS, 3, 457676200, 13, 1.21, -33.7840723, 151.0681769, -0.31, 92.21, 0.04, 0.00
DU32, 7, 98393
CURR, 0, 0, 1102, 0, 4469, 0.000000
ATT, 0.00, -0.97, 0.00, 0.14, 0.00, 25.03, 25.03
CTUN, 0, 0.00, -0.28, 0.000000, 0.00, 0, -7, 0, 0
ATT, 0.00, -0.97, 0.00, 0.14, 0.00, 25.04, 25.04
CTUN, 0, 0.00, -0.31, 0.000000, 0.00, 0, -6, 0, 0
GPS, 3, 457676400, 13, 1.21, -33.7840722, 151.0681770, -0.32, 92.22, 0.02, 0.00
ATT, 0.00, -0.97, 0.00, 0.15, 0.00, 25.03, 25.03
CTUN, 0, 0.00, -0.26, 0.000000, 0.00, 0, -6, 0, 0
ATT, 0.00, -0.98, 0.00, 0.16, 0.00, 25.04, 25.04
CTUN, 0, 0.00, -0.26, 0.000000, 0.00, 0, -7, 0, 0
GPS, 3, 457676600, 13, 1.21, -33.7840721, 151.0681770, -0.33, 92.23, 0.04, 0.00
ATT, 0.00, -0.97, 0.00, 0.17, 0.00, 25.03, 25.03
CTUN, 0, 0.00, -0.28, 0.000000, 0.00, 0, -6, 0, 0
ATT, 0.00, -0.98, 0.00, 0.18, 0.00, 25.02, 25.02
CTUN, 0, 0.00, -0.22, 0.000000, 0.00, 0, -6, 0, 0
GPS, 3, 457676800, 13, 1.21, -33.7840720, 151.0681770, -0.34, 92.26, 0.02, 0.00
ATT, 0.00, -0.98, 0.00, 0.18, 0.00, 25.01, 25.01
CTUN, 0, 0.00, -0.31, 0.000000, 0.00, 0, -6, 0, 0
ATT, 0.00, -1.00, 0.00, 0.21, 0.00, 25.01, 25.01
CTUN, 0, 0.00, -0.28, 0.000000, 0.00, 0, -6, 0, 0
GPS, 3, 457677000, 12, 1.23, -33.7840719, 151.0681772, -0.34, 92.25, 0.01, 0.00
ATT, 0.00, -1.00, 0.00, 0.22, 0.00, 25.01, 25.01
CTUN, 0, 0.00, -0.26, 0.000000, 0.00, 0, -6, 0, 0
ATT, 0.00, -1.00, 0.00, 0.22, 0.00, 25.02, 25.02
CTUN, 0, 0.00, -0.35, 0.000000, 0.00, 0, -6, 0, 0
GPS, 3, 457677200, 13, 1.21, -33.7840718, 151.0681772, -0.35, 92.25, 0.02, 0.00
DU32, 7, 98393
CURR, 0, 0, 1102, 0, 4469, 0.000000
ATT, 0.00, -1.00, 0.00, 0.22, 0.00, 25.00, 25.00
CTUN, 0, 0.00, -0.32, 0.000000, 0.00, 0, -6, 0, 0
ATT, 0.00, -1.00, 0.00, 0.21, 0.00, 25.00, 25.00
CTUN, 0, 0.00, -0.31, 0.000000, 0.00, 0, -6, 0, 0
GPS, 3, 457677400, 13, 1.21, -33.7840717, 151.0681773, -0.36, 92.26, 0.01, 0.00
ATT, 0.00, -1.00, 0.00, 0.23, 0.00, 25.00, 25.00
CTUN, 0, 0.00, -0.33, 0.000000, 0.00, 0, -6, 0, 0
ATT, 0.00, -1.00, 0.00, 0.23, 0.00, 25.01, 25.01
CTUN, 0, 0.00, -0.30, 0.000000, 0.00, 0, -6, 0, 0
GPS, 3, 457677600, 13, 1.21, -33.7840716, 151.0681773, -0.37, 92.27, 0.02, 0.00
ATT, 0.00, -1.00, 0.00, 0.23, 0.00, 24.99, 24.99
CTUN, 0, 0.00, -0.22, 0.000000, 0.00, 0, -6, 0, 0
ATT, 0.00, -1.00, 0.00, 0.24, 0.00, 25.00, 25.00
CTUN, 0, 0.00, -0.29, 0.000000, 0.00, 0, -6, 0, 0
GPS, 3, 457677800, 12, 1.25, -33.7840715, 151.0681775, -0.37, 92.26, 0.18, 0.00
ATT, 0.00, -0.99, 0.00, 0.20, 0.00, 25.01, 25.01
CTUN, 0, 0.00, -0.37, 0.000000, 0.00, 0, -6, 0, 0
ATT, 0.00, -0.97, 0.00, 0.17, 0.00, 25.01, 25.01
CTUN, 0, 0.00, -0.31, 0.000000, 0.00, 0, -6, 0, 0
GPS, 3, 457678000, 12, 1.25, -33.7840715, 151.0681774, -0.37, 92.27, 0.03, 0.00
ATT, 0.00, -0.98, 0.00, 0.17, 0.00, 25.01, 25.01
CTUN, 0, 0.00, -0.28, 0.000000, 0.00, 0, -6, 0, 0
ATT, 0.00, -0.99, 0.00, 0.22, 0.00, 25.00, 25.00
CTUN, 0, 0.00, -0.34, 0.000000, 0.00, 0, -6, 0, 0
GPS, 3, 457678200, 12, 1.25, -33.7840715, 151.0681774, -0.38, 92.29, 0.04, 0.00
DU32, 7, 98393
CURR, 0, 0, 1102, 0, 4487, 0.000000
ATT, 0.00, -1.00, 0.00, 0.26, 0.00, 24.99, 24.99
CTUN, 0, 0.00, -0.42, 0.000000, 0.00, 0, -6, 0, 0
ATT, 0.00, -1.00, 0.00, 0.28, 0.00, 24.99, 24.99
CTUN, 0, 0.00, -0.35, 0.000000, 0.00, 0, -6, 0, 0
GPS, 3, 457678400, 12, 1.25, -33.7840714, 151.0681775, -0.39, 92.29, 0.01, 0.00
ATT, 0.00, -1.01, 0.00, 0.28, 0.00, 24.98, 24.98
CTUN, 0, 0.00, -0.26, 0.000000, 0.00, 0, -6, 0, 0
ATT, 0.00, -1.02, 0.00, 0.27, 0.00, 24.98, 24.98
CTUN, 0, 0.00, -0.28, 0.000000, 0.00, 0, -6, 0, 0
GPS, 3, 457678600, 12, 1.25, -33.7840714, 151.0681775, -0.39, 92.29, 0.03, 0.00
ATT, 0.00, -1.01, 0.00, 0.27, 0.00, 24.97, 24.97
CTUN, 0, 0.00, -0.27, 0.000000, 0.00, 0, -6, 0, 0
ATT, 0.00, -1.01, 0.00, 0.28, 0.00, 24.98, 24.98
CTUN, 0, 0.00, -0.40, 0.000000, 0.00, 0, -5, 0, 0
GPS, 3, 457678800, 12, 1.25, -33.7840713, 151.0681774, -0.39, 92.30, 0.02, 0.00
ATT, 0.00, -1.01, 0.00, 0.28, 0.00, 24.98, 24.98
CTUN, 0, 0.00, -0.39, 0.000000, 0.00, 0, -5, 0, 0
ATT, 0.00, -1.02, 0.00, 0.29, 0.00, 24.97, 24.97
CTUN, 0, 0.00, -0.32, 0.000000, 0.00, 0, -5, 0, 0
GPS, 3, 457679000, 13, 1.21, -33.7840713, 151.0681774, -0.40, 92.34, 0.01, 0.00
ATT, 0.00, -1.02, 0.00, 0.29, 0.00, 24.99, 24.99
CTUN, 0, 0.00, -0.27, 0.000000, 0.00, 0, -5, 0, 0
ATT, 0.00, -1.03, 0.00, 0.30, 0.00, 24.98, 24.98
CTUN, 0, 0.00, -0.40, 0.000000, 0.00, 0, -5, 0, 0
GPS, 3, 457679200, 12, 1.27, -33.7840712, 151.0681774, -0.40, 92.34, 0.03, 0.00
DU32, 7, 98393
CURR, 0, 0, 1102, 0, 4487, 0.000000
ATT, 0.00, -1.04, 0.00, 0.31, 0.00, 24.98, 24.98
CTUN, 0, 0.00, -0.33, 0.000000, 0.00, 0, -5, 0, 0
ATT, 0.00, -1.05, 0.00, 0.32, 0.00, 24.97, 24.97
CTUN, 0, 0.00, -0.32, 0.000000, 0.00, 0, -5, 0, 0
GPS, 3, 457679400, 12, 1.27, -33.7840710, 151.0681775, -0.41, 92.33, 0.03, 0.00
ATT, 0.00, -1.05, 0.00, 0.31, 0.00, 24.97, 24.97
CTUN, 0, 0.00, -0.34, 0.000000, 0.00, 0, -5, 0, 0
ATT, 0.00, -1.04, 0.00, 0.31, 0.00, 24.98, 24.98
CTUN, 0, 0.00, -0.33, 0.000000, 0.00, 0, -5, 0, 0
GPS, 3, 457679600, 12, 1.27, -33.7840709, 151.0681776, -0.41, 92.32, 0.02, 0.00
ATT, 0.00, -1.04, 0.00, 0.31, 0.00, 24.97, 24.97
CTUN, 0, 0.00, -0.33, 0.000000, 0.00, 0, -5, 0, 0
ATT, 0.00, -1.04, 0.00, 0.32, 0.00, 24.97, 24.97
CTUN, 0, 0.00, -0.37, 0.000000, 0.00, 0, -5, 0, 0
GPS, 3, 457679800, 12, 1.27, -33.7840708, 151.0681777, -0.41, 92.31, 0.02, 0.00
ATT, 0.00, -1.04, 0.00, 0.33, 0.00, 24.97, 24.97
CTUN, 0, 0.00, -0.32, 0.000000, 0.00, 0, -5, 0, 0
ATT, 0.00, -1.05, 0.00, 0.33, 0.00, 24.96, 24.96
CTUN, 0, 0.00, -0.31, 0.000000, 0.00, 0, -5, 0, 0
GPS, 3, 457680000, 13, 1.21, -33.7840707, 151.0681777, -0.41, 92.30, 0.02, 0.00
ATT, 0.00, -1.04, 0.00, 0.34, 0.00, 24.97, 24.97
PM, 0, 0, 50, 0, 1000, 10420, 0, 4
CTUN, 0, 0.00, -0.26, 0.000000, 0.00, 0, -5, 0, 0
ATT, 0.00, -1.05, 0.00, 0.35, 0.00, 24.97, 24.97
CTUN, 0, 0.00, -0.32, 0.000000, 0.00, 0, -4, 0, 0
GPS, 3, 457680200, 13, 1.21, -33.7840707, 151.0681777, -0.41, 92.32, 0.01, 0.00
DU32, 7, 98393
CURR, 0, 0, 1102, 0, 4469, 0.000000
ATT, 0.00, -1.05, 0.00, 0.36, 0.00, 24.98, 24.98
CTUN, 0, 0.00, -0.25, 0.000000, 0.00, 0, -4, 0, 0
ATT, 0.00, -1.06, 0.00, 0.36, 0.00, 24.99, 24.99
CTUN, 0, 0.00, -0.41, 0.000000, 0.00, 0, -4, 0, 0
GPS, 3, 457680400, 13, 1.21, -33.7840707, 151.0681777, -0.40, 92.31, 0.02, 0.00
ATT, 0.00, -1.06, 0.00, 0.36, 0.00, 24.99, 24.99
CTUN, 0, 0.00, -0.36, 0.000000, 0.00, 0, -4, 0, 0
ATT, 0.00, -1.05, 0.00, 0.37, 0.00, 24.98, 24.98
CTUN, 0, 0.00, -0.32, 0.000000, 0.00, 0, -4, 0, 0
GPS, 3, 457680600, 13, 1.21, -33.7840706, 151.0681777, -0.41, 92.33, 0.02, 0.00
ATT, 0.00, -1.07, 0.00, 0.37, 0.00, 24.99, 24.99
CTUN, 0, 0.00, -0.38, 0.000000, 0.00, 0, -4, 0, 0
ATT, 0.00, -1.07, 0.00, 0.37, 0.00, 24.97, 24.97
CTUN, 0, 0.00, -0.27, 0.000000, 0.00, 0, -4, 0, 0
GPS, 3, 457680800, 13, 1.21, -33.7840705, 151.0681777, -0.41, 92.33, 0.02, 0.00
ATT, 0.00, -1.08, 0.00, 0.37, 0.00, 24.98, 24.98
CTUN, 0, 0.00, -0.38, 0.000000, 0.00, 0, -4, 0, 0
ATT, 0.00, -1.08, 0.00, 0.38, 0.00, 24.98, 24.98
CTUN, 0, 0.00, -0.32, 0.000000, 0.00, 0, -4, 0, 0
GPS, 3, 457681000, 13, 1.21, -33.7840704, 151.0681778, -0.41, 92.32, 0.04, 0.00
ATT, 0.00, -1.08, 0.00, 0.36, 0.00, 24.97, 24.97
CTUN, 0, 0.00, -0.33, 0.000000, 0.00, 0, -4, 0, 0
ATT, 0.00, -1.08, 0.00, 0.36, 0.00, 24.98, 24.98
CTUN, 0, 0.00, -0.30, 0.000000, 0.00, 0, -4, 0, 0
GPS, 3, 457681200, 12, 1.27, -33.7840703, 151.0681779, -0.41, 92.31, 0.05, 0.00
DU32, 7, 98393
CURR, 0, 0, 1102, 0, 4505, 0.000000
CTUN, 0, 0.00, -0.34, 0.000000, 0.00, 0, -4, 0, 0
ATT, 0.00, -1.07, 0.00, 0.36, 0.00, 24.97, 24.97
CTUN, 0, 0.00, -0.23, 0.000000, 0.00, 0, -4, 0, 0
GPS, 3, 457681400, 13, 1.21, -33.7840702, 151.0681778, -0.41, 92.32, 0.01, 0.00
ATT, 0.00, -1.07, 0.00, 0.36, 0.00, 24.98, 24.98
CTUN, 0, 0.00, -0.30, 0.000000, 0.00, 0, -4, 0, 0
ATT, 0.00, -1.07, 0.00, 0.38, 0.00, 24.97, 24.97
CTUN, 0, 0.00, -0.40, 0.000000, 0.00, 0, -4, 0, 0
GPS, 3, 457681600, 13, 1.21, -33.7840702, 151.0681778, -0.40, 92.33, 0.01, 0.00
ATT, 0.00, -1.08, 0.00, 0.40, 0.00, 24.97, 24.97
CTUN, 0, 0.00, -0.37, 0.000000, 0.00, 0, -4, 0, 0
ATT, 0.00, -1.09, 0.00, 0.39, 0.00, 24.97, 24.97
CTUN, 0, 0.00, -0.29, 0.000000, 0.00, 0, -4, 0, 0
GPS, 3, 457681800, 13, 1.21, -33.7840701, 151.0681777, -0.41, 92.34, 0.01, 0.00
ATT, 0.00, -1.09, 0.00, 0.40, 0.00, 24.98, 24.98
CTUN, 0, 0.00, -0.34, 0.000000, 0.00, 0, -3, 0, 0
ATT, 0.00, -1.09, 0.00, 0.40, 0.00, 24.98, 24.98
CTUN, 0, 0.00, -0.30, 0.000000, 0.00, 0, -3, 0, 0
GPS, 3, 457682000, 13, 1.21, -33.7840701, 151.0681776, -0.40, 92.37, 0.01, 0.00
ATT, 0.00, -1.08, 0.00, 0.40, 0.00, 24.97, 24.97
CTUN, 0, 0.00, -0.30, 0.000000, 0.00, 0, -3, 0, 0
ATT, 0.00, -1.09, 0.00, 0.40, 0.00, 24.97, 24.97
CTUN, 0, 0.00, -0.37, 0.000000, 0.00, 0, -3, 0, 0
GPS, 3, 457682200, 13, 1.21, -33.7840701, 151.0681775, -0.40, 92.38, 0.01, 0.00
ATT, 0.00, -1.09, 0.00, 0.40, 0.00, 24.97, 24.97
DU32, 7, 98393
CURR, 0, 0, 1102, 0, 4505, 0.000000
CTUN, 0, 0.00, -0.40, 0.000000, 0.00, 0, -3, 0, 0
ATT, 0.00, -1.09, 0.00, 0.40, 0.00, 24.97, 24.97
CTUN, 0, 0.00, -0.45, 0.000000, 0.00, 0, -3, 0, 0
GPS, 3, 457682400, 13, 1.21, -33.7840700, 151.0681774, -0.40, 92.40, 0.02, 0.00
ATT, 0.00, -1.09, 0.00, 0.40, 0.00, 24.98, 24.98
CTUN, 133, 0.00, -0.41, 0.000000, 0.00, 0, -3, 0, 0
EV, 15
ATT, 0.00, -1.09, 0.00, 0.40, 0.00, 24.97, 24.97
EV, 28
CTUN, 163, 0.00, -0.43, 0.000000, 0.00, 0, -3, 161, 0
GPS, 3, 457682600, 13, 1.21, -33.7840699, 151.0681773, -0.41, 92.44, 0.04, 0.00
ATT, 0.00, -1.09, 0.00, 0.40, 0.00, 24.97, 24.99
CTUN, 179, 0.00, -0.49, 0.000000, 0.00, 0, -3, 179, 0
ATT, 0.00, -1.08, 0.00, 0.41, 0.00, 24.93, 24.99
CTUN, 190, 0.00, -0.55, 0.000000, 0.00, 0, -3, 190, 0
GPS, 3, 457682800, 13, 1.21, -33.7840699, 151.0681772, -0.42, 92.44, 0.02, 0.00
ATT, 0.00, -1.06, 0.00, 0.42, 0.00, 24.91, 24.99
CTUN, 189, 0.00, -0.63, 0.000000, 0.00, 0, -3, 189, 0
ATT, 0.00, -1.02, 0.00, 0.43, 0.00, 24.90, 24.99
CTUN, 190, 0.00, -0.68, 0.000000, 0.00, 0, -3, 189, 0
GPS, 3, 457683000, 12, 1.27, -33.7840699, 151.0681772, -0.45, 92.45, 0.03, 0.00
ATT, 0.00, -1.01, 0.00, 0.46, 0.00, 24.90, 24.99
CTUN, 190, 0.00, -0.89, 0.000000, 0.00, 0, -3, 190, 0
ATT, 0.00, -1.02, 0.00, 0.42, 0.00, 24.90, 24.99
CTUN, 190, 0.00, -0.84, 0.000000, 0.00, 0, -3, 190, 0
GPS, 3, 457683200, 12, 1.27, -33.7840698, 151.0681773, -0.50, 92.44, 0.01, 0.00
DU32, 7, 65657
CURR, 190, 1279, 1102, 0, 4505, 0.000000
CTUN, 190, 0.00, -0.77, 0.000000, 0.00, 0, -4, 190, 0
ATT, 0.00, -1.01, 0.00, 0.43, 0.00, 24.88, 24.99
CTUN, 188, 0.00, -0.83, 0.000000, 0.00, 0, -4, 190, 0
GPS, 3, 457683400, 11, 1.30, -33.7840698, 151.0681774, -0.54, 92.42, 0.01, 0.00
ATT, 0.00, -1.00, 0.00, 0.43, 0.00, 24.87, 24.99
CTUN, 190, 0.00, -0.84, 0.000000, 0.00, 0, -4, 190, 0
ATT, 0.00, -1.00, 0.00, 0.45, 0.00, 24.86, 24.99
CTUN, 188, 0.00, -0.83, 0.000000, 0.00, 0, -5, 189, 0
GPS, 3, 457683600, 12, 1.27, -33.7840697, 151.0681774, -0.59, 92.40, 0.03, 0.00
ATT, 0.00, -1.00, 0.00, 0.45, 0.00, 24.83, 24.99
CTUN, 190, 0.00, -0.85, 0.000000, 0.00, 0, -5, 190, 0
ATT, 0.00, -0.97, 0.00, 0.43, 0.00, 24.83, 24.99
CTUN, 190, 0.00, -0.86, 0.000000, 0.00, 0, -5, 190, 0
GPS, 3, 457683800, 12, 1.27, -33.7840696, 151.0681775, -0.62, 92.39, 0.02, 0.00
ATT, 0.00, -0.97, 0.00, 0.47, 0.00, 24.82, 24.99
CTUN, 199, 0.00, -0.78, 0.000000, 0.00, 0, -6, 199, 0
ATT, 0.00, -0.99, 0.00, 0.44, 0.00, 24.80, 24.99
CTUN, 234, 0.00, -0.85, 0.000000, 0.00, 0, -6, 232, 0
GPS, 3, 457684000, 12, 1.27, -33.7840696, 151.0681775, -0.66, 92.38, 0.02, 0.00
ATT, 0.00, -0.98, 0.00, 0.48, 0.00, 24.78, 24.99
CTUN, 246, 0.00, -0.88, 0.000000, 0.00, 0, -6, 240, 0
ATT, 0.00, -0.95, 0.00, 0.50, 0.00, 24.76, 24.99
CTUN, 266, 0.00, -1.06, 0.000000, 0.00, 0, -7, 255, 0
GPS, 3, 457684200, 12, 1.27, -33.7840695, 151.0681775, -0.70, 92.38, 0.01, 0.00
CTUN, 321, 0.00, -0.76, 0.000000, 0.00, 0, -7, 316, 0
ATT, 0.00, -0.92, 0.00, 0.50, 0.00, 24.73, 24.99
DU32, 7, 65657
CURR, 325, 3189, 1102, 0, 4469, 0.000000
CTUN, 334, 0.00, -1.17, 0.000000, 0.00, 0, -7, 332, 0
GPS, 3, 457684400, 12, 1.27, -33.7840694, 151.0681775, -0.74, 92.37, 0.02, 0.00
ATT, 0.00, -0.89, 0.00, 0.53, 0.00, 24.68, 24.99
CTUN, 373, 0.00, -1.23, 0.000000, 0.00, 0, -8, 364, 0
ATT, 0.00, -0.90, 0.00, 0.52, 0.00, 24.66, 24.99
EV, 16
CTUN, 426, 0.00, -1.09, 0.000000, 0.00, 0, -10, 412, 0
GPS, 3, 457684600, 12, 1.27, -33.7840693, 151.0681777, -0.81, 92.35, 0.05, 0.00
ATT, 0.00, -0.82, 0.00, 0.56, 0.00, 24.62, 24.99
CTUN, 440, 0.00, -1.26, 0.000000, 0.00, 0, -10, 437, 0
ATT, 0.00, -0.80, 0.00, 0.59, 0.00, 24.48, 24.99
CTUN, 472, 0.00, -1.71, 0.000000, 0.00, 0, -10, 472, 0
GPS, 3, 457684800, 12, 1.27, -33.7840693, 151.0681777, -0.87, 92.34, 0.02, 0.00
ATT, 0.00, -0.76, 0.00, 0.61, 0.00, 23.95, 24.99
CTUN, 489, 0.00, -1.61, 0.000000, 0.00, 0, -11, 489, 0
ATT, 0.00, -0.44, 0.00, 0.78, 0.00, 22.59, 24.99
CTUN, 517, 0.00, -1.57, 0.000000, 0.00, 0, -10, 513, 0
GPS, 3, 457685000, 12, 1.27, -33.7840692, 151.0681778, -0.97, 92.31, 0.04, 0.00
ATT, 0.00, 1.37, 0.00, 2.30, 0.00, 20.31, 24.99
CTUN, 530, 0.00, -1.35, 0.000000, 0.00, 0, -1, 530, 0
ATT, 0.00, 2.23, 0.00, 3.25, 0.00, 18.40, 24.99
CTUN, 531, 0.00, -1.10, 0.000000, 0.00, 0, 6, 529, 0
GPS, 3, 457685200, 12, 1.27, -33.7840693, 151.0681777, -1.04, 92.31, 0.05, 0.00
ATT, 0.00, 2.26, 0.00, 3.47, 0.00, 16.40, 24.99
CTUN, 533, 0.00, -0.76, 0.000000, 0.00, 1, 17, 534, 0
DU32, 7, 82041
CURR, 533, 7191, 1102, 0, 4469, 0.000000
ATT, 0.00, 2.08, 0.00, 3.15, 0.00, 14.84, 24.84
CTUN, 533, 0.00, -0.51, 0.000000, 0.00, 0, 24, 533, 0
GPS, 3, 457685400, 12, 1.27, -33.7840695, 151.0681777, -1.01, 92.32, 0.14, 0.00
CTUN, 532, 0.00, -0.32, 0.000000, 0.00, 0, 32, 532, 0
ATT, -0.57, 1.64, 0.00, 2.66, 0.00, 13.62, 23.62
CTUN, 534, 0.00, -0.06, 0.000000, 0.00, 0, 35, 534, 0
GPS, 3, 457685600, 12, 1.27, -33.7840699, 151.0681776, -0.86, 92.30, 0.30, 214.34
ATT, -0.46, 0.90, -0.82, 1.94, 0.00, 12.48, 22.48
CTUN, 534, 0.00, -0.03, 0.000000, 0.00, 0, 38, 534, 0
ATT, -7.86, 0.84, -3.51, 1.17, 0.00, 11.67, 21.67
CTUN, 534, 0.00, -0.04, 0.000000, 0.00, 0, 40, 534, 0
GPS, 3, 457685800, 12, 1.27, -33.7840706, 151.0681774, -0.71, 92.31, 0.44, 207.10
ATT, -10.87, -2.96, -3.86, -0.56, 0.00, 11.08, 21.08
CTUN, 534, 0.00, 0.09, 0.000000, 0.00, 1, 39, 535, 0
ATT, -10.29, -6.32, -3.98, -2.98, 0.00, 10.97, 20.97
CTUN, 534, 0.00, 0.15, 0.000000, 0.00, 3, 37, 537, 0
GPS, 3, 457686000, 12, 1.27, -33.7840713, 151.0681768, -0.56, 92.40, 0.50, 208.19
ATT, -10.17, -6.97, -3.98, -3.68, 0.00, 10.93, 20.93
CTUN, 533, 0.00, 0.08, 0.000000, 0.00, 3, 37, 536, 0
ATT, -7.05, -7.26, -4.80, -4.09, 0.00, 10.98, 20.93
CTUN, 533, 0.00, 0.23, 0.000000, 0.00, 4, 37, 537, 0
GPS, 3, 457686200, 13, 1.21, -33.7840720, 151.0681763, -0.38, 92.46, 0.51, 210.69
ATT, -6.36, -5.46, -5.15, -4.89, 0.00, 11.01, 20.93
CTUN, 534, 0.00, 0.28, 0.000000, 0.00, 3, 37, 537, 0
DU32, 7, 82041
CURR, 534, 12002, 1102, 0, 4487, 0.000000
ATT, -3.23, -3.58, -7.14, -5.28, 0.00, 10.92, 20.92
CTUN, 532, 0.00, 0.28, 0.000000, 0.00, 2, 37, 536, 0
GPS, 3, 457686400, 13, 1.21, -33.7840723, 151.0681755, -0.24, 92.56, 0.40, 217.08
CTUN, 532, 0.00, 0.39, 0.000000, 0.00, 2, 36, 534, 0
ATT, -2.54, -1.37, -8.43, -5.81, 0.00, 10.86, 20.85
CTUN, 534, 0.00, 0.23, 0.000000, 0.00, 2, 35, 536, 0
GPS, 3, 457686600, 13, 1.21, -33.7840723, 151.0681751, -0.10, 92.65, 0.26, 217.08
ATT, -2.77, 0.19, -8.55, -6.69, 0.00, 10.85, 20.84
CTUN, 531, 0.00, 0.46, 0.000000, 0.00, 2, 34, 536, 0
ATT, -1.73, 0.33, -8.20, -7.00, 0.00, 10.84, 20.84
CTUN, 543, 0.00, 0.50, 0.000000, 0.00, 3, 32, 546, 0
GPS, 3, 457686800, 13, 1.21, -33.7840721, 151.0681745, 0.00, 92.72, 0.33, 217.08
ATT, -1.27, 1.34, -8.08, -6.98, 0.00, 10.62, 20.62
CTUN, 546, 0.00, 0.54, 0.000000, 0.00, 2, 33, 548, 0
ATT, -1.27, 1.66, -8.20, -6.36, 0.00, 10.34, 20.34
CTUN, 549, 0.00, 0.55, 0.000000, 0.00, 2, 34, 548, 0
GPS, 3, 457687000, 13, 1.21, -33.7840718, 151.0681743, 0.12, 92.74, 0.21, 217.08
ATT, -1.61, 1.29, -7.38, -6.11, 0.00, 9.90, 19.90
CTUN, 554, 0.00, 0.80, 0.000000, 0.00, 2, 37, 556, 0
ATT, -1.96, 0.87, -6.21, -5.94, 0.00, 9.56, 19.56
CTUN, 566, 0.00, 0.72, 0.000000, 0.00, 2, 39, 564, 0
GPS, 3, 457687200, 13, 1.21, -33.7840716, 151.0681745, 0.27, 92.81, 0.13, 217.08
ATT, -1.04, 0.41, -4.57, -4.80, 0.00, 9.31, 19.31
CTUN, 569, 0.00, 0.59, 0.000000, 0.00, 1, 45, 571, 0
DU32, 7, 82041
CURR, 571, 16905, 1102, 0, 4487, 0.000000
ATT, -0.11, 0.52, -1.52, -3.20, 0.00, 9.18, 19.18
CTUN, 573, 0.00, 0.72, 0.000000, 0.00, 1, 49, 575, 0
GPS, 3, 457687400, 13, 1.21, -33.7840712, 151.0681752, 0.40, 92.88, 0.31, 153.14
CTUN, 574, 0.00, 0.83, 0.000000, 0.00, 0, 57, 574, 0
ATT, 0.00, 0.86, 0.00, -1.05, 0.00, 9.09, 19.09
CTUN, 573, 0.00, 0.85, 0.000000, 0.00, 0, 63, 574, 0
GPS, 3, 457687600, 13, 1.21, -33.7840710, 151.0681761, 0.56, 92.95, 0.35, 109.74
ATT, 0.00, 0.58, 0.00, 0.25, 0.00, 8.99, 18.99
CTUN, 574, 0.00, 0.90, 0.000000, 0.00, 0, 70, 574, 0
ATT, 0.00, 0.25, 0.00, 0.55, 0.00, 8.83, 18.83
CTUN, 574, 0.00, 0.99, 0.000000, 0.00, 0, 75, 574, 0
GPS, 3, 457687800, 13, 1.21, -33.7840708, 151.0681770, 0.72, 93.08, 0.40, 90.65
ATT, -5.78, -0.49, 0.00, 0.57, 0.00, 8.61, 18.61
CTUN, 574, 0.00, 0.99, 0.000000, 0.00, 0, 80, 574, 0
ATT, -10.06, -3.69, 0.00, 0.63, 0.00, 8.40, 18.40
CTUN, 573, 0.00, 1.08, 0.000000, 0.00, 1, 84, 572, 0
GPS, 3, 457688000, 13, 1.21, -33.7840706, 151.0681778, 0.89, 93.18, 0.37, 83.47
ATT, -8.79, -8.16, 0.00, -0.52, 0.00, 8.34, 18.33
CTUN, 574, 0.00, 1.19, 0.000000, 0.00, 5, 87, 579, 0
ATT, -7.86, -9.15, 0.00, -1.15, 0.00, 8.24, 18.24
CTUN, 574, 0.00, 1.26, 0.000000, 0.00, 5, 90, 579, 0
GPS, 3, 457688200, 13, 1.21, -33.7840706, 151.0681784, 1.12, 93.29, 0.22, 83.47
ATT, -8.56, -8.88, 0.00, -1.15, 0.00, 8.04, 18.04
CTUN, 574, 0.00, 1.35, 0.000000, 0.00, 5, 95, 579, 0
DU32, 7, 82041
CURR, 574, 22074, 1102, 0, 4487, 0.000000
ATT, -7.28, -8.83, -0.82, -1.36, 0.00, 7.99, 17.97
CTUN, 573, 0.00, 1.44, 0.000000, 0.00, 5, 98, 579, 0
GPS, 3, 457688400, 12, 1.27, -33.7840702, 151.0681789, 1.32, 93.46, 0.32, 67.55
CTUN, 573, 0.00, 1.52, 0.000000, 0.00, 4, 101, 578, 0
ATT, -4.74, -7.48, -6.44, -2.61, 0.00, 8.22, 17.97
CTUN, 555, 0.00, 1.59, 0.000000, 0.00, 3, 105, 562, 0
GPS, 3, 457688600, 12, 1.27, -33.7840696, 151.0681785, 1.54, 93.67, 0.34, 67.55
ATT, 0.00, -5.64, -10.19, -5.51, 0.00, 8.69, 17.97
CTUN, 555, 0.00, 1.63, 0.000000, 0.00, 4, 104, 559, 0
ATT, 0.00, -2.36, -10.19, -7.79, 0.00, 9.12, 17.97
CTUN, 555, 0.00, 1.77, 0.000000, 0.00, 4, 105, 559, 0
GPS, 3, 457688800, 12, 1.27, -33.7840687, 151.0681780, 1.73, 93.83, 0.54, 357.18
ATT, 0.00, -0.28, -9.84, -8.74, 0.00, 9.52, 17.97
CTUN, 555, 0.00, 1.97, 0.000000, 0.00, 5, 104, 560, 0
ATT, 0.00, 0.64, -9.37, -8.98, 0.00, 9.65, 17.97
CTUN, 556, 0.00, 2.04, 0.000000, 0.00, 5, 105, 560, 0
GPS, 3, 457689000, 12, 1.27, -33.7840674, 151.0681778, 1.94, 93.95, 0.74, 344.53
ATT, 0.00, 0.85, -9.84, -8.80, 0.00, 9.62, 17.97
CTUN, 555, 0.00, 2.06, 0.000000, 0.00, 5, 103, 560, 0
ATT, 0.00, 1.18, -9.60, -8.68, 0.00, 9.53, 17.97
CTUN, 555, 0.00, 2.23, 0.000000, 0.00, 5, 102, 560, 0
GPS, 3, 457689200, 12, 1.27, -33.7840657, 151.0681784, 2.18, 94.05, 0.79, 355.29
ATT, 0.00, 1.48, -9.60, -8.32, 0.00, 9.55, 17.97
CTUN, 555, 0.00, 2.41, 0.000000, 0.00, 4, 102, 559, 0
DU32, 7, 82041
CURR, 555, 27167, 1102, 0, 4487, 0.000000
ATT, 0.00, 2.06, -8.55, -7.95, 0.00, 9.71, 17.97
CTUN, 555, 0.00, 2.49, 0.000000, 0.00, 4, 101, 559, 0
GPS, 3, 457689400, 12, 1.27, -33.7840642, 151.0681793, 2.36, 94.17, 0.79, 3.48
CTUN, 555, 0.00, 2.60, 0.000000, 0.00, 3, 103, 558, 0
ATT, 0.00, 1.95, -5.50, -7.13, 0.00, 9.97, 17.97
CTUN, 555, 0.00, 2.81, 0.000000, 0.00, 2, 102, 557, 0
GPS, 3, 457689600, 13, 1.21, -33.7840621, 151.0681807, 2.60, 94.32, 1.08, 14.51
ATT, 1.61, 1.78, -4.57, -5.36, 0.00, 10.44, 17.97
CTUN, 555, 0.00, 2.87, 0.000000, 0.00, 1, 101, 556, 0
ATT, 6.79, 2.80, -4.92, -3.97, 0.00, 10.71, 17.97
CTUN, 555, 0.00, 3.04, 0.000000, 0.00, 1, 100, 556, 0
GPS, 3, 457689800, 13, 1.21, -33.7840602, 151.0681825, 2.83, 94.43, 1.06, 22.89
ATT, 10.35, 5.39, -4.92, -3.76, 0.00, 10.77, 17.97
CTUN, 555, 0.00, 3.12, 0.000000, 0.00, 4, 99, 559, 0
ATT, 9.43, 8.13, -4.33, -2.90, 0.00, 10.74, 17.97
GPS, 3, 457690000, 13, 1.21, -33.7840585, 151.0681846, 3.02, 94.46, 1.14, 30.86
CTUN, 555, 0.00, 3.22, 0.000000, 0.00, 4, 100, 559, 0
ATT, 8.28, 8.73, -3.98, -2.04, 0.00, 10.61, 17.97
PM, 0, 0, 50, 0, 1000, 10420, 0, 4
CTUN, 555, 0.00, 3.30, 0.000000, 0.00, 4, 102, 559, 0
ATT, 6.56, 7.81, -3.39, -1.62, 0.00, 10.50, 17.97
GPS, 3, 457690200, 13, 1.21, -33.7840571, 151.0681872, 3.28, 94.54, 1.22, 41.25
CTUN, 555, 0.00, 3.37, 0.000000, 0.00, 3, 103, 558, 0
ATT, 0.00, 5.79, -3.63, -0.63, 0.00, 10.36, 17.97
DU32, 7, 82041
CURR, 555, 32190, 1102, 0, 4487, 0.000000
CTUN, 555, 0.00, 3.58, 0.000000, 0.00, 1, 104, 556, 0
ATT, 0.00, 1.41, -2.92, -1.00, 0.00, 10.14, 17.97
GPS, 3, 457690400, 13, 1.21, -33.7840563, 151.0681898, 3.50, 94.66, 1.06, 52.67
CTUN, 555, 0.00, 3.61, 0.000000, 0.00, 0, 103, 555, 0
ATT, 0.00, -1.11, -1.52, -1.45, 0.00, 9.93, 17.97
CTUN, 555, 0.00, 3.73, 0.000000, 0.00, 0, 105, 555, 0
GPS, 3, 457690600, 13, 1.21, -33.7840555, 151.0681927, 3.72, 94.68, 1.27, 58.71
ATT, 0.00, -1.49, 0.00, -0.08, 0.00, 9.78, 17.97
CTUN, 555, 0.00, 3.77, 0.000000, 0.00, 0, 108, 555, 0
ATT, -1.04, -1.39, -0.82, 0.63, 0.00, 9.66, 17.97
CTUN, 555, 0.00, 3.83, 0.000000, 0.00, 0, 110, 555, 0
GPS, 3, 457690800, 13, 1.21, -33.7840551, 151.0681951, 3.94, 94.74, 1.05, 66.08
CTUN, 556, 0.00, 3.82, 0.000000, 0.00, 0, 109, 555, 0
ATT, -3.35, -2.70, 0.00, 0.38, 0.00, 9.61, 17.97
CTUN, 554, 0.00, 4.00, 0.000000, 0.00, 0, 108, 555, 0
ATT, -0.34, -4.02, 0.00, 0.43, 0.00, 9.64, 17.97
GPS, 3, 457691000, 13, 1.21, -33.7840547, 151.0681976, 4.14, 94.82, 1.09, 75.17
CTUN, 555, 0.00, 4.09, 0.000000, 0.00, 0, 105, 555, 0
ATT, -4.16, -2.75, 0.00, 0.48, 0.00, 9.64, 17.97
CTUN, 555, 0.00, 4.28, 0.000000, 0.00, 0, 102, 555, 0
ATT, -9.13, -4.08, 0.00, 0.92, 0.00, 9.66, 17.97
GPS, 3, 457691200, 13, 1.21, -33.7840543, 151.0681998, 4.34, 94.90, 0.92, 75.84
CTUN, 556, 0.00, 4.32, 0.000000, 0.00, 1, 103, 556, 0
ATT, -4.16, -7.36, 0.00, -0.48, 0.00, 10.01, 17.97
CTUN, 555, 0.00, 4.52, 0.000000, 0.00, 3, 100, 558, 0
DU32, 7, 82041
CURR, 555, 37746, 1102, 0, 4452, 0.000000
ATT, 0.00, -5.92, 0.00, -0.36, 0.00, 10.03, 17.97
GPS, 3, 457691400, 13, 1.21, -33.7840539, 151.0682013, 4.55, 95.11, 0.63, 75.19
CTUN, 555, 0.00, 4.49, 0.000000, 0.00, 2, 100, 557, 0
ATT, 0.00, -2.77, -0.93, -0.10, 0.00, 10.07, 17.97
CTUN, 555, 0.00, 4.55, 0.000000, 0.00, 0, 98, 555, 0
GPS, 3, 457691600, 12, 1.27, -33.7840532, 151.0682025, 4.73, 95.29, 0.60, 64.97
ATT, 0.00, -1.18, -4.68, -0.65, 0.00, 10.24, 17.97
CTUN, 555, 0.00, 4.69, 0.000000, 0.00, 0, 99, 555, 0
ATT, 0.00, -0.87, -3.63, -2.70, 0.00, 10.41, 17.97
CTUN, 555, 0.00, 4.75, 0.000000, 0.00, 0, 98, 555, 0
GPS, 3, 457691800, 12, 1.27, -33.7840527, 151.0682036, 4.92, 95.46, 0.46, 63.94
CTUN, 555, 0.00, 4.99, 0.000000, 0.00, 0, 97, 555, 0
ATT, 0.00, -0.38, -3.51, -3.25, 0.00, 10.69, 17.97
CTUN, 555, 0.00, 5.12, 0.000000, 0.00, 0, 95, 556, 0
ATT, 0.00, 0.09, -3.16, -2.91, 0.00, 10.96, 17.97
GPS, 3, 457692000, 12, 1.27, -33.7840523, 151.0682045, 5.11, 95.67, 0.28, 63.94
CTUN, 555, 0.00, 5.21, 0.000000, 0.00, 0, 94, 558, 0
ATT, 0.00, 0.31, -2.34, -2.69, 0.00, 11.35, 17.97
CTUN, 555, 0.00, 5.23, 0.000000, 0.00, 0, 93, 555, 0
ATT, 0.00, 0.42, -1.52, -2.17, 0.00, 11.59, 17.97
GPS, 3, 457692200, 12, 1.27, -33.7840516, 151.0682053, 5.31, 95.90, 0.34, 58.77
CTUN, 555, 0.00, 5.35, 0.000000, 0.00, 0, 93, 555, 0
ATT, 0.00, 0.18, 0.00, -1.41, 0.00, 11.73, 17.97
CTUN, 555, 0.00, 5.40, 0.000000, 0.00, 0, 96, 555, 0
DU32, 7, 82041
CURR, 555, 42742, 1102, 0, 4487, 0.000000
ATT, 0.00, -0.02, 0.00, -0.34, 0.00, 11.72, 17.97
GPS, 3, 457692400, 12, 1.27, -33.7840510, 151.0682064, 5.50, 96.08, 0.46, 56.48
CTUN, 555, 0.00, 5.50, 0.000000, 0.00, 0, 98, 555, 0
ATT, 0.00, 0.09, 0.00, 0.36, 0.00, 11.57, 17.97
CTUN, 555, 0.00, 5.65, 0.000000, 0.00, 0, 96, 555, 0
GPS, 3, 457692600, 12, 1.27, -33.7840505, 151.0682076, 5.69, 96.21, 0.52, 56.17
ATT, 0.00, 0.31, 0.00, 0.71, 0.00, 11.34, 17.97
CTUN, 555, 0.00, 5.65, 0.000000, 0.00, 0, 94, 556, 0
ATT, 0.00, 0.22, 0.00, 0.83, 0.00, 11.16, 17.97
CTUN, 555, 0.00, 5.69, 0.000000, 0.00, 0, 92, 555, 0
GPS, 3, 457692800, 12, 1.27, -33.7840501, 151.0682085, 5.87, 96.31, 0.43, 56.68
CTUN, 555, 0.00, 5.73, 0.000000, 0.00, 0, 91, 555, 0
ATT, 0.00, 0.11, 0.00, 0.76, 0.00, 11.03, 17.97
CTUN, 555, 0.00, 5.93, 0.000000, 0.00, 0, 92, 555, 0
ATT, 0.00, 0.03, 0.00, 0.43, 0.00, 11.03, 17.97
GPS, 3, 457693000, 13, 1.21, -33.7840501, 151.0682092, 6.04, 96.49, 0.25, 56.68
CTUN, 555, 0.00, 5.94, 0.000000, 0.00, 0, 93, 555, 0
ATT, 0.00, -0.06, -0.46, -0.02, 0.00, 11.16, 17.97
CTUN, 573, 0.00, 6.10, 0.000000, 0.00, 0, 91, 573, 0
ATT, 0.00, 0.15, -0.58, -0.38, 0.00, 11.39, 17.97
GPS, 3, 457693200, 13, 1.21, -33.7840503, 151.0682098, 6.21, 96.65, 0.19, 56.68
CTUN, 591, 0.00, 6.07, 0.000000, 0.00, 0, 90, 581, 0
ATT, 0.00, 0.48, -0.70, -1.04, 0.00, 11.62, 17.97
CTUN, 594, 0.00, 6.28, 0.000000, 0.00, 0, 93, 594, 0
ATT, 0.00, 0.70, -0.93, -1.11, 0.00, 11.61, 17.97
GPS, 3, 457693400, 13, 1.21, -33.7840504, 151.0682104, 6.39, 96.79, 0.19, 56.68
CTUN, 594, 0.00, 6.32, 0.000000, 0.00, 0, 98, 594, 0
DU32, 7, 82041
CURR, 594, 47814, 1102, 0, 4487, 0.000000
ATT, 0.00, 0.88, -1.64, -0.91, 0.00, 11.47, 17.97
CTUN, 607, 0.00, 6.36, 0.000000, 0.00, 0, 105, 607, 0
GPS, 3, 457693600, 13, 1.21, -33.7840507, 151.0682109, 6.58, 96.95, 0.25, 56.68
ATT, 0.00, 0.60, -2.10, -1.14, 0.00, 11.30, 17.97
CTUN, 609, 0.00, 6.52, 0.000000, 0.00, 0, 112, 609, 0
ATT, 0.00, -0.40, -2.92, -1.42, 0.00, 11.35, 17.97
CTUN, 611, 0.00, 6.55, 0.000000, 0.00, 0, 121, 611, 0
GPS, 3, 457693800, 13, 1.21, -33.7840512, 151.0682114, 6.81, 97.24, 0.42, 106.14
CTUN, 609, 0.00, 6.76, 0.000000, 0.00, 0, 129, 609, 0
ATT, 0.00, -1.12, -5.15, -2.35, 0.00, 11.55, 17.97
CTUN, 610, 0.00, 6.81, 0.000000, 0.00, 0, 137, 612, 0
ATT, 0.00, -1.40, -5.97, -3.78, 0.00, 11.80, 17.97
GPS, 3, 457694000, 13, 1.21, -33.7840516, 151.0682119, 7.06, 97.58, 0.32, 126.35
CTUN, 584, 0.00, 6.90, 0.000000, 0.00, 1, 142, 585, 0
ATT, 0.00, -0.67, -7.14, -4.99, 0.00, 12.12, 17.97
CTUN, 584, 0.00, 6.97, 0.000000, 0.00, 2, 144, 586, 0
ATT, 0.00, 0.04, -7.50, -6.16, 0.00, 12.46, 17.97
GPS, 3, 457694200, 13, 1.21, -33.7840519, 151.0682129, 7.31, 97.77, 0.33, 122.87
CTUN, 584, 0.00, 7.09, 0.000000, 0.00, 2, 145, 586, 0
ATT, 0.00, 0.47, -8.32, -6.69, 0.00, 12.88, 17.97
CTUN, 584, 0.00, 7.32, 0.000000, 0.00, 3, 148, 587, 0
ATT, 0.00, 0.36, -9.14, -7.27, 0.00, 13.12, 17.97
GPS, 3, 457694400, 13, 1.21, -33.7840523, 151.0682139, 7.59, 98.00, 0.45, 125.68
CTUN, 584, 0.00, 7.53, 0.000000, 0.00, 3, 149, 587, 0
DU32, 7, 82041
CURR, 584, 53194, 1102, 0, 4469, 0.000000
ATT, 0.00, 0.37, -9.14, -7.79, 0.00, 13.31, 17.97
CTUN, 584, 0.00, 7.61, 0.000000, 0.00, 4, 148, 588, 0
GPS, 3, 457694600, 13, 1.21, -33.7840528, 151.0682150, 7.86, 98.29, 0.52, 130.01
ATT, 0.00, 0.64, -9.49, -7.75, 0.00, 13.34, 17.97
CTUN, 583, 0.00, 7.74, 0.000000, 0.00, 4, 148, 588, 0
ATT, 0.00, 0.69, -10.31, -7.85, 0.00, 13.38, 17.97
CTUN, 584, 0.00, 7.75, 0.000000, 0.00, 4, 150, 588, 0
GPS, 3, 457694800, 13, 1.21, -33.7840529, 151.0682166, 8.13, 98.46, 0.65, 109.41
ATT, 0.00, 0.12, -10.31, -8.26, 0.00, 13.42, 17.97
CTUN, 583, 0.00, 8.06, 0.000000, 0.00, 4, 151, 588, 0
ATT, 0.00, 0.28, -7.96, -8.49, 0.00, 13.26, 17.97
CTUN, 583, 0.00, 8.26, 0.000000, 0.00, 5, 152, 589, 0
GPS, 3, 457695000, 13, 1.21, -33.7840528, 151.0682186, 8.44, 98.70, 0.79, 101.01
CTUN, 584, 0.00, 8.37, 0.000000, 0.00, 4, 153, 588, 0
ATT, 0.00, 0.33, -4.57, -7.13, 0.00, 12.97, 17.97
CTUN, 583, 0.00, 8.59, 0.000000, 0.00, 2, 157, 585, 0
ATT, 0.00, 0.35, -1.75, -5.07, 0.00, 12.73, 17.97
GPS, 3, 457695200, 13, 1.21, -33.7840525, 151.0682209, 8.74, 98.83, 0.94, 92.17
CTUN, 584, 0.00, 8.74, 0.000000, 0.00, 0, 158, 584, 0
ATT, 0.00, 0.64, -1.17, -2.21, 0.00, 12.51, 17.97
CTUN, 583, 0.00, 8.87, 0.000000, 0.00, 0, 159, 583, 0
ATT, 0.00, 1.31, -0.93, -0.65, 0.00, 12.33, 17.97
GPS, 3, 457695400, 13, 1.21, -33.7840521, 151.0682235, 9.05, 99.02, 1.06, 87.15
CTUN, 584, 0.00, 9.08, 0.000000, 0.00, 0, 162, 584, 0
DU32, 7, 82041
CURR, 584, 59058, 1102, 0, 4523, 0.000000
ATT, 0.00, 1.20, 0.00, 0.68, 0.00, 12.35, 17.97
CTUN, 583, 0.00, 9.19, 0.000000, 0.00, 0, 165, 584, 0
ATT, 0.00, 0.75, 0.00, 1.41, 0.00, 12.44, 17.97
GPS, 3, 457695600, 13, 1.21, -33.7840518, 151.0682259, 9.37, 99.29, 1.00, 87.75
CTUN, 583, 0.00, 9.41, 0.000000, 0.00, 0, 167, 584, 0
ATT, 0.00, 0.32, 0.00, 1.76, 0.00, 12.51, 17.97
CTUN, 577, 0.00, 9.62, 0.000000, 0.00, 0, 166, 584, 0
GPS, 3, 457695800, 13, 1.21, -33.7840518, 151.0682284, 9.71, 99.56, 0.99, 89.85
ATT, 0.00, -0.28, 0.00, 1.90, 0.00, 12.55, 17.97
CTUN, 552, 0.00, 9.57, 0.000000, 0.00, 0, 165, 554, 0
ATT, 0.00, -0.38, -3.86, 1.40, 0.00, 12.43, 17.97
CTUN, 550, 0.00, 9.65, 0.000000, 0.00, 0, 163, 550, 0
GPS, 3, 457696000, 13, 1.21, -33.7840520, 151.0682304, 10.01, 99.85, 0.89, 95.55
CTUN, 552, 0.00, 9.84, 0.000000, 0.00, 0, 155, 552, 0
ATT, 0.00, -0.42, -5.85, -0.81, 0.00, 12.45, 17.97
CTUN, 552, 0.00, 10.14, 0.000000, 0.00, 0, 147, 552, 0
ATT, 0.00, -0.57, -5.85, -2.79, 0.00, 12.62, 17.97
GPS, 3, 457696200, 13, 1.21, -33.7840524, 151.0682324, 10.29, 100.11, 0.82, 105.79
CTUN, 548, 0.00, 10.29, 0.000000, 0.00, 0, 142, 548, 0
ATT, 0.00, -0.19, -6.21, -4.05, 0.00, 12.86, 17.97
CTUN, 543, 0.00, 10.31, 0.000000, 0.00, 1, 137, 544, 0
ATT, 0.00, -0.09, -6.44, -4.66, 0.00, 13.13, 17.97
GPS, 3, 457696400, 13, 1.21, -33.7840531, 151.0682340, 10.55, 100.45, 0.80, 108.31
CTUN, 543, 0.00, 10.56, 0.000000, 0.00, 1, 134, 542, 0
DU32, 7, 82041
CURR, 544, 64090, 1102, 0, 4487, 0.000000
ATT, 0.00, 0.19, -6.67, -5.38, 0.00, 13.46, 17.97
CTUN, 541, 0.00, 10.78, 0.000000, 0.00, 1, 124, 542, 0
ATT, 0.00, 0.21, -7.14, -5.71, 0.00, 13.71, 17.97
GPS, 3, 457696600, 13, 1.21, -33.7840534, 151.0682360, 10.80, 100.72, 0.85, 108.22
CTUN, 544, 0.00, 10.80, 0.000000, 0.00, 2, 120, 546, 0
ATT, -3.70, -0.30, -6.56, -5.60, 0.00, 13.87, 17.97
CTUN, 544, 0.00, 10.91, 0.000000, 0.00, 1, 115, 542, 0
GPS, 3, 457696800, 13, 1.21, -33.7840538, 151.0682383, 11.02, 100.95, 1.01, 103.50
ATT, -2.77, -2.29, -6.21, -5.84, 0.00, 13.82, 17.97
CTUN, 543, 0.00, 11.06, 0.000000, 0.00, 2, 111, 542, 0
ATT, -2.77, -2.64, -6.21, -5.79, 0.00, 13.58, 17.97
CTUN, 543, 0.00, 11.24, 0.000000, 0.00, 2, 104, 545, 0
GPS, 3, 457697000, 13, 1.21, -33.7840539, 151.0682406, 11.24, 101.11, 0.94, 101.28
CTUN, 543, 0.00, 11.25, 0.000000, 0.00, 2, 103, 546, 0
ATT, -1.61, -2.22, -4.45, -5.02, 0.00, 13.19, 17.97
CTUN, 543, 0.00, 11.39, 0.000000, 0.00, 1, 99, 544, 0
ATT, -2.31, -1.73, -3.16, -4.03, 0.00, 12.96, 17.97
GPS, 3, 457697200, 13, 1.21, -33.7840540, 151.0682429, 11.46, 101.23, 0.97, 99.81
CTUN, 543, 0.00, 11.58, 0.000000, 0.00, 0, 96, 544, 0
ATT, -6.24, -1.89, -0.58, -2.11, 0.00, 12.90, 17.97
CTUN, 541, 0.00, 11.59, 0.000000, 0.00, 0, 96, 543, 0
ATT, -7.40, -3.70, -0.46, -0.83, 0.00, 12.80, 17.97
GPS, 3, 457697400, 13, 1.21, -33.7840539, 151.0682453, 11.63, 101.40, 0.97, 94.86
CTUN, 541, 0.00, 11.78, 0.000000, 0.00, 1, 90, 541, 0
ATT, -7.40, -5.51, -0.11, 0.28, 0.00, 12.60, 17.97
DU32, 7, 82041
CURR, 541, 68983, 1102, 0, 4487, 0.000000
CTUN, 492, 0.00, 11.87, 0.000000, 0.00, 2, 86, 543, 0
ATT, -5.08, -5.98, 0.00, 0.83, 0.00, 12.52, 17.97
GPS, 3, 457697600, 13, 1.21, -33.7840539, 151.0682476, 11.82, 101.56, 0.91, 92.59
CTUN, 449, 0.00, 11.83, 0.000000, 0.00, 1, 80, 450, 0
ATT, -4.51, -6.05, 0.00, 0.58, 0.00, 12.47, 17.97
CTUN, 449, 0.00, 11.86, 0.000000, 0.00, 1, 62, 450, 0
GPS, 3, 457697800, 12, 1.29, -33.7840537, 151.0682493, 11.96, 101.67, 0.72, 90.43
ATT, -5.20, -5.30, 0.00, 0.54, 0.00, 12.73, 17.97
CTUN, 449, 0.00, 11.89, 0.000000, 0.00, 1, 45, 450, 0
ATT, -9.02, -5.01, 0.00, 0.63, 0.00, 13.14, 17.97
CTUN, 449, 0.00, 11.95, 0.000000, 0.00, 1, 25, 450, 0
GPS, 3, 457698000, 13, 1.21, -33.7840535, 151.0682507, 12.02, 101.78, 0.60, 86.24
ATT, -8.67, -6.60, 0.00, 0.93, 0.00, 13.76, 17.97
CTUN, 449, 0.00, 12.02, 0.000000, 0.00, 1, 7, 450, 0
ATT, -5.43, -7.87, 0.00, 0.39, 0.00, 14.39, 17.97
CTUN, 449, 0.00, 12.07, 0.000000, 0.00, 3, -12, 452, 0
GPS, 3, 457698200, 13, 1.21, -33.7840532, 151.0682518, 12.00, 101.89, 0.50, 79.88
CTUN, 449, 0.00, 11.99, 0.000000, 0.00, 2, -31, 451, 0
ATT, -0.46, -6.09, 0.00, 0.18, 0.00, 14.85, 17.97
CTUN, 449, 0.00, 11.99, 0.000000, 0.00, 0, -48, 449, 0
ATT, 0.00, -2.80, 0.00, 0.47, 0.00, 15.02, 17.97
GPS, 3, 457698400, 13, 1.21, -33.7840527, 151.0682528, 11.92, 101.87, 0.36, 70.41
CTUN, 449, 0.00, 11.94, 0.000000, 0.00, 0, -65, 449, 0
ATT, 0.00, -0.80, 0.00, 0.88, 0.00, 15.24, 17.97
DU32, 7, 82041
CURR, 449, 73127, 1102, 0, 4452, 0.000000
CTUN, 449, 0.00, 11.78, 0.000000, 0.00, 0, -83, 449, 0
ATT, 0.00, -0.34, 0.00, 0.61, 0.00, 15.43, 17.97
GPS, 3, 457698600, 13, 1.21, -33.7840524, 151.0682531, 11.76, 101.77, 0.23, 63.04
CTUN, 449, 0.00, 11.74, 0.000000, 0.00, 0, -100, 449, 0
ATT, 0.00, -0.10, 0.00, 0.70, 0.00, 15.69, 17.97
CTUN, 449, 0.00, 11.63, 0.000000, 0.00, 0, -119, 449, 0
GPS, 3, 457698800, 13, 1.21, -33.7840520, 151.0682536, 11.54, 101.60, 0.25, 51.59
ATT, 0.00, 0.37, 0.00, 1.22, 0.00, 15.95, 17.97
CTUN, 449, 0.00, 11.46, 0.000000, 0.00, 0, -134, 449, 0
ATT, 0.00, 0.36, 0.00, 1.48, 0.00, 16.17, 17.97
CTUN, 448, 0.00, 11.30, 0.000000, 0.00, 0, -152, 449, 0
GPS, 3, 457699000, 13, 1.21, -33.7840519, 151.0682537, 11.25, 101.29, 0.07, 51.59
ATT, 0.00, 0.41, 0.00, 1.55, 0.00, 16.44, 17.97
CTUN, 449, 0.00, 11.19, 0.000000, 0.00, 0, -169, 449, 0
ATT, 0.00, 0.26, 0.00, 1.77, 0.00, 16.63, 17.97
CTUN, 449, 0.00, 11.05, 0.000000, 0.00, 0, -187, 449, 0
GPS, 3, 457699200, 13, 1.21, -33.7840521, 151.0682538, 10.89, 100.91, 0.05, 51.59
CTUN, 449, 0.00, 10.62, 0.000000, 0.00, 0, -204, 449, 0
ATT, 0.00, 0.56, 0.00, 2.03, 0.00, 16.63, 17.97
CTUN, 449, 0.00, 10.60, 0.000000, 0.00, 0, -222, 449, 0
ATT, 0.00, 0.90, 0.00, 1.89, 0.00, 16.42, 17.97
GPS, 3, 457699400, 13, 1.21, -33.7840524, 151.0682537, 10.44, 100.47, 0.24, 127.29
CTUN, 449, 0.00, 10.27, 0.000000, 0.00, 0, -238, 449, 0
ATT, 0.00, 0.55, 0.00, 1.77, 0.00, 15.92, 17.97
DU32, 7, 82041
CURR, 449, 77615, 1102, 0, 4487, 0.000000
CTUN, 449, 0.00, 9.99, 0.000000, 0.00, 0, -253, 449, 0
ATT, 0.00, -0.74, 0.00, 0.44, 0.00, 15.60, 17.97
GPS, 3, 457699600, 13, 1.21, -33.7840529, 151.0682535, 9.94, 99.99, 0.37, 179.27
CTUN, 449, 0.00, 9.64, 0.000000, 0.00, 0, -269, 449, 0
ATT, 0.00, -0.57, 0.00, -1.97, 0.00, 15.48, 17.97
CTUN, 449, 0.00, 9.56, 0.000000, 0.00, 0, -283, 449, 0
ATT, 0.00, 0.94, 0.00, -2.70, 0.00, 15.33, 17.97
GPS, 3, 457699800, 13, 1.21, -33.7840535, 151.0682532, 9.32, 99.43, 0.50, 197.98
CTUN, 470, 0.00, 9.69, 0.000000, 0.00, 0, -297, 468, 0
ATT, -4.62, 4.28, 15.54, -2.93, 0.00, 14.51, 17.97
CTUN, 473, 0.00, 9.69, 0.000000, 0.00, 1, -314, 471, 0
GPS, 3, 457700000, 13, 1.21, -33.7840541, 151.0682529, 8.75, 98.80, 0.50, 202.32
ATT, -16.77, 0.71, 24.93, 3.67, 0.00, 13.17, 17.97
CTUN, 489, 0.00, 9.48, 0.000000, 0.00, 0, -324, 489, 0
PM, 0, 0, 50, 0, 1000, 10420, 0, 4
ATT, -19.89, -3.29, 25.74, 9.70, 0.00, 12.04, 17.97
CTUN, 512, 0.00, 8.37, 0.000000, 0.00, 4, -327, 509, 0
GPS, 3, 457700200, 13, 1.21, -33.7840551, 151.0682530, 8.16, 98.19, 0.60, 192.04
ATT, -12.84, -12.89, 24.70, 12.20, 0.00, 11.64, 17.97
CTUN, 523, 0.00, 7.88, 0.000000, 0.00, 16, -330, 534, 0
ATT, -14.92, -14.91, 29.69, 12.32, 0.00, 11.82, 17.97
CTUN, 555, 0.00, 7.65, 0.000000, 0.00, 24, -327, 579, 0
GPS, 3, 457700400, 13, 1.21, -33.7840562, 151.0682524, 7.49, 97.52, 0.73, 199.11
CTUN, 585, 0.00, 7.60, 0.000000, 0.00, 35, -320, 616, 0
ATT, -15.38, -16.77, 27.83, 18.15, 0.00, 10.44, 17.97
DU32, 7, 82041
CURR, 583, 82266, 1102, 0, 4469, 0.000000
CTUN, 583, 0.00, 7.53, 0.000000, 0.00, 47, -308, 631, 0
ATT, -14.46, -17.36, 14.49, 18.76, 0.00, 10.33, 17.97
GPS, 3, 457700600, 13, 1.21, -33.7840575, 151.0682508, 6.90, 96.83, 1.09, 221.53
CTUN, 584, 0.00, 7.22, 0.000000, 0.00, 41, -299, 624, 0
ATT, -12.84, -13.70, 5.10, 12.37, 0.00, 10.81, 17.97
CTUN, 584, 0.00, 6.72, 0.000000, 0.00, 19, -280, 603, 0
ATT, -23.59, -12.86, 0.00, 5.25, 0.00, 11.76, 17.97
GPS, 3, 457700800, 13, 1.21, -33.7840582, 151.0682477, 6.43, 96.11, 1.47, 230.18
CTUN, 583, 0.00, 6.56, 0.000000, 0.00, 13, -262, 596, 0
ATT, -22.21, -17.34, -4.80, -4.00, 0.00, 13.85, 17.97
CTUN, 485, 0.00, 6.14, 0.000000, 0.00, 19, -249, 510, 0
ATT, -15.50, -14.75, -9.49, -8.86, 0.00, 14.64, 17.97
GPS, 3, 457701000, 13, 1.21, -33.7840594, 151.0682431, 5.90, 95.43, 2.20, 245.65
CTUN, 487, 0.00, 5.91, 0.000000, 0.00, 16, -244, 501, 0
ATT, -13.99, -8.16, -7.38, -9.47, 0.00, 13.94, 17.97
CTUN, 485, 0.00, 5.62, 0.000000, 0.00, 8, -244, 495, 0
GPS, 3, 457701200, 13, 1.21, -33.7840597, 151.0682391, 5.46, 94.52, 1.87, 252.65
ATT, -12.60, -7.63, -6.44, -7.68, 0.00, 12.91, 17.97
CTUN, 485, 0.00, 5.27, 0.000000, 0.00, 7, -250, 492, 0
ATT, -12.03, -4.68, -5.15, -6.49, 0.00, 12.32, 17.97
CTUN, 488, 0.00, 5.05, 0.000000, 0.00, 3, -260, 489, 0
GPS, 3, 457701400, 13, 1.21, -33.7840589, 151.0682343, 4.95, 93.80, 2.27, 267.20
CTUN, 486, 0.00, 4.91, 0.000000, 0.00, 4, -270, 490, 0
ATT, -11.68, -7.23, -9.84, -7.40, 0.00, 12.48, 17.97
DU32, 7, 82041
CURR, 485, 87070, 1102, 0, 4487, 0.000000
CTUN, 485, 0.00, 4.37, 0.000000, 0.00, 6, -281, 491, 0
ATT, -12.37, -7.21, -10.66, -8.50, 0.00, 12.21, 17.97
GPS, 3, 457701600, 13, 1.21, -33.7840584, 151.0682292, 4.39, 93.20, 2.40, 272.74
CTUN, 485, 0.00, 3.91, 0.000000, 0.00, 6, -293, 491, 0
ATT, -10.41, -5.62, -9.84, -6.76, 0.00, 11.54, 17.97
CTUN, 484, 0.00, 3.85, 0.000000, 0.00, 2, -309, 489, 0
ATT, -14.46, -4.01, -9.49, -2.63, 0.00, 11.28, 17.97
GPS, 3, 457701800, 13, 1.21, -33.7840576, 151.0682246, 3.76, 92.53, 2.23, 275.28
CTUN, 523, 0.00, 3.83, 0.000000, 0.00, 0, -323, 516, 0
ATT, -12.03, -6.34, -9.49, 0.37, 0.00, 12.19, 17.97
CTUN, 562, 0.00, 3.45, 0.000000, 0.00, 3, -342, 563, 0
ATT, -7.05, -8.38, -8.55, -3.10, 0.00, 13.59, 17.97
GPS, 3, 457702000, 13, 1.21, -33.7840570, 151.0682197, 3.04, 91.72, 2.27, 277.63
CTUN, 582, 0.00, 2.98, 0.000000, 0.00, 5, -350, 587, 0
ATT, -6.01, -4.17, -7.50, -5.50, 0.00, 13.74, 17.97
CTUN, 649, 0.00, 2.68, 0.000000, 0.00, 3, -349, 644, 0
GPS, 3, 457702200, 13, 1.21, -33.7840565, 151.0682149, 2.42, 90.90, 2.23, 278.09
ATT, -14.69, -0.58, -6.09, -2.91, 0.00, 13.38, 17.97
CTUN, 684, 0.00, 2.34, 0.000000, 0.00, 0, -339, 680, 0
ATT, -16.65, -4.24, -5.97, -0.51, 0.00, 13.84, 17.97
CTUN, 750, 0.00, 2.03, 0.000000, 0.00, 1, -323, 747, 0
GPS, 3, 457702400, 13, 1.21, -33.7840560, 151.0682104, 1.72, 89.96, 2.18, 280.23
ATT, -12.37, -6.40, -6.21, -5.42, 0.00, 15.29, 17.97
CTUN, 772, 0.00, 2.13, 0.000000, 0.00, 5, -298, 764, 0
DU32, 7, 82041
CURR, 839, 92596, 1102, 0, 4469, 0.000000
ATT, -13.65, -7.59, -5.39, -7.78, 0.00, 17.36, 17.97
CTUN, 839, 0.00, 2.10, 0.000000, 0.00, 12, -255, 836, 0
GPS, 3, 457702600, 13, 1.21, -33.7840554, 151.0682065, 1.26, 89.03, 1.92, 281.13
CTUN, 882, 0.00, 1.69, 0.000000, 0.00, 21, -213, 875, 0
ATT, -14.11, -11.13, -7.14, -10.56, 0.00, 19.32, 17.97
CTUN, 925, 0.00, 1.30, 0.000000, 0.00, 27, -154, 941, 0
ATT, -11.79, -11.14, -7.61, -10.81, -1.95, 20.03, 17.70
GPS, 3, 457702800, 13, 1.21, -33.7840540, 151.0682035, 1.01, 88.00, 1.72, 288.88
CTUN, 936, 0.00, 1.12, 0.000000, 0.00, 32, -98, 966, 0
ATT, 0.00, -10.48, -6.21, -9.74, -2.87, 19.08, 16.17
CTUN, 875, 0.00, 0.79, 0.000000, 0.00, 16, -24, 891, 0
ATT, 0.46, -5.21, 0.00, -7.04, 0.00, 17.15, 15.87
GPS, 3, 457703000, 13, 1.21, -33.7840504, 151.0682010, 0.92, 87.30, 2.04, 305.21
CTUN, 550, 0.00, 0.74, 0.000000, 0.00, 3, 20, 704, 0
ATT, 34.41, 2.39, 6.72, -1.12, 0.00, 15.10, 15.85
CTUN, 335, 0.00, 0.62, 0.000000, 0.00, 1, 54, 336, 0
GPS, 3, 457703200, 13, 1.21, -33.7840459, 151.0681982, 0.98, 86.94, 2.38, 318.18
ATT, 39.36, 25.07, 0.00, 3.57, 0.00, 13.46, 15.85
CTUN, 316, 0.00, 0.80, 0.000000, 0.00, 19, 36, 335, 0
ATT, 37.86, 37.86, 0.00, 8.50, 0.00, 13.77, 15.85
CTUN, 310, 0.00, 0.88, 0.000000, 0.00, 50, 2, 360, 0
GPS, 3, 457703400, 13, 1.21, -33.7840431, 151.0681944, 0.97, 86.63, 2.19, 316.20
ATT, 33.37, 40.36, 0.00, 12.21, 0.00, 14.77, 15.85
CTUN, 305, 0.00, 0.79, 0.000000, 0.00, 60, -36, 366, 0
ATT, 8.97, 36.63, 0.00, 10.99, 0.00, 13.18, 15.85
CTUN, 674, 0.00, 0.76, 0.000000, 0.00, 100, -85, 588, 0
DU32, 7, 82041
CURR, 746, 98414, 1102, 0, 4487, 0.000000
GPS, 3, 457703600, 13, 1.21, -33.7840409, 151.0681909, 0.80, 86.64, 1.83, 308.56
ATT, -21.97, 19.30, 0.46, 7.90, -0.23, 12.26, 15.81
CTUN, 837, 0.00, 0.66, 0.000000, 0.00, 80, -98, 855, 0
ATT, -23.83, 0.77, 0.00, 4.32, -13.46, 11.60, 11.72
CTUN, 918, 0.00, 0.53, 0.000000, 0.00, 5, -65, 914, 0
GPS, 3, 457703800, 12, 1.24, -33.7840398, 151.0681879, 0.66, 86.31, 1.55, 303.80
CTUN, 918, 0.00, 0.55, 0.000000, 0.00, 20, -10, 938, 0
ATT, -3.47, -12.57, 0.00, 2.90, -4.37, 8.84, 7.07
CTUN, 638, 0.00, 0.44, 0.000000, 0.00, 16, 46, 784, 0
ATT, 0.00, -11.32, 0.00, 2.34, 0.00, 6.05, 7.01
GPS, 3, 457704000, 12, 1.24, -33.7840409, 151.0681857, 0.71, 86.55, 1.28, 260.22
CTUN, 214, 0.00, 0.36, 0.000000, 0.00, 2, 78, 410, 0
ATT, 0.00, -5.80, 0.00, 2.11, 0.00, 3.28, 3.28
CTUN, 0, 0.00, 0.37, 0.000000, 0.00, 0, 67, 0, 0
ATT, 0.00, -3.68, 0.00, 2.98, 0.00, 0.67, 0.67
GPS, 3, 457704200, 12, 1.24, -33.7840414, 151.0681838, 0.79, 86.85, 1.23, 253.10
CTUN, 0, 0.00, 0.48, 0.000000, 0.00, 0, 6, 0, 0
ATT, 0.00, -0.22, 0.00, 1.85, 0.00, 357.40, 357.40
CTUN, 0, 0.00, 0.58, 0.000000, 0.00, 0, -67, 0, 0
ATT, 0.00, -1.15, 0.00, 0.66, 10.24, 357.66, 357.66
GPS, 3, 457704400, 12, 1.24, -33.7840414, 151.0681820, 0.65, 86.96, 0.94, 253.63
CTUN, 0, 0.00, 0.59, 0.000000, 0.00, 0, -147, 0, 0
ATT, 0.00, 0.36, 0.00, -3.94, 0.00, 358.90, 358.90
CTUN, 0, 0.00, 0.56, 0.000000, 0.00, 0, -231, 0, 0
DU32, 7, 82009
CURR, 0, 102419, 1102, 0, 4487, 0.000000
ATT, 0.00, -0.08, 0.00, -7.77, 0.00, 359.93, 359.93
GPS, 3, 457704600, 13, 1.21, -33.7840405, 151.0681798, 0.23, 86.67, 1.03, 271.90
CTUN, 0, 0.00, 0.08, 0.000000, 0.00, 0, -315, 0, 0
ATT, 0.00, 3.43, 0.00, 8.44, 0.00, 0.81, 0.81
CTUN, 0, 0.00, -0.82, 0.000000, 0.00, 0, -108, 0, 0
ATT, 0.00, 20.90, 0.00, -10.17, 0.00, 342.12, 342.12
GPS, 3, 457704800, 13, 1.21, -33.7840406, 151.0681774, -0.16, 86.37, 1.13, 273.83
CTUN, 0, 0.00, -0.08, 0.000000, 0.00, 0, -204, 0, 0
ATT, 0.00, 37.72, 0.00, -27.12, 0.00, 319.68, 319.68
CTUN, 0, 0.00, 0.06, 0.000000, 0.00, 0, -329, 0, 0
ATT, 0.00, 61.44, 0.00, -46.38, 0.00, 291.12, 291.12
GPS, 3, 457705000, 13, 1.21, -33.7840429, 151.0681735, -0.69, 86.34, 1.97, 248.82
CTUN, 0, 0.00, -0.08, 0.000000, 0.00, 0, -305, 0, 0
ATT, 0.00, 23.38, 0.00, -54.56, 0.00, 302.50, 302.50
CTUN, 0, 0.00, -0.18, 0.000000, 0.00, 0, -322, 0, 0
ATT, 0.00, -6.75, 0.00, -51.73, 0.00, 317.64, 317.64
GPS, 3, 457705200, 13, 1.21, -33.7840461, 151.0681702, -1.21, 86.30, 2.25, 236.79
CTUN, 0, 0.00, -0.26, 0.000000, 0.00, 0, -240, 0, 0
ATT, 0.00, -31.90, 0.00, -54.22, 0.00, 344.43, 344.43
CTUN, 0, 0.00, -0.23, 0.000000, 0.00, 0, -267, 0, 0
ATT, 0.00, -43.17, 0.00, -52.73, 0.00, 2.30, 2.30
GPS, 3, 457705400, 13, 1.21, -33.7840488, 151.0681686, -1.60, 86.13, 1.80, 226.28
CTUN, 0, 0.00, -0.26, 0.000000, 0.00, 0, -278, 0, 0
ATT, 0.00, -33.20, 0.00, -52.80, 0.00, 1.36, 1.36
CTUN, 0, 0.00, -0.23, 0.000000, 0.00, 0, -280, 0, 0
DU32, 7, 82009
CURR, 0, 102419, 1102, 0, 4452, 0.000000
ATT, 0.00, -16.33, 0.00, -51.28, 0.00, 349.66, 349.66
GPS, 3, 457705600, 13, 1.21, -33.7840506, 151.0681682, -1.98, 86.17, 1.22, 214.59
CTUN, 0, 0.00, -0.19, 0.000000, 0.00, 0, -257, 0, 0
ATT, 0.00, -6.19, 0.00, -47.28, 0.00, 333.12, 333.12
CTUN, 0, 0.00, -0.24, 0.000000, 0.00, 0, -265, 0, 0
ATT, 0.00, -3.12, 0.00, -40.30, 0.00, 322.18, 322.18
GPS, 3, 457705800, 13, 1.21, -33.7840523, 151.0681691, -2.28, 86.36, 1.10, 192.61
CTUN, 0, 0.00, -0.17, 0.000000, 0.00, 0, -267, 0, 0
ATT, 0.00, -4.40, 0.00, -29.74, 0.00, 321.61, 321.61
CTUN, 0, 0.00, -0.17, 0.000000, 0.00, 0, -261, 0, 0
ATT, 0.00, -7.89, 0.00, -15.22, 0.00, 324.83, 324.83
GPS, 3, 457706000, 12, 1.24, -33.7840539, 151.0681691, -2.55, 86.55, 1.02, 184.31
CTUN, 0, 0.00, -0.15, 0.000000, 0.00, 0, -295, 0, 0
ATT, 0.00, -9.59, 0.00, -0.68, 0.00, 328.47, 328.47
CTUN, 0, 0.00, -0.42, 0.000000, 0.00, 0, -242, 0, 0
ATT, 0.00, -7.57, 0.00, -2.20, 0.00, 337.62, 337.62
GPS, 3, 457706200, 12, 1.24, -33.7840545, 151.0681694, -2.81, 86.72, 0.64, 181.67
CTUN, 0, 0.00, -0.39, 0.000000, 0.00, 0, -278, 0, 0
ATT, 0.00, -6.66, 0.00, -1.71, -9.78, 340.85, 340.85
CTUN, 0, 0.00, -0.27, 0.000000, 0.00, 0, -269, 0, 0
ATT, 0.00, -6.95, 0.00, 0.15, 3.29, 341.87, 341.87
GPS, 3, 457706400, 12, 1.24, -33.7840547, 151.0681695, -3.02, 86.85, 0.33, 181.67
CTUN, 0, 0.00, -0.46, 0.000000, 0.00, 0, -262, 0, 0
ATT, 0.00, -6.70, 0.00, 1.79, 44.87, 342.93, 342.93
CTUN, 0, 0.00, -0.33, 0.000000, 0.00, 0, -248, 0, 0
DU32, 7, 82009
CURR, 0, 102419, 1102, 0, 4541, 0.000000
ATT, 0.00, -6.63, 0.00, 1.78, 44.75, 343.20, 343.20
GPS, 3, 457706600, 12, 1.24, -33.7840546, 151.0681695, -3.19, 86.91, 0.14, 181.67
CTUN, 0, 0.00, -0.46, 0.000000, 0.00, 0, -243, 0, 0
ATT, 0.00, -6.52, 0.00, 1.70, 44.87, 343.42, 343.42
CTUN, 0, 0.00, -0.41, 0.000000, 0.00, 0, -240, 0, 0
ATT, 0.00, -6.51, 0.00, 1.69, 44.87, 343.53, 343.53
GPS, 3, 457706800, 12, 1.24, -33.7840540, 151.0681693, -3.34, 86.96, 0.24, 181.67
CTUN, 0, 0.00, -0.33, 0.000000, 0.00, 0, -236, 0, 0
ATT, 0.00, -6.48, 0.00, 1.61, 44.87, 343.68, 343.68
CTUN, 0, 0.00, -0.25, 0.000000, 0.00, 0, -233, 0, 0
ATT, 0.00, -6.40, 0.00, 1.50, 44.87, 343.87, 343.87
GPS, 3, 457707000, 12, 1.24, -33.7840540, 151.0681690, -3.44, 87.03, 0.17, 181.67
CTUN, 0, 0.00, -0.37, 0.000000, 0.00, 0, -229, 0, 0
ATT, 0.00, -6.35, 0.00, 1.52, 44.87, 344.02, 344.02
CTUN, 0, 0.00, -0.28, 0.000000, 0.00, 0, -225, 0, 0
ATT, 0.00, -6.32, 0.00, 1.57, 44.87, 344.14, 344.14
GPS, 3, 457707200, 12, 1.24, -33.7840541, 151.0681686, -3.51, 87.03, 0.21, 181.67
CTUN, 0, 0.00, -0.39, 0.000000, 0.00, 0, -221, 0, 0
ATT, 0.00, -6.31, 0.00, 1.58, 44.87, 344.31, 344.31
CTUN, 0, 0.00, -0.40, 0.000000, 0.00, 0, -217, 0, 0
ATT, 0.00, -6.30, 0.00, 1.60, 44.87, 344.44, 344.44
GPS, 3, 457707400, 12, 1.24, -33.7840536, 151.0681683, -3.57, 86.99, 0.33, 181.67
CTUN, 0, 0.00, -0.39, 0.000000, 0.00, 0, -213, 0, 0
ATT, 0.00, -6.26, 0.00, 1.57, 44.87, 344.58, 344.58
CTUN, 0, 0.00, -0.35, 0.000000, 0.00, 0, -208, 0, 0
DU32, 7, 82009
CURR, 0, 102419, 1102, 0, 4487, 0.000000
ATT, 0.00, -6.22, 0.00, 1.53, 44.87, 344.73, 344.73
GPS, 3, 457707600, 12, 1.24, -33.7840528, 151.0681683, -3.60, 87.12, 0.38, 181.67
CTUN, 0, 0.00, -0.37, 0.000000, 0.00, 0, -204, 0, 0
ATT, 0.00, -6.12, 0.00, 1.49, 6.46, 344.87, 344.87
CTUN, 0, 0.00, -0.38, 0.000000, 0.00, 0, -200, 0, 0
ATT, 0.00, -6.02, 0.00, 1.48, -23.82, 345.00, 345.00
GPS, 3, 457707800, 12, 1.24, -33.7840527, 151.0681685, -3.62, 87.21, 0.22, 181.67
CTUN, 0, 0.00, -0.39, 0.000000, 0.00, 0, -195, 0, 0
ATT, 0.00, -5.96, 0.00, 1.52, -44.42, 345.14, 345.14
CTUN, 0, 0.00, -0.40, 0.000000, 0.00, 0, -191, 0, 0
ATT, 0.00, -5.91, 0.00, 1.57, -44.88, 345.27, 345.27
GPS, 3, 457708000, 12, 1.24, -33.7840534, 151.0681690, -3.62, 87.31, 0.13, 181.67
CTUN, 0, 0.00, -0.43, 0.000000, 0.00, 0, -187, 0, 0
ATT, 0.00, -5.90, 0.00, 1.65, -44.88, 345.40, 345.40
CTUN, 0, 0.00, -0.42, 0.000000, 0.00, 0, -183, 0, 0
ATT, 0.00, -5.89, 0.00, 1.75, -44.88, 345.54, 345.54
GPS, 3, 457708200, 12, 1.24, -33.7840540, 151.0681691, -3.60, 87.50, 0.29, 181.67
CTUN, 0, 0.00, -0.44, 0.000000, 0.00, 0, -178, 0, 0
ATT, 0.00, -5.85, 0.00, 1.81, -44.88, 345.66, 345.66
CTUN, 0, 0.00, -0.39, 0.000000, 0.00, 0, -174, 0, 0
ATT, 0.00, -5.82, 0.00, 1.86, -44.88, 345.79, 345.79
GPS, 3, 457708400, 12, 1.24, -33.7840543, 151.0681696, -3.57, 87.56, 0.21, 181.67
CTUN, 0, 0.00, -0.41, 0.000000, 0.00, 0, -170, 0, 0
ATT, 0.00, -5.77, 0.00, 1.85, -44.88, 345.92, 345.92
CTUN, 0, 0.00, -0.41, 0.000000, 0.00, 0, -165, 0, 0
DU32, 7, 82009
CURR, 0, 102419, 1102, 0, 4452, 0.000000
ATT, 0.00, -5.71, 0.00, 1.82, -44.88, 346.04, 346.04
GPS, 3, 457708600, 12, 1.24, -33.7840545, 151.0681699, -3.52, 87.60, 0.14, 181.67
CTUN, 0, 0.00, -0.52, 0.000000, 0.00, 0, -161, 0, 0
ATT, 0.00, -5.68, 0.00, 1.81, -44.88, 346.19, 346.19
