dump 4

ArduCopter V3.1-rc2
Free RAM: 1145
APM 2
FMT, 128, 89, FMT, BBnNZ, Type,Length,Name,Format
FMT, 129, 23, PARM, Nf, Name,Value
FMT, 130, 35, GPS, BIBcLLeeEe, Status,Time,NSats,HDop,Lat,Lng,RelAlt,Alt,Spd,GCrs
FMT, 131, 27, IMU, ffffff, GyrX,GyrY,GyrZ,AccX,AccY,AccZ
FMT, 132, 67, MSG, Z, Message
FMT, 9, 19, CURR, hIhhhf, Thr,ThrInt,Volt,Curr,Vcc,CurrTot
FMT, 11, 11, MOT, hhhh, Mot1,Mot2,Mot3,Mot4
FMT, 12, 28, OF, hhBccffee, Dx,Dy,SQual,X,Y,Lat,Lng,Roll,Pitch
FMT, 5, 49, NTUN, Ecffffffffee, WPDst,WPBrg,PErX,PErY,DVelX,DVelY,VelX,VelY,DAcX,DAcY,DRol,DPit
FMT, 4, 25, CTUN, hcefchhhh, ThrIn,SonAlt,BarAlt,WPAlt,DesSonAlt,AngBst,CRate,ThrOut,DCRate
FMT, 15, 21, MAG, hhhhhhhhh, MagX,MagY,MagZ,OfsX,OfsY,OfsZ,MOfsX,MOfsY,MOfsZ
FMT, 6, 17, PM, BBBHHIhB, RenCnt,RenBlw,FixCnt,NLon,NLoop,MaxT,PMT,I2CErr
FMT, 8, 20, CMD, BBBBBeLL, CTot,CNum,CId,COpt,Prm1,Alt,Lat,Lng
FMT, 1, 17, ATT, cccccCC, RollIn,Roll,PitchIn,Pitch,YawIn,Yaw,NavYaw
FMT, 17, 37, INAV, cccfffiiff, BAlt,IAlt,IClb,ACorrX,ACorrY,ACorrZ,GLat,GLng,ILat,ILng
FMT, 3, 6, MODE, Mh, Mode,ThrCrs
FMT, 10, 3, STRT, , 
FMT, 13, 4, EV, B, Id
FMT, 20, 6, D16, Bh, Id,Value
FMT, 21, 6, DU16, BH, Id,Value
FMT, 22, 8, D32, Bi, Id,Value
FMT, 23, 8, DU32, BI, Id,Value
FMT, 24, 8, DFLT, Bf, Id,Value
FMT, 14, 28, PID, Biiiiif, Id,Error,P,I,D,Out,Gain
FMT, 16, 15, DMP, ccccCC, DCMRoll,DMPRoll,DCMPtch,DMPPtch,DCMYaw,DMPYaw
FMT, 18, 25, CAM, ILLeccC, GPSTime,Lat,Lng,Alt,Roll,Pitch,Yaw
FMT, 19, 5, ERR, BB, Subsys,ECode
D32, 9, 5794
CMD, 6, 0, 16, 0, 0, 0.00, -33.7840499, 151.0681954
EV, 10
GPS, 3, 459901600, 9, 2.14, -33.7840496, 151.0681956, 1.20, 96.28, 0.03, 345.34
CTUN, 0, 0.00, -0.01, 0.000000, 0.00, 0, 2, 0, 0
ATT, 0.00, -2.60, 0.00, 3.52, 0.00, 58.02, 58.02
CTUN, 0, 0.00, -0.04, 0.000000, 0.00, 0, 1, 0, 0
ATT, 0.00, -2.61, 0.00, 3.53, 0.00, 57.95, 57.95
GPS, 3, 459909000, 9, 2.14, -33.7840386, 151.0682019, 1.08, 96.10, 0.09, 345.34
CTUN, 0, 0.00, -0.01, 0.000000, 0.00, 0, 0, 0, 0
ATT, 0.00, -2.62, 0.00, 3.53, 0.00, 57.92, 57.92
CTUN, 0, 0.00, 0.04, 0.000000, 0.00, 0, -1, 0, 0
ATT, 0.00, -2.64, 0.00, 3.52, 0.00, 57.91, 57.91
DU32, 7, 98393
CURR, 0, 0, 1226, 75, 4752, 0.960793
GPS, 3, 459909200, 9, 2.14, -33.7840386, 151.0682021, 0.95, 96.11, 0.08, 345.34
CTUN, 0, 0.00, 0.01, 0.000000, 0.00, 0, -2, 0, 0
ATT, 0.00, -2.65, 0.00, 3.53, 0.00, 57.92, 57.92
CTUN, 0, 0.00, -0.13, 0.000000, 0.00, 0, -3, 0, 0
ATT, 0.00, -2.65, 0.00, 3.54, 0.00, 57.91, 57.91
GPS, 3, 459909400, 9, 2.14, -33.7840386, 151.0682023, 0.83, 96.12, 0.05, 345.34
CTUN, 0, 0.00, -0.08, 0.000000, 0.00, 0, -4, 0, 0
ATT, 0.00, -2.64, 0.00, 3.54, 0.00, 57.91, 57.91
CTUN, 0, 0.00, -0.15, 0.000000, 0.00, 0, -5, 0, 0
ATT, 0.00, -2.63, 0.00, 3.54, 0.00, 57.89, 57.89
GPS, 3, 459909600, 9, 2.14, -33.7840388, 151.0682025, 0.71, 96.08, 0.05, 345.34
CTUN, 0, 0.00, -0.15, 0.000000, 0.00, 0, -6, 0, 0
ATT, 0.00, -2.63, 0.00, 3.54, 0.00, 57.89, 57.89
CTUN, 0, 0.00, -0.08, 0.000000, 0.00, 0, -8, 0, 0
ATT, 0.00, -2.63, 0.00, 3.56, 0.00, 57.88, 57.88
GPS, 3, 459909800, 9, 2.14, -33.7840390, 151.0682028, 0.59, 96.04, 0.04, 345.34
CTUN, 0, 0.00, -0.06, 0.000000, 0.00, 0, -9, 0, 0
ATT, 0.00, -2.64, 0.00, 3.56, 0.00, 57.87, 57.87
CTUN, 0, 0.00, -0.12, 0.000000, 0.00, 0, -9, 0, 0
ATT, 0.00, -2.63, 0.00, 3.56, 0.00, 57.86, 57.86
GPS, 3, 459910000, 9, 2.14, -33.7840391, 151.0682029, 0.50, 95.99, 0.06, 345.34
CTUN, 0, 0.00, -0.13, 0.000000, 0.00, 0, -10, 0, 0
ATT, 0.00, -2.64, 0.00, 3.56, 0.00, 57.85, 57.85
CTUN, 0, 0.00, -0.16, 0.000000, 0.00, 0, -11, 0, 0
ATT, 0.00, -2.65, 0.00, 3.57, 0.00, 57.84, 57.84
DU32, 7, 98393
CURR, 0, 0, 1228, 64, 4732, 1.137242
GPS, 3, 459910200, 9, 2.14, -33.7840394, 151.0682032, 0.40, 95.92, 0.01, 345.34
CTUN, 0, 0.00, -0.10, 0.000000, 0.00, 0, -12, 0, 0
ATT, 0.00, -2.64, 0.00, 3.58, 0.00, 57.83, 57.83
CTUN, 0, 0.00, -0.14, 0.000000, 0.00, 0, -13, 0, 0
ATT, 0.00, -2.63, 0.00, 3.58, 0.00, 57.83, 57.83
GPS, 3, 459910400, 9, 2.14, -33.7840396, 151.0682034, 0.31, 95.85, 0.04, 345.34
CTUN, 0, 0.00, -0.16, 0.000000, 0.00, 0, -13, 0, 0
ATT, 0.00, -2.63, 0.00, 3.58, 0.00, 57.82, 57.82
CTUN, 0, 0.00, -0.04, 0.000000, 0.00, 0, -14, 0, 0
ATT, 0.00, -2.65, 0.00, 3.59, 0.00, 57.80, 57.80
GPS, 3, 459910600, 9, 2.14, -33.7840397, 151.0682034, 0.23, 95.80, 0.02, 345.34
CTUN, 0, 0.00, -0.15, 0.000000, 0.00, 0, -14, 0, 0
ATT, 0.00, -2.64, 0.00, 3.60, 0.00, 57.80, 57.80
CTUN, 0, 0.00, -0.15, 0.000000, 0.00, 0, -15, 0, 0
ATT, 0.00, -2.63, 0.00, 3.61, 0.00, 57.78, 57.78
GPS, 3, 459910800, 9, 2.14, -33.7840397, 151.0682035, 0.16, 95.77, 0.02, 345.34
CTUN, 0, 0.00, -0.17, 0.000000, 0.00, 0, -15, 0, 0
ATT, 0.00, -2.64, 0.00, 3.61, 0.00, 57.77, 57.77
CTUN, 0, 0.00, -0.17, 0.000000, 0.00, 0, -16, 0, 0
ATT, 0.00, -2.65, 0.00, 3.61, 0.00, 57.76, 57.76
GPS, 3, 459911000, 9, 2.14, -33.7840397, 151.0682036, 0.09, 95.72, 0.01, 345.34
CTUN, 0, 0.00, -0.18, 0.000000, 0.00, 0, -16, 0, 0
ATT, 0.00, -2.65, 0.00, 3.61, 0.00, 57.76, 57.76
CTUN, 0, 0.00, -0.09, 0.000000, 0.00, 0, -17, 0, 0
ATT, 0.00, -2.65, 0.00, 3.62, 0.00, 57.74, 57.74
DU32, 7, 98393
CURR, 0, 0, 1225, 61, 4712, 1.310251
GPS, 3, 459911200, 9, 2.14, -33.7840398, 151.0682037, 0.03, 95.67, 0.03, 345.34
CTUN, 0, 0.00, -0.30, 0.000000, 0.00, 0, -17, 0, 0
ATT, 0.00, -2.64, 0.00, 3.62, 0.00, 57.73, 57.73
CTUN, 0, 0.00, -0.18, 0.000000, 0.00, 0, -17, 0, 0
ATT, 0.00, -2.63, 0.00, 3.61, 0.00, 57.72, 57.72
GPS, 3, 459911400, 9, 2.14, -33.7840400, 151.0682038, -0.03, 95.62, 0.04, 345.34
CTUN, 0, 0.00, -0.21, 0.000000, 0.00, 0, -18, 0, 0
ATT, 0.00, -2.63, 0.00, 3.62, 0.00, 57.71, 57.71
CTUN, 0, 0.00, -0.22, 0.000000, 0.00, 0, -18, 0, 0
ATT, 0.00, -2.63, 0.00, 3.64, 0.00, 57.70, 57.70
GPS, 3, 459911600, 9, 2.14, -33.7840400, 151.0682038, -0.08, 95.60, 0.01, 345.34
CTUN, 0, 0.00, -0.32, 0.000000, 0.00, 0, -18, 0, 0
ATT, 0.00, -2.64, 0.00, 3.64, 0.00, 57.69, 57.69
CTUN, 0, 0.00, -0.27, 0.000000, 0.00, 0, -19, 0, 0
ATT, 0.00, -2.65, 0.00, 3.64, 0.00, 57.68, 57.68
GPS, 3, 459911800, 9, 2.14, -33.7840399, 151.0682038, -0.15, 95.61, 0.02, 345.34
CTUN, 0, 0.00, -0.31, 0.000000, 0.00, 0, -19, 0, 0
ATT, 0.00, -2.65, 0.00, 3.64, 0.00, 57.67, 57.67
CTUN, 0, 0.00, -0.15, 0.000000, 0.00, 0, -19, 0, 0
ATT, 0.00, -2.65, 0.00, 3.65, 0.00, 57.67, 57.67
GPS, 3, 459912000, 9, 2.14, -33.7840398, 151.0682038, -0.20, 95.62, 0.01, 345.34
CTUN, 0, 0.00, -0.15, 0.000000, 0.00, 0, -19, 0, 0
ATT, 0.00, -2.65, 0.00, 3.65, 0.00, 57.66, 57.66
CTUN, 0, 0.00, -0.23, 0.000000, 0.00, 0, -19, 0, 0
DU32, 7, 98393
CURR, 0, 0, 1225, 62, 4793, 1.488056
ATT, 0.00, -2.66, 0.00, 3.66, 0.00, 57.65, 57.65
GPS, 3, 459912200, 9, 2.14, -33.7840397, 151.0682038, -0.24, 95.63, 0.01, 345.34
CTUN, 0, 0.00, -0.19, 0.000000, 0.00, 0, -19, 0, 0
ATT, 0.00, -2.66, 0.00, 3.66, 0.00, 57.65, 57.65
CTUN, 0, 0.00, -0.35, 0.000000, 0.00, 0, -19, 0, 0
EV, 28
ATT, 0.00, -2.67, 0.00, 3.66, 0.00, 57.65, 57.65
GPS, 3, 459912400, 9, 2.14, -33.7840396, 151.0682039, -0.27, 95.61, 0.01, 345.34
CTUN, 0, 0.00, -0.25, 0.000000, 0.00, 0, -20, 0, 0
ATT, 0.00, -2.67, 0.00, 3.65, 0.00, 57.63, 57.63
CTUN, 0, 0.00, -0.29, 0.000000, 0.00, 0, -20, 0, 0
ATT, 0.00, -2.68, 0.00, 3.65, 0.00, 57.63, 57.63
GPS, 3, 459912600, 9, 2.14, -33.7840395, 151.0682039, -0.31, 95.65, 0.01, 345.34
CTUN, 0, 0.00, -0.27, 0.000000, 0.00, 0, -20, 0, 0
ATT, 0.00, -2.67, 0.00, 3.67, 0.00, 57.62, 57.62
CTUN, 0, 0.00, -0.34, 0.000000, 0.00, 0, -20, 0, 0
ATT, 0.00, -2.67, 0.00, 3.67, 0.00, 57.61, 57.61
GPS, 3, 459912800, 9, 2.14, -33.7840393, 151.0682038, -0.35, 95.68, 0.01, 345.34
CTUN, 0, 0.00, -0.24, 0.000000, 0.00, 0, -20, 0, 0
ATT, 0.00, -2.68, 0.00, 3.67, 0.00, 57.62, 57.62
CTUN, 0, 0.00, -0.28, 0.000000, 0.00, 0, -20, 0, 0
ATT, 0.00, -2.67, 0.00, 3.68, 0.00, 57.61, 57.61
GPS, 3, 459913000, 9, 2.14, -33.7840392, 151.0682039, -0.38, 95.65, 0.02, 345.34
CTUN, 0, 0.00, -0.23, 0.000000, 0.00, 0, -20, 0, 0
ATT, 0.00, -2.68, 0.00, 3.68, 0.00, 57.60, 57.60
CTUN, 0, 0.00, -0.23, 0.000000, 0.00, 0, -20, 0, 0
DU32, 7, 65625
CURR, 0, 0, 1225, 63, 4752, 1.659387
ATT, 0.00, -2.69, 0.00, 3.68, 0.00, 57.61, 57.61
GPS, 3, 459913200, 9, 2.14, -33.7840391, 151.0682039, -0.41, 95.66, 0.01, 345.34
CTUN, 0, 0.00, -0.24, 0.000000, 0.00, 0, -20, 0, 0
ATT, 0.00, -2.69, 0.00, 3.68, 0.00, 57.60, 57.60
CTUN, 0, 0.00, -0.29, 0.000000, 0.00, 0, -20, 0, 0
ATT, 0.00, -2.68, 0.00, 3.68, 0.00, 57.58, 57.58
GPS, 3, 459913400, 9, 2.14, -33.7840390, 151.0682040, -0.43, 95.67, 0.03, 345.34
CTUN, 0, 0.00, -0.27, 0.000000, 0.00, 0, -20, 0, 0
ATT, 0.00, -2.68, 0.00, 3.69, 0.00, 57.58, 57.58
CTUN, 0, 0.00, -0.19, 0.000000, 0.00, 0, -20, 0, 0
ATT, 0.00, -2.67, 0.00, 3.68, 0.00, 57.57, 57.57
GPS, 3, 459913600, 9, 2.14, -33.7840389, 151.0682039, -0.45, 95.68, 0.01, 345.34
CTUN, 0, 0.00, -0.18, 0.000000, 0.00, 0, -20, 0, 0
ATT, 0.00, -2.67, 0.00, 3.68, 0.00, 57.56, 57.56
CTUN, 0, 0.00, -0.26, 0.000000, 0.00, 0, -19, 0, 0
ATT, 0.00, -2.69, 0.00, 3.69, 0.00, 57.55, 57.55
GPS, 3, 459913800, 9, 2.14, -33.7840389, 151.0682039, -0.46, 95.66, 0.01, 345.34
CTUN, 0, 0.00, -0.41, 0.000000, 0.00, 0, -19, 0, 0
ATT, 0.00, -2.69, 0.00, 3.70, 0.00, 57.55, 57.55
CTUN, 0, 0.00, -0.27, 0.000000, 0.00, 0, -19, 0, 0
ATT, 0.00, -2.69, 0.00, 3.70, 0.00, 57.54, 57.54
GPS, 3, 459914000, 9, 2.14, -33.7840388, 151.0682040, -0.48, 95.67, 0.02, 345.34
CTUN, 0, 0.00, -0.25, 0.000000, 0.00, 0, -19, 0, 0
ATT, 0.00, -2.68, 0.00, 3.71, 0.00, 57.54, 57.54
CTUN, 0, 0.00, -0.30, 0.000000, 0.00, 0, -19, 0, 0
DU32, 7, 65625
CURR, 0, 0, 1225, 64, 4752, 1.831544
ATT, 0.00, -2.68, 0.00, 3.70, 0.00, 57.52, 57.52
GPS, 3, 459914200, 9, 2.14, -33.7840388, 151.0682040, -0.49, 95.67, 0.05, 345.34
CTUN, 0, 0.00, -0.30, 0.000000, 0.00, 0, -19, 0, 0
ATT, 0.00, -2.68, 0.00, 3.70, 0.00, 57.51, 57.51
CTUN, 0, 0.00, -0.30, 0.000000, 0.00, 0, -19, 0, 0
ATT, 0.00, -2.68, 0.00, 3.72, 0.00, 57.49, 57.49
GPS, 3, 459914400, 9, 2.14, -33.7840388, 151.0682040, -0.51, 95.68, 0.01, 345.34
CTUN, 0, 0.00, -0.32, 0.000000, 0.00, 0, -18, 0, 0
ATT, 0.00, -2.69, 0.00, 3.72, 0.00, 57.48, 57.48
CTUN, 0, 0.00, -0.26, 0.000000, 0.00, 0, -18, 0, 0
ATT, 0.00, -2.69, 0.00, 3.72, 0.00, 57.48, 57.48
GPS, 3, 459914600, 9, 2.14, -33.7840387, 151.0682041, -0.52, 95.69, 0.04, 345.34
CTUN, 0, 0.00, -0.35, 0.000000, 0.00, 0, -18, 0, 0
ATT, 0.00, -2.69, 0.00, 3.72, 0.00, 57.47, 57.47
CTUN, 0, 0.00, -0.29, 0.000000, 0.00, 0, -18, 0, 0
EV, 18
ATT, 0.00, -2.69, 0.00, 3.72, 0.00, 57.46, 57.46
GPS, 3, 459914800, 9, 2.14, -33.7840386, 151.0682040, -0.53, 95.71, 0.02, 345.34
CTUN, 0, 0.00, -0.34, 0.000000, 0.00, 0, -18, 0, 0
ATT, 0.00, -2.70, 0.00, 3.73, 0.00, 57.46, 57.46
CTUN, 0, 0.00, -0.32, 0.000000, 0.00, 0, -18, 0, 0
ATT, 0.00, -2.71, 0.00, 3.73, 0.00, 57.44, 57.44
GPS, 3, 459915000, 9, 2.14, -33.7840385, 151.0682041, -0.54, 95.74, 0.04, 345.34
CTUN, 0, 0.00, -0.31, 0.000000, 0.00, 0, -18, 0, 0
ATT, 0.00, -2.71, 0.00, 3.72, 0.00, 57.43, 57.43
CTUN, 0, 0.00, -0.26, 0.000000, 0.00, 0, -17, 0, 0
DU32, 7, 98393
CURR, 0, 0, 1227, 59, 4752, 2.004724
ATT, 0.00, -2.69, 0.00, 3.73, 0.00, 57.43, 57.43
GPS, 3, 459915200, 9, 2.14, -33.7840384, 151.0682041, -0.55, 95.78, 0.04, 345.34
CTUN, 0, 0.00, -0.30, 0.000000, 0.00, 0, -17, 0, 0
ATT, 0.00, -2.68, 0.00, 3.74, 0.00, 57.42, 57.42
CTUN, 0, 0.00, -0.31, 0.000000, 0.00, 0, -17, 0, 0
ATT, 0.00, -2.70, 0.00, 3.74, 0.00, 57.40, 57.40
GPS, 3, 459915400, 9, 2.14, -33.7840383, 151.0682041, -0.55, 95.81, 0.06, 345.34
CTUN, 0, 0.00, -0.28, 0.000000, 0.00, 0, -16, 0, 0
ATT, 0.00, -2.69, 0.00, 3.74, 0.00, 57.40, 57.40
CTUN, 0, 0.00, -0.21, 0.000000, 0.00, 0, -16, 0, 0
EV, 15
ATT, 0.00, -2.68, 0.00, 3.74, 0.00, 57.39, 57.39
GPS, 3, 459915600, 9, 2.14, -33.7840382, 151.0682041, -0.55, 95.85, 0.01, 345.34
CTUN, 143, 0.00, -0.29, 0.000000, 0.00, 0, -16, 142, 0
ATT, 0.00, -2.67, 0.00, 3.74, 0.00, 57.37, 57.37
CTUN, 154, 0.00, -0.37, 0.000000, 0.00, 0, -15, 152, 0
GPS, 3, 459915800, 8, 2.27, -33.7840380, 151.0682041, -0.55, 95.91, 0.03, 345.34
ATT, 0.00, -2.68, 0.00, 3.72, 0.00, 57.34, 57.34
CTUN, 174, 0.00, -0.47, 0.000000, 0.00, 0, -15, 174, 0
EV, 28
ATT, 0.00, -2.66, 0.00, 3.71, 0.00, 57.32, 57.33
CTUN, 172, 0.00, -0.70, 0.000000, 0.00, 0, -15, 174, 0
GPS, 3, 459916000, 8, 2.27, -33.7840379, 151.0682041, -0.57, 95.95, 0.02, 345.34
ATT, 0.00, -2.66, 0.00, 3.72, 0.00, 57.32, 57.33
CTUN, 174, 0.00, -0.66, 0.000000, 0.00, 0, -16, 174, 0
ATT, 0.00, -2.66, 0.00, 3.70, 0.00, 57.30, 57.33
CTUN, 172, 0.00, -0.68, 0.000000, 0.00, 0, -16, 172, 0
DU32, 7, 65657
CURR, 172, 814, 1215, 289, 4752, 2.478254
GPS, 3, 459916200, 8, 2.27, -33.7840378, 151.0682041, -0.62, 95.98, 0.02, 345.34
ATT, 0.00, -2.66, 0.00, 3.69, 0.00, 57.29, 57.33
CTUN, 174, 0.00, -0.68, 0.000000, 0.00, 0, -16, 174, 0
ATT, 0.00, -2.65, 0.00, 3.69, 0.00, 57.29, 57.29
CTUN, 0, 0.00, -0.70, 0.000000, 0.00, 0, -16, 0, 0
GPS, 3, 459916400, 8, 2.27, -33.7840375, 151.0682041, -0.65, 96.02, 0.06, 345.34
ATT, 0.00, -2.69, 0.00, 3.74, 0.00, 57.30, 57.30
CTUN, 0, 0.00, -0.57, 0.000000, 0.00, 0, -16, 0, 0
ATT, 0.00, -2.70, 0.00, 3.73, 0.00, 57.31, 57.31
CTUN, 0, 0.00, -0.51, 0.000000, 0.00, 0, -16, 0, 0
GPS, 3, 459916600, 8, 2.27, -33.7840375, 151.0682042, -0.68, 96.04, 0.01, 345.34
ATT, 0.00, -2.71, 0.00, 3.74, 0.00, 57.31, 57.31
CTUN, 0, 0.00, -0.45, 0.000000, 0.00, 0, -16, 0, 0
ATT, 0.00, -2.69, 0.00, 3.74, 0.00, 57.31, 57.31
CTUN, 0, 0.00, -0.48, 0.000000, 0.00, 0, -16, 0, 0
GPS, 3, 459916800, 8, 2.27, -33.7840372, 151.0682043, -0.69, 96.11, 0.01, 345.34
ATT, 0.00, -2.68, 0.00, 3.74, 0.00, 57.31, 57.31
CTUN, 136, 0.00, -0.45, 0.000000, 0.00, 0, -15, 0, 0
EV, 15
ATT, 0.00, -2.68, 0.00, 3.75, 0.00, 57.30, 57.31
CTUN, 163, 0.00, -0.35, 0.000000, 0.00, 0, -15, 164, 0
GPS, 3, 459917000, 8, 2.27, -33.7840371, 151.0682043, -0.69, 96.19, 0.09, 345.34
CTUN, 179, 0.00, -0.43, 0.000000, 0.00, 0, -15, 179, 0
ATT, 0.00, -2.64, 0.00, 3.75, 0.00, 57.29, 57.31
CTUN, 178, 0.00, -0.54, 0.000000, 0.00, 0, -14, 178, 0
ATT, 0.00, -2.61, 0.00, 3.77, 0.00, 57.28, 57.31
GPS, 3, 459917200, 8, 2.27, -33.7840369, 151.0682043, -0.69, 96.28, 0.07, 345.34
DU32, 7, 65657
CURR, 178, 1623, 1215, 289, 4732, 2.936316
CTUN, 178, 0.00, -0.67, 0.000000, 0.00, 0, -14, 177, 0
ATT, 0.00, -2.59, 0.00, 3.77, 0.00, 57.25, 57.31
CTUN, 233, 0.00, -0.46, 0.000000, 0.00, 0, -15, 215, 0
ATT, 0.00, -2.59, 0.00, 3.75, 0.00, 57.26, 57.31
GPS, 3, 459917400, 8, 2.27, -33.7840366, 151.0682043, -0.71, 96.35, 0.02, 345.34
CTUN, 293, 0.00, -0.60, 0.000000, 0.00, 0, -14, 277, 0
ATT, 0.00, -2.57, 0.00, 3.74, 0.00, 57.23, 57.31
CTUN, 340, 0.00, -0.81, 0.000000, 0.00, 0, -14, 333, 0
GPS, 3, 459917600, 8, 2.27, -33.7840366, 151.0682044, -0.72, 96.37, 0.05, 345.34
ATT, 0.00, -2.51, 0.00, 3.76, 0.00, 57.22, 57.31
CTUN, 391, 0.00, -1.12, 0.000000, 0.00, 0, -14, 385, 0
ATT, 0.00, -2.46, 0.00, 3.73, 0.00, 57.21, 57.31
CTUN, 413, 0.00, -1.33, 0.000000, 0.00, 0, -16, 408, 0
GPS, 3, 459917800, 8, 2.27, -33.7840364, 151.0682044, -0.79, 96.40, 0.06, 345.34
EV, 16
ATT, 0.00, -2.47, 0.00, 3.72, 0.00, 57.12, 57.31
CTUN, 489, 0.00, -1.50, 0.000000, 0.00, 1, -17, 490, 0
ATT, 0.00, -2.41, 0.00, 3.68, 0.00, 56.80, 57.31
CTUN, 513, 0.00, -1.95, 0.000000, 0.00, 1, -18, 511, 0
PM, 0, 0, 50, 1, 1000, 7317156, 0, 4
GPS, 3, 459918000, 8, 2.27, -33.7840362, 151.0682044, -0.92, 96.47, 0.00, 345.34
CTUN, 578, 0.00, -1.96, 0.000000, 0.00, 0, -14, 574, 0
ATT, 0.00, -1.36, 0.00, 3.14, 0.00, 55.53, 57.31
CTUN, 585, 0.00, -2.46, 0.000000, 0.00, 0, -7, 580, 0
ATT, 0.00, 0.28, 0.00, 1.51, 0.00, 53.69, 57.31
GPS, 3, 459918200, 8, 2.27, -33.7840359, 151.0682044, -1.07, 96.47, 0.08, 345.34
DU32, 7, 82041
CURR, 618, 4998, 1168, 1415, 4712, 5.014139
CTUN, 629, 0.00, -1.67, 0.000000, 0.00, 0, 5, 623, 0
ATT, 0.00, 1.06, 0.00, 1.03, 0.00, 51.39, 57.31
CTUN, 634, 0.00, -1.05, 0.000000, 0.00, 0, 21, 635, 0
ATT, 0.00, 1.42, 0.00, 0.48, 0.00, 49.25, 57.31
GPS, 3, 459918400, 8, 2.27, -33.7840358, 151.0682042, -1.12, 96.61, 0.17, 345.34
CTUN, 633, 0.00, -0.28, 0.000000, 0.00, 0, 38, 632, 0
ATT, 0.00, 1.61, 0.00, 0.59, 0.00, 47.26, 57.26
CTUN, 634, 0.00, -0.27, 0.000000, 0.00, 0, 56, 633, 0
GPS, 3, 459918600, 8, 2.27, -33.7840354, 151.0682039, -0.95, 96.90, 0.24, 345.34
ATT, 0.00, 1.78, 0.00, 0.99, 0.00, 45.66, 55.66
CTUN, 633, 0.00, -0.02, 0.000000, 0.00, 0, 75, 633, 0
ATT, 0.00, 1.12, 0.00, 0.77, 0.00, 44.63, 54.63
CTUN, 633, 0.00, 0.14, 0.000000, 0.00, 0, 85, 633, 0
GPS, 3, 459918800, 8, 2.27, -33.7840356, 151.0682040, -0.69, 97.11, 0.33, 345.34
ATT, 0.00, 0.69, 0.00, 0.50, 0.00, 43.50, 53.50
CTUN, 596, 0.00, 0.31, 0.000000, 0.00, 0, 96, 620, 0
ATT, 0.00, 0.22, 0.00, 0.14, 0.00, 42.70, 52.70
CTUN, 580, 0.00, 0.37, 0.000000, 0.00, 0, 104, 580, 0
GPS, 3, 459919000, 8, 2.27, -33.7840355, 151.0682052, -0.41, 97.44, 0.51, 345.34
CTUN, 580, 0.00, 0.52, 0.000000, 0.00, 0, 104, 580, 0
ATT, -1.97, -0.07, 0.00, 0.01, 0.00, 41.96, 51.96
CTUN, 557, 0.00, 0.59, 0.000000, 0.00, 0, 103, 557, 0
ATT, -8.95, -0.61, 0.00, 0.09, 10.56, 41.76, 51.76
GPS, 3, 459919200, 8, 2.27, -33.7840352, 151.0682061, -0.08, 97.77, 0.50, 345.34
DU32, 7, 82041
CURR, 531, 11057, 1159, 1508, 4712, 10.06374
CTUN, 531, 0.00, 0.70, 0.000000, 0.00, 0, 102, 544, 0
ATT, -10.11, -4.43, 0.00, 0.86, 15.96, 43.97, 53.97
CTUN, 527, 0.00, 0.87, 0.000000, 0.00, 2, 101, 528, 0
ATT, -5.93, -6.77, 0.00, -0.91, 14.04, 48.16, 58.16
GPS, 3, 459919400, 8, 2.27, -33.7840358, 151.0682076, 0.20, 97.91, 0.64, 345.34
CTUN, 476, 0.00, 1.05, 0.000000, 0.00, 2, 93, 483, 0
ATT, -5.81, -6.67, 0.00, -1.50, 18.60, 53.05, 63.05
CTUN, 474, 0.00, 1.08, 0.000000, 0.00, 2, 83, 478, 0
GPS, 3, 459919600, 9, 2.14, -33.7840367, 151.0682091, 0.46, 98.07, 0.70, 86.08
ATT, -2.09, -5.15, 0.00, -0.93, 4.44, 59.37, 68.20
CTUN, 474, 0.00, 1.18, 0.000000, 0.00, 1, 64, 475, 0
ATT, 0.00, -4.04, 0.00, -0.22, 0.00, 62.82, 68.37
CTUN, 476, 0.00, 1.36, 0.000000, 0.00, 0, 45, 476, 0
GPS, 3, 459919800, 8, 2.27, -33.7840367, 151.0682106, 0.65, 98.28, 0.71, 90.40
ATT, 0.00, -1.52, 0.00, 0.54, 0.00, 64.33, 68.37
CTUN, 478, 0.00, 1.39, 0.000000, 0.00, 0, 24, 478, 0
ATT, 0.00, -0.59, 0.00, 0.72, 0.00, 64.72, 68.37
CTUN, 510, 0.00, 1.34, 0.000000, 0.00, 0, 8, 474, 0
GPS, 3, 459920000, 8, 2.27, -33.7840367, 151.0682121, 0.76, 98.32, 0.67, 83.64
ATT, 0.00, 0.06, 0.00, 0.77, 0.00, 64.54, 68.37
CTUN, 557, 0.00, 1.51, 0.000000, 0.00, 0, -8, 553, 0
ATT, 0.00, 0.04, 0.00, 0.74, 0.00, 63.88, 68.37
CTUN, 557, 0.00, 1.43, 0.000000, 0.00, 0, -10, 557, 0
GPS, 3, 459920200, 9, 2.14, -33.7840365, 151.0682132, 0.82, 98.34, 0.54, 78.48
CTUN, 560, 0.00, 1.34, 0.000000, 0.00, 0, -11, 560, 0
ATT, 0.00, 0.50, 0.00, 1.14, 0.00, 62.53, 68.37
DU32, 7, 82041
CURR, 563, 15610, 1166, 1392, 4732, 13.34245
CTUN, 573, 0.00, 1.30, 0.000000, 0.00, 0, -10, 573, 0
ATT, 0.00, 0.59, 0.00, 1.25, 0.00, 61.39, 68.37
GPS, 3, 459920400, 9, 2.14, -33.7840364, 151.0682145, 0.87, 98.40, 0.58, 79.41
CTUN, 573, 0.00, 1.36, 0.000000, 0.00, 0, -10, 573, 0
ATT, 0.00, 0.43, 0.00, 1.29, 0.00, 60.05, 68.37
CTUN, 571, 0.00, 1.31, 0.000000, 0.00, 0, -6, 571, 0
ATT, 0.00, 0.54, 0.00, 1.45, 0.00, 58.94, 68.37
GPS, 3, 459920600, 9, 2.14, -33.7840366, 151.0682160, 0.90, 98.37, 0.63, 80.96
CTUN, 573, 0.00, 1.40, 0.000000, 0.00, 0, -4, 571, 0
ATT, 0.00, 0.24, 0.00, 1.43, 0.00, 58.25, 68.25
CTUN, 571, 0.00, 1.32, 0.000000, 0.00, 0, -1, 571, 0
GPS, 3, 459920800, 9, 2.14, -33.7840367, 151.0682179, 0.95, 98.30, 0.82, 78.91
ATT, 0.00, 0.07, 0.00, 1.21, 0.00, 57.82, 67.82
CTUN, 571, 0.00, 1.36, 0.000000, 0.00, 0, 1, 571, 0
ATT, 0.00, 0.04, 0.00, 1.12, 0.00, 57.53, 67.53
CTUN, 573, 0.00, 1.35, 0.000000, 0.00, 0, 3, 573, 0
GPS, 3, 459921000, 9, 2.14, -33.7840366, 151.0682196, 1.00, 98.28, 0.79, 78.91
ATT, 0.00, -0.06, 0.00, 1.08, 0.00, 57.23, 67.23
CTUN, 571, 0.00, 1.31, 0.000000, 0.00, 0, 5, 571, 0
ATT, 0.00, -0.12, 0.00, 1.09, 0.00, 57.00, 67.00
CTUN, 573, 0.00, 1.40, 0.000000, 0.00, 0, 6, 573, 0
GPS, 3, 459921200, 9, 2.14, -33.7840365, 151.0682214, 1.05, 98.32, 0.90, 80.62
CTUN, 571, 0.00, 1.32, 0.000000, 0.00, 0, 9, 571, 0
ATT, 0.00, -0.27, 0.00, 1.21, 0.00, 56.72, 66.72
DU32, 7, 82041
CURR, 572, 20748, 1162, 1466, 4732, 17.36783
CTUN, 571, 0.00, 1.44, 0.000000, 0.00, 0, 13, 571, 0
ATT, 0.00, -0.32, 0.00, 1.14, 0.00, 56.51, 66.51
GPS, 3, 459921400, 9, 2.14, -33.7840361, 151.0682231, 1.11, 98.35, 0.83, 80.62
CTUN, 571, 0.00, 1.41, 0.000000, 0.00, 0, 14, 573, 0
ATT, 0.00, -0.42, 0.00, 0.95, 0.00, 56.29, 66.29
CTUN, 570, 0.00, 1.31, 0.000000, 0.00, 0, 14, 571, 0
ATT, -7.79, -0.51, 0.11, 0.79, 0.00, 56.16, 66.16
GPS, 3, 459921600, 9, 2.14, -33.7840359, 151.0682247, 1.17, 98.42, 0.77, 80.62
CTUN, 573, 0.00, 1.47, 0.000000, 0.00, 0, 17, 571, 0
ATT, -11.74, -4.35, 2.69, 1.48, 0.00, 56.19, 66.13
CTUN, 571, 0.00, 1.38, 0.000000, 0.00, 2, 18, 573, 0
GPS, 3, 459921800, 9, 2.14, -33.7840359, 151.0682264, 1.24, 98.46, 0.81, 76.92
ATT, -11.04, -7.20, 2.69, 1.24, 0.00, 56.40, 66.13
CTUN, 571, 0.00, 1.37, 0.000000, 0.00, 3, 20, 574, 0
ATT, -9.65, -8.97, 3.75, 1.74, 0.00, 56.32, 66.13
CTUN, 571, 0.00, 1.53, 0.000000, 0.00, 5, 20, 576, 0
GPS, 3, 459922000, 9, 2.14, -33.7840358, 151.0682281, 1.29, 98.52, 0.81, 78.58
ATT, -5.93, -8.69, 3.75, 1.42, 0.00, 56.15, 66.13
CTUN, 574, 0.00, 1.52, 0.000000, 0.00, 5, 19, 576, 0
ATT, -4.18, -6.95, 3.39, 1.89, 0.00, 55.75, 65.75
CTUN, 573, 0.00, 1.49, 0.000000, 0.00, 3, 20, 576, 0
GPS, 3, 459922200, 9, 2.14, -33.7840359, 151.0682299, 1.35, 98.60, 0.82, 82.45
CTUN, 571, 0.00, 1.49, 0.000000, 0.00, 2, 22, 573, 0
ATT, 0.00, -4.72, 0.23, 1.58, 0.00, 55.51, 65.51
DU32, 7, 82041
CURR, 571, 25911, 1154, 1492, 4712, 21.45350
CTUN, 571, 0.00, 1.47, 0.000000, 0.00, 0, 22, 571, 0
ATT, 0.00, -3.10, 0.00, 0.48, 0.00, 55.52, 65.50
GPS, 3, 459922400, 9, 2.14, -33.7840361, 151.0682314, 1.42, 98.56, 0.71, 84.30
CTUN, 571, 0.00, 1.64, 0.000000, 0.00, 0, 23, 571, 0
ATT, 0.00, -2.13, 0.00, 0.03, 0.00, 55.87, 65.50
CTUN, 571, 0.00, 1.62, 0.000000, 0.00, 0, 24, 571, 0
ATT, 0.00, -1.76, 0.00, 0.10, 0.00, 56.49, 65.50
GPS, 3, 459922600, 9, 2.14, -33.7840354, 151.0682324, 1.49, 98.52, 0.71, 67.28
CTUN, 571, 0.00, 1.68, 0.000000, 0.00, 0, 21, 572, 0
ATT, 0.00, -1.66, 0.35, -0.09, 0.00, 57.36, 65.50
CTUN, 571, 0.00, 1.67, 0.000000, 0.00, 0, 20, 571, 0
GPS, 3, 459922800, 9, 2.14, -33.7840338, 151.0682334, 1.54, 98.61, 0.94, 45.83
ATT, 0.00, -1.48, 1.75, -0.09, 0.00, 58.19, 65.50
CTUN, 573, 0.00, 1.63, 0.000000, 0.00, 0, 21, 571, 0
ATT, 0.00, -1.21, 3.16, 0.56, 0.00, 58.96, 65.50
CTUN, 571, 0.00, 1.67, 0.000000, 0.00, 0, 23, 571, 0
GPS, 3, 459923000, 9, 2.14, -33.7840328, 151.0682348, 1.60, 98.66, 0.92, 48.01
ATT, 0.00, -0.76, 4.92, 2.17, 0.00, 59.68, 65.50
CTUN, 572, 0.00, 1.66, 0.000000, 0.00, 0, 27, 571, 0
ATT, 0.00, -0.46, 4.10, 3.74, 0.00, 60.19, 65.50
CTUN, 571, 0.00, 1.70, 0.000000, 0.00, 0, 29, 571, 0
GPS, 3, 459923200, 9, 2.14, -33.7840316, 151.0682361, 1.67, 98.73, 0.93, 48.09
ATT, 0.00, -0.48, 0.23, 3.78, 0.00, 60.67, 65.50
CTUN, 571, 0.00, 1.79, 0.000000, 0.00, 0, 27, 571, 0
DU32, 7, 82041
CURR, 571, 31052, 1159, 1427, 4732, 25.32372
ATT, 0.00, -0.39, 0.00, 2.07, 0.00, 60.91, 65.50
CTUN, 571, 0.00, 1.70, 0.000000, 0.00, 0, 28, 571, 0
GPS, 3, 459923400, 9, 2.14, -33.7840310, 151.0682374, 1.73, 98.66, 0.86, 48.34
CTUN, 570, 0.00, 1.73, 0.000000, 0.00, 0, 32, 571, 0
ATT, 0.00, -0.68, 0.00, 0.85, 0.00, 61.08, 65.50
CTUN, 570, 0.00, 1.69, 0.000000, 0.00, 0, 37, 570, 0
ATT, 0.00, -0.69, 1.40, 0.58, 0.00, 61.13, 65.50
GPS, 3, 459923600, 9, 2.14, -33.7840303, 151.0682388, 1.80, 98.69, 0.84, 48.34
CTUN, 572, 0.00, 1.74, 0.000000, 0.00, 0, 37, 570, 0
ATT, 0.00, -0.72, 12.77, 1.51, 0.00, 61.25, 65.50
CTUN, 573, 0.00, 1.86, 0.000000, 0.00, 1, 38, 574, 0
ATT, 0.00, -0.12, 12.30, 7.57, 0.00, 61.19, 65.50
GPS, 3, 459923800, 8, 2.27, -33.7840298, 151.0682405, 1.87, 98.66, 0.88, 53.75
CTUN, 571, 0.00, 1.91, 0.000000, 0.00, 5, 37, 576, 0
ATT, 0.00, 0.46, 12.42, 10.37, 0.00, 61.32, 65.50
CTUN, 571, 0.00, 1.84, 0.000000, 0.00, 7, 36, 580, 0
GPS, 3, 459924000, 9, 2.14, -33.7840288, 151.0682417, 1.94, 98.72, 0.81, 52.83
ATT, 0.00, 0.22, 9.72, 11.16, 0.00, 61.41, 65.50
CTUN, 572, 0.00, 1.91, 0.000000, 0.00, 8, 37, 582, 0
ATT, 0.00, 0.33, 5.85, 11.00, 0.00, 61.35, 65.50
CTUN, 572, 0.00, 1.85, 0.000000, 0.00, 8, 40, 580, 0
GPS, 3, 459924200, 9, 2.14, -33.7840284, 151.0682427, 2.01, 98.73, 0.64, 54.26
ATT, 0.00, 0.04, 2.34, 7.76, 0.00, 61.38, 65.50
CTUN, 570, 0.00, 1.98, 0.000000, 0.00, 4, 45, 574, 0
DU32, 7, 82041
CURR, 574, 36223, 1154, 1450, 4732, 29.31026
ATT, 0.00, -0.10, 0.11, 5.21, 0.00, 61.41, 65.50
CTUN, 571, 0.00, 1.99, 0.000000, 0.00, 2, 48, 573, 0
GPS, 3, 459924400, 9, 2.14, -33.7840287, 151.0682434, 2.08, 98.71, 0.35, 54.26
CTUN, 571, 0.00, 2.00, 0.000000, 0.00, 0, 53, 571, 0
ATT, 0.00, -0.69, 0.00, 1.95, 0.00, 61.32, 65.50
CTUN, 571, 0.00, 1.96, 0.000000, 0.00, 0, 54, 571, 0
ATT, 0.00, -0.52, 0.00, 0.85, 0.00, 61.18, 65.50
GPS, 3, 459924600, 9, 2.14, -33.7840288, 151.0682438, 2.18, 98.65, 0.26, 54.26
CTUN, 571, 0.00, 2.04, 0.000000, 0.00, 0, 55, 571, 0
ATT, 0.00, -0.46, 0.00, 0.16, 0.00, 61.02, 65.50
CTUN, 573, 0.00, 2.17, 0.000000, 0.00, 0, 54, 574, 0
ATT, 0.00, -0.29, 0.00, -0.30, 0.00, 60.89, 65.50
GPS, 3, 459924800, 9, 2.14, -33.7840288, 151.0682442, 2.28, 98.59, 0.25, 54.26
CTUN, 571, 0.00, 2.09, 0.000000, 0.00, 0, 52, 571, 0
ATT, 0.00, -0.18, 0.00, -0.49, 0.00, 60.71, 65.50
CTUN, 571, 0.00, 2.07, 0.000000, 0.00, 0, 48, 571, 0
GPS, 3, 459925000, 9, 2.14, -33.7840286, 151.0682446, 2.35, 98.59, 0.32, 54.26
ATT, 0.00, -0.32, 0.00, -0.41, 0.00, 60.52, 65.50
CTUN, 571, 0.00, 2.09, 0.000000, 0.00, 0, 49, 571, 0
ATT, 0.00, -0.32, 0.00, -0.35, 0.00, 60.39, 65.50
CTUN, 574, 0.00, 2.04, 0.000000, 0.00, 0, 49, 571, 0
GPS, 3, 459925200, 9, 2.14, -33.7840288, 151.0682456, 2.42, 98.49, 0.50, 54.26
ATT, 0.00, -0.43, 1.17, -0.43, 0.00, 60.24, 65.50
CTUN, 571, 0.00, 2.17, 0.000000, 0.00, 0, 46, 571, 0
DU32, 7, 82041
CURR, 571, 41370, 1159, 1414, 4752, 33.25357
ATT, 0.00, -0.59, 8.08, 0.10, 0.00, 60.15, 65.50
CTUN, 571, 0.00, 2.18, 0.000000, 0.00, 0, 43, 571, 0
GPS, 3, 459925400, 9, 2.14, -33.7840289, 151.0682465, 2.46, 98.51, 0.51, 54.26
CTUN, 571, 0.00, 2.23, 0.000000, 0.00, 0, 44, 571, 0
ATT, 0.00, -0.60, 13.35, 4.73, 0.00, 59.95, 65.50
CTUN, 571, 0.00, 2.19, 0.000000, 0.00, 4, 43, 575, 0
ATT, 0.00, 0.29, 13.59, 8.90, 0.00, 59.80, 65.50
GPS, 3, 459925600, 9, 2.14, -33.7840285, 151.0682473, 2.53, 98.51, 0.55, 61.65
CTUN, 571, 0.00, 2.21, 0.000000, 0.00, 7, 43, 580, 0
ATT, 0.00, -0.44, 13.71, 11.03, 0.00, 59.93, 65.50
CTUN, 571, 0.00, 2.24, 0.000000, 0.00, 8, 38, 578, 0
ATT, 0.00, -0.87, 13.24, 11.79, 0.00, 60.12, 65.50
GPS, 3, 459925800, 9, 2.14, -33.7840287, 151.0682481, 2.57, 98.53, 0.48, 61.65
CTUN, 573, 0.00, 2.26, 0.000000, 0.00, 9, 39, 580, 0
ATT, -2.20, -0.99, 12.30, 11.81, 0.00, 60.31, 65.50
CTUN, 572, 0.00, 2.35, 0.000000, 0.00, 9, 38, 579, 0
GPS, 3, 459926000, 9, 2.14, -33.7840297, 151.0682487, 2.61, 98.50, 0.49, 116.12
ATT, -8.02, -3.36, 11.60, 11.30, 0.00, 60.59, 65.50
CTUN, 570, 0.00, 2.36, 0.000000, 0.00, 9, 37, 579, 0
ATT, -7.55, -6.50, 11.36, 10.08, 0.00, 60.91, 65.50
CTUN, 572, 0.00, 2.39, 0.000000, 0.00, 9, 35, 581, 0
GPS, 3, 459926200, 9, 2.14, -33.7840305, 151.0682487, 2.65, 98.48, 0.33, 136.72
ATT, -8.48, -7.42, 9.60, 9.07, 0.00, 61.12, 65.50
CTUN, 570, 0.00, 2.39, 0.000000, 0.00, 9, 35, 579, 0
DU32, 7, 82041
CURR, 570, 46561, 1152, 1445, 4712, 37.25591
ATT, -8.60, -8.36, 8.90, 7.60, 0.00, 61.34, 65.50
CTUN, 570, 0.00, 2.35, 0.000000, 0.00, 8, 35, 578, 0
GPS, 3, 459926400, 9, 2.14, -33.7840313, 151.0682479, 2.69, 98.43, 0.44, 136.72
CTUN, 572, 0.00, 2.37, 0.000000, 0.00, 7, 34, 579, 0
ATT, -8.95, -8.65, 8.32, 6.25, 0.00, 61.40, 65.50
CTUN, 571, 0.00, 2.37, 0.000000, 0.00, 7, 33, 579, 0
ATT, -8.95, -8.51, 8.90, 5.62, 0.00, 61.31, 65.50
GPS, 3, 459926600, 9, 2.14, -33.7840315, 151.0682470, 2.72, 98.41, 0.34, 136.72
CTUN, 571, 0.00, 2.33, 0.000000, 0.00, 6, 33, 579, 0
ATT, -8.48, -8.15, 8.55, 5.43, 0.00, 61.16, 65.50
CTUN, 571, 0.00, 2.47, 0.000000, 0.00, 6, 33, 577, 0
ATT, -7.44, -7.70, 7.61, 5.44, 0.00, 61.01, 65.50
GPS, 3, 459926800, 9, 2.14, -33.7840324, 151.0682457, 2.74, 98.43, 0.73, 187.63
CTUN, 571, 0.00, 2.41, 0.000000, 0.00, 5, 31, 576, 0
ATT, -0.23, -6.71, 0.58, 5.02, 0.00, 60.94, 65.50
CTUN, 571, 0.00, 2.57, 0.000000, 0.00, 4, 31, 575, 0
GPS, 3, 459927000, 10, 1.65, -33.7840325, 151.0682438, 2.77, 98.43, 0.73, 220.88
ATT, 0.00, -2.41, 0.00, 1.46, 0.00, 60.83, 65.50
CTUN, 571, 0.00, 2.56, 0.000000, 0.00, 0, 30, 571, 0
ATT, 0.00, -1.63, 0.00, -0.14, 0.00, 60.57, 65.50
CTUN, 571, 0.00, 2.56, 0.000000, 0.00, 0, 30, 571, 0
GPS, 3, 459927200, 9, 2.14, -33.7840322, 151.0682422, 2.80, 98.44, 0.68, 252.54
ATT, 0.00, 0.17, 0.00, -0.89, 0.00, 60.15, 65.50
CTUN, 571, 0.00, 2.51, 0.000000, 0.00, 0, 30, 571, 0
DU32, 7, 82041
CURR, 571, 51746, 1154, 1438, 4752, 41.25579
ATT, 0.00, 0.82, 0.00, -1.09, 0.00, 59.90, 65.50
CTUN, 571, 0.00, 2.46, 0.000000, 0.00, 0, 28, 571, 0
GPS, 3, 459927400, 9, 2.14, -33.7840310, 151.0682402, 2.83, 98.49, 0.76, 277.47
CTUN, 571, 0.00, 2.47, 0.000000, 0.00, 0, 27, 571, 0
ATT, 0.00, 0.90, 0.00, -0.80, 0.00, 59.77, 65.50
CTUN, 570, 0.00, 2.55, 0.000000, 0.00, 0, 25, 573, 0
ATT, -2.09, 1.06, 1.17, -0.34, 0.00, 59.83, 65.50
GPS, 3, 459927600, 9, 2.14, -33.7840305, 151.0682391, 2.84, 98.50, 0.55, 294.17
CTUN, 572, 0.00, 2.49, 0.000000, 0.00, 0, 25, 572, 0
ATT, -2.67, -0.06, 1.99, 0.62, 0.00, 60.00, 65.50
CTUN, 572, 0.00, 2.58, 0.000000, 0.00, 0, 23, 572, 0
ATT, -3.25, -0.77, 3.98, 1.36, 0.00, 60.14, 65.50
GPS, 3, 459927800, 9, 2.14, -33.7840309, 151.0682384, 2.85, 98.42, 0.56, 305.20
CTUN, 572, 0.00, 2.41, 0.000000, 0.00, 0, 23, 572, 0
ATT, -3.25, -1.63, 4.80, 2.97, 0.00, 60.17, 65.50
CTUN, 572, 0.00, 2.58, 0.000000, 0.00, 0, 22, 572, 0
PM, 0, 0, 50, 0, 1000, 10432, 0, 4
GPS, 3, 459928000, 8, 2.26, -33.7840314, 151.0682382, 2.85, 98.32, 0.38, 312.76
ATT, -2.90, -2.25, 4.80, 4.06, 0.00, 59.99, 65.50
CTUN, 572, 0.00, 2.52, 0.000000, 0.00, 1, 21, 573, 0
ATT, -0.69, -2.62, 4.92, 4.55, 0.00, 59.78, 65.50
CTUN, 572, 0.00, 2.55, 0.000000, 0.00, 1, 20, 574, 0
GPS, 3, 459928200, 8, 2.26, -33.7840308, 151.0682377, 2.86, 98.32, 0.37, 323.94
ATT, -0.23, -1.87, 6.21, 5.21, 0.00, 59.43, 65.50
CTUN, 572, 0.00, 2.52, 0.000000, 0.00, 2, 20, 574, 0
DU32, 7, 82041
CURR, 571, 56893, 1148, 1437, 4772, 45.22171
ATT, -1.51, -1.90, 7.14, 6.32, 0.00, 59.17, 65.50
CTUN, 570, 0.00, 2.54, 0.000000, 0.00, 2, 20, 574, 0
GPS, 3, 459928400, 10, 1.69, -33.7840314, 151.0682375, 2.86, 98.22, 0.31, 322.41
CTUN, 570, 0.00, 2.64, 0.000000, 0.00, 3, 19, 573, 0
ATT, -1.97, -2.45, 9.72, 7.11, 0.00, 58.83, 65.50
CTUN, 572, 0.00, 2.57, 0.000000, 0.00, 4, 18, 577, 0
ATT, -0.23, -2.99, 11.95, 8.43, 0.00, 58.53, 65.50
GPS, 3, 459928600, 9, 2.14, -33.7840310, 151.0682367, 2.87, 98.23, 0.41, 317.40
CTUN, 571, 0.00, 2.65, 0.000000, 0.00, 7, 19, 578, 0
ATT, 0.00, -1.92, 11.48, 10.38, 0.00, 58.07, 65.50
CTUN, 571, 0.00, 2.61, 0.000000, 0.00, 7, 18, 578, 0
ATT, 0.00, -2.47, 7.26, 10.66, 0.00, 57.82, 65.50
GPS, 3, 459928800, 9, 2.14, -33.7840308, 151.0682357, 2.87, 98.16, 0.48, 308.40
CTUN, 571, 0.00, 2.58, 0.000000, 0.00, 7, 17, 578, 0
ATT, 0.00, -1.99, 0.00, 7.38, 0.00, 57.50, 65.50
CTUN, 571, 0.00, 2.65, 0.000000, 0.00, 3, 16, 574, 0
GPS, 3, 459929000, 9, 2.14, -33.7840308, 151.0682342, 2.88, 98.09, 0.70, 292.07
ATT, 0.00, -3.35, 0.00, 2.00, 0.00, 57.17, 65.50
CTUN, 571, 0.00, 2.68, 0.000000, 0.00, 0, 18, 571, 0
ATT, 0.00, -2.45, 0.00, 0.34, 0.00, 56.64, 65.50
CTUN, 571, 0.00, 2.63, 0.000000, 0.00, 0, 20, 571, 0
GPS, 3, 459929200, 9, 2.14, -33.7840308, 151.0682324, 2.89, 98.05, 0.74, 285.55
ATT, 0.00, -0.87, 0.00, 0.24, 0.00, 56.04, 65.50
CTUN, 571, 0.00, 2.66, 0.000000, 0.00, 0, 20, 571, 0
DU32, 7, 82041
CURR, 571, 62066, 1152, 1477, 4732, 49.29366
ATT, -0.46, -0.51, 0.58, -0.20, 0.00, 55.69, 65.50
CTUN, 571, 0.00, 2.61, 0.000000, 0.00, 0, 19, 571, 0
GPS, 3, 459929400, 8, 2.26, -33.7840304, 151.0682308, 2.90, 98.01, 0.76, 287.72
CTUN, 571, 0.00, 2.64, 0.000000, 0.00, 0, 19, 572, 0
ATT, -0.34, -0.50, 1.52, 0.01, 0.00, 55.32, 65.32
CTUN, 573, 0.00, 2.72, 0.000000, 0.00, 0, 19, 571, 0
ATT, 0.00, 0.03, 1.17, 0.74, 0.00, 55.03, 65.03
GPS, 3, 459929600, 9, 2.14, -33.7840303, 151.0682296, 2.91, 97.94, 0.65, 288.72
CTUN, 573, 0.00, 2.56, 0.000000, 0.00, 0, 19, 570, 0
ATT, 0.00, 0.00, 0.93, 0.84, 0.00, 54.89, 64.89
CTUN, 572, 0.00, 2.57, 0.000000, 0.00, 0, 18, 572, 0
ATT, 0.00, -0.51, 0.23, 0.50, 0.00, 54.96, 64.89
GPS, 3, 459929800, 9, 2.14, -33.7840304, 151.0682287, 2.91, 97.87, 0.44, 288.72
CTUN, 572, 0.00, 2.64, 0.000000, 0.00, 0, 17, 572, 0
ATT, 0.00, -0.50, 0.00, 0.19, 0.00, 55.28, 64.89
CTUN, 571, 0.00, 2.56, 0.000000, 0.00, 0, 17, 571, 0
GPS, 3, 459930000, 9, 2.14, -33.7840304, 151.0682281, 2.91, 97.78, 0.39, 288.72
ATT, 0.00, -0.78, 0.00, -0.07, 0.00, 55.79, 64.89
CTUN, 571, 0.00, 2.63, 0.000000, 0.00, 0, 14, 571, 0
ATT, 0.00, -1.04, 0.00, -0.22, 0.00, 56.37, 64.89
CTUN, 571, 0.00, 2.65, 0.000000, 0.00, 0, 13, 571, 0
GPS, 3, 459930200, 9, 2.14, -33.7840307, 151.0682278, 2.90, 97.68, 0.26, 288.72
ATT, 0.00, -1.25, 0.00, -0.18, 0.00, 57.12, 64.89
CTUN, 571, 0.00, 2.65, 0.000000, 0.00, 0, 10, 571, 0
DU32, 7, 82041
CURR, 571, 67213, 1153, 1440, 4732, 53.38609
ATT, 0.00, -1.14, 0.00, 0.00, 0.00, 57.70, 64.89
CTUN, 554, 0.00, 2.60, 0.000000, 0.00, 0, 6, 553, 0
GPS, 3, 459930400, 9, 2.14, -33.7840318, 151.0682281, 2.88, 97.49, 0.16, 288.72
CTUN, 553, 0.00, 2.60, 0.000000, 0.00, 0, 0, 553, 0
ATT, 0.00, -1.10, 0.00, 0.20, 0.00, 58.37, 64.89
CTUN, 542, 0.00, 2.56, 0.000000, 0.00, 0, -4, 542, 0
ATT, 0.00, -1.18, 0.00, 0.33, 0.00, 58.98, 64.89
GPS, 3, 459930600, 9, 2.14, -33.7840326, 151.0682285, 2.84, 97.42, 0.24, 288.72
CTUN, 544, 0.00, 2.61, 0.000000, 0.00, 0, -13, 542, 0
ATT, 0.00, -1.16, 0.00, 0.51, 0.00, 59.64, 64.89
CTUN, 542, 0.00, 2.54, 0.000000, 0.00, 0, -20, 544, 0
ATT, 0.00, -1.11, 5.50, 0.91, 0.00, 60.20, 64.89
GPS, 3, 459930800, 8, 2.33, -33.7840328, 151.0682289, 2.78, 97.28, 0.33, 329.90
CTUN, 544, 0.00, 2.68, 0.000000, 0.00, 0, -27, 542, 0
ATT, 0.00, -1.55, 9.84, 3.46, 0.00, 60.60, 64.89
CTUN, 545, 0.00, 2.52, 0.000000, 0.00, 1, -34, 543, 0
GPS, 3, 459931000, 8, 2.33, -33.7840322, 151.0682291, 2.70, 97.15, 0.35, 329.90
ATT, 0.00, -0.59, 9.02, 7.84, 0.00, 60.83, 64.89
CTUN, 545, 0.00, 2.50, 0.000000, 0.00, 4, -45, 549, 0
ATT, 0.00, -0.89, 9.14, 8.97, 0.00, 61.08, 64.89
CTUN, 543, 0.00, 2.43, 0.000000, 0.00, 5, -53, 548, 0
GPS, 3, 459931200, 8, 2.33, -33.7840322, 151.0682297, 2.58, 96.90, 0.30, 329.90
ATT, 0.00, -1.56, 5.15, 8.53, 0.00, 61.21, 64.89
CTUN, 543, 0.00, 2.41, 0.000000, 0.00, 4, -61, 547, 0
DU32, 7, 82041
CURR, 544, 72149, 1154, 1311, 4732, 57.06702
ATT, 0.00, -1.25, 5.39, 7.14, 0.00, 61.08, 64.89
CTUN, 543, 0.00, 2.29, 0.000000, 0.00, 3, -66, 546, 0
GPS, 3, 459931400, 9, 2.14, -33.7840322, 151.0682298, 2.43, 96.66, 0.23, 329.90
CTUN, 545, 0.00, 2.20, 0.000000, 0.00, 2, -72, 545, 0
ATT, 0.00, -1.62, 4.33, 5.92, 0.00, 60.64, 64.89
CTUN, 545, 0.00, 2.14, 0.000000, 0.00, 1, -80, 546, 0
ATT, 0.00, -1.23, 3.51, 5.09, 0.00, 60.06, 64.89
GPS, 3, 459931600, 9, 2.14, -33.7840323, 151.0682300, 2.26, 96.44, 0.20, 329.90
CTUN, 554, 0.00, 2.08, 0.000000, 0.00, 1, -86, 555, 0
ATT, 0.00, -1.09, 2.22, 3.72, 0.00, 59.41, 64.89
CTUN, 565, 0.00, 2.02, 0.000000, 0.00, 0, -91, 565, 0
ATT, 0.00, -0.60, 0.00, 2.45, 0.00, 58.75, 64.89
GPS, 3, 459931800, 9, 2.14, -33.7840326, 151.0682298, 2.06, 96.24, 0.12, 329.90
CTUN, 582, 0.00, 1.86, 0.000000, 0.00, 0, -92, 582, 0
ATT, 0.00, -0.45, 0.00, 0.98, 0.00, 58.20, 64.89
CTUN, 584, 0.00, 1.69, 0.000000, 0.00, 0, -92, 583, 0
ATT, 0.00, -0.29, 0.00, -0.06, 0.00, 57.56, 64.89
GPS, 3, 459932000, 9, 2.14, -33.7840330, 151.0682298, 1.86, 96.01, 0.05, 329.90
CTUN, 583, 0.00, 1.67, 0.000000, 0.00, 0, -91, 583, 0
ATT, 0.00, -0.41, 0.00, -0.42, 0.00, 56.85, 64.89
CTUN, 584, 0.00, 1.59, 0.000000, 0.00, 0, -88, 584, 0
GPS, 3, 459932200, 8, 2.26, -33.7840335, 151.0682300, 1.67, 95.76, 0.15, 329.90
ATT, 0.00, -0.48, 0.00, -0.48, 0.00, 56.12, 64.89
CTUN, 594, 0.00, 1.43, 0.000000, 0.00, 0, -86, 594, 0
DU32, 7, 82041
CURR, 594, 77821, 1147, 1520, 4712, 61.34958
ATT, 0.00, -0.41, 0.00, -0.42, 0.00, 55.72, 64.89
CTUN, 594, 0.00, 1.43, 0.000000, 0.00, 0, -85, 594, 0
GPS, 3, 459932400, 9, 2.14, -33.7840333, 151.0682303, 1.48, 95.58, 0.16, 329.90
ATT, 0.00, -0.82, 0.00, 0.12, 0.00, 55.58, 64.89
CTUN, 594, 0.00, 1.24, 0.000000, 0.00, 0, -82, 594, 0
ATT, 0.00, -1.45, 0.00, 0.81, 0.00, 55.78, 64.89
CTUN, 594, 0.00, 1.14, 0.000000, 0.00, 0, -79, 594, 0
GPS, 3, 459932600, 9, 2.14, -33.7840320, 151.0682306, 1.29, 95.34, 0.70, 355.05
CTUN, 594, 0.00, 1.09, 0.000000, 0.00, 0, -78, 594, 0
ATT, 0.00, -1.61, 0.00, 1.60, 0.00, 56.32, 64.89
CTUN, 594, 0.00, 1.03, 0.000000, 0.00, 0, -78, 595, 0
ATT, 0.00, -1.90, 0.58, 2.01, 0.00, 56.83, 64.89
GPS, 3, 459932800, 9, 2.14, -33.7840310, 151.0682309, 1.12, 95.20, 0.58, 3.99
CTUN, 594, 0.00, 0.98, 0.000000, 0.00, 0, -79, 594, 0
ATT, 0.00, -2.29, 6.32, 2.48, 0.00, 57.32, 64.89
CTUN, 594, 0.00, 0.78, 0.000000, 0.00, 1, -76, 595, 0
ATT, 0.00, -2.27, 6.79, 5.10, 0.00, 57.47, 64.89
GPS, 3, 459933000, 9, 2.14, -33.7840306, 151.0682316, 0.95, 95.04, 0.48, 3.99
CTUN, 594, 0.00, 0.77, 0.000000, 0.00, 3, -76, 597, 0
ATT, 0.00, -1.29, 5.50, 7.96, 0.00, 57.66, 64.89
CTUN, 606, 0.00, 0.71, 0.000000, 0.00, 4, -75, 605, 0
GPS, 3, 459933200, 9, 2.14, -33.7840309, 151.0682326, 0.78, 94.79, 0.42, 3.99
ATT, 0.00, -1.42, 3.86, 6.78, 0.00, 57.97, 64.89
CTUN, 609, 0.00, 0.59, 0.000000, 0.00, 3, -73, 612, 0
DU32, 7, 82041
CURR, 615, 83200, 1141, 1552, 4712, 65.57522
ATT, 0.00, -1.63, 3.86, 5.56, 0.00, 57.91, 64.89
CTUN, 617, 0.00, 0.51, 0.000000, 0.00, 2, -69, 619, 0
GPS, 3, 459933400, 9, 2.14, -33.7840309, 151.0682331, 0.62, 94.60, 0.32, 3.99
ATT, 0.00, -0.67, 3.63, 5.10, 0.00, 57.48, 64.89
CTUN, 638, 0.00, 0.46, 0.000000, 0.00, 2, -62, 640, 0
ATT, 0.00, -0.52, 3.63, 4.55, 0.00, 57.12, 64.89
CTUN, 648, 0.00, 0.40, 0.000000, 0.00, 1, -55, 643, 0
GPS, 3, 459933600, 7, 2.61, -33.7840318, 151.0682337, 0.49, 94.38, 0.42, 75.15
CTUN, 650, 0.00, 0.28, 0.000000, 0.00, 1, -40, 651, 0
ATT, 0.00, -0.62, 3.63, 3.97, 0.00, 56.83, 64.89
CTUN, 650, 0.00, 0.04, 0.000000, 0.00, 1, -25, 651, 0
ATT, 0.00, -0.66, 3.63, 3.59, 0.00, 56.74, 64.89
GPS, 3, 459933800, 7, 2.61, -33.7840323, 151.0682340, 0.40, 94.29, 0.49, 124.03
CTUN, 650, 0.00, -0.03, 0.000000, 0.00, 1, -8, 651, 0
ATT, 0.00, -0.25, 4.10, 3.62, 0.00, 56.87, 64.89
CTUN, 653, 0.00, 0.00, 0.000000, 0.00, 1, 8, 654, 0
ATT, 0.00, -0.19, 4.80, 3.67, 0.00, 57.32, 64.89
GPS, 3, 459934000, 7, 2.61, -33.7840322, 151.0682340, 0.36, 94.27, 0.29, 124.03
CTUN, 650, 0.00, 0.04, 0.000000, 0.00, 1, 23, 654, 0
ATT, -0.34, 0.12, 6.09, 3.75, 0.00, 58.13, 64.89
CTUN, 652, 0.00, -0.01, 0.000000, 0.00, 1, 39, 651, 0
GPS, 3, 459934200, 7, 2.61, -33.7840322, 151.0682343, 0.38, 94.29, 0.36, 124.03
ATT, 0.00, 0.46, 5.15, 3.93, 0.00, 59.05, 64.89
CTUN, 652, 0.00, 0.11, 0.000000, 0.00, 1, 55, 653, 0
DU32, 7, 82041
CURR, 652, 89027, 1136, 1758, 4712, 70.39510
ATT, 0.00, 1.06, 0.00, 2.99, 0.00, 59.69, 64.89
CTUN, 650, 0.00, 0.28, 0.000000, 0.00, 0, 66, 652, 0
GPS, 3, 459934400, 7, 2.61, -33.7840323, 151.0682344, 0.47, 94.42, 0.39, 127.07
ATT, 0.00, 0.62, 0.00, 0.55, 0.00, 60.24, 64.89
CTUN, 652, 0.00, 0.34, 0.000000, 0.00, 0, 80, 652, 0
ATT, 0.00, 0.99, 0.00, 0.07, 0.00, 60.47, 64.89
CTUN, 652, 0.00, 0.45, 0.000000, 0.00, 0, 89, 650, 0
GPS, 3, 459934600, 8, 2.26, -33.7840324, 151.0682347, 0.62, 94.65, 0.53, 133.31
CTUN, 650, 0.00, 0.49, 0.000000, 0.00, 0, 100, 650, 0
ATT, 0.00, 0.57, 0.00, -0.27, 0.00, 60.66, 64.89
CTUN, 652, 0.00, 0.60, 0.000000, 0.00, 0, 107, 650, 0
ATT, 0.00, 0.50, 0.00, -0.31, 0.00, 60.75, 64.89
GPS, 3, 459934800, 8, 2.26, -33.7840325, 151.0682355, 0.81, 94.78, 0.50, 133.31
CTUN, 650, 0.00, 0.73, 0.000000, 0.00, 0, 115, 653, 0
ATT, -7.67, 0.11, 3.98, -0.09, 0.00, 60.84, 64.89
CTUN, 650, 0.00, 0.83, 0.000000, 0.00, 0, 124, 650, 0
ATT, -8.83, -3.87, 8.78, 1.90, 0.00, 60.99, 64.89
GPS, 3, 459935000, 7, 2.61, -33.7840330, 151.0682362, 1.04, 95.03, 0.68, 133.24
CTUN, 641, 0.00, 0.99, 0.000000, 0.00, 2, 131, 643, 0
ATT, -5.81, -5.66, 9.84, 5.73, 0.00, 60.84, 64.89
CTUN, 597, 0.00, 1.10, 0.000000, 0.00, 5, 140, 626, 0
GPS, 3, 459935200, 7, 2.61, -33.7840336, 151.0682373, 1.28, 95.30, 0.79, 130.71
ATT, -6.16, -5.53, 10.78, 8.20, 0.00, 60.91, 64.89
CTUN, 588, 0.00, 1.19, 0.000000, 0.00, 7, 143, 595, 0
DU32, 7, 82041
CURR, 585, 94795, 1145, 1510, 4752, 75.17372
ATT, -6.16, -6.06, 11.13, 9.71, 0.00, 61.13, 64.89
CTUN, 585, 0.00, 1.43, 0.000000, 0.00, 9, 142, 594, 0
GPS, 3, 459935400, 8, 2.26, -33.7840337, 151.0682380, 1.56, 95.59, 0.61, 128.40
ATT, -6.27, -6.35, 12.30, 10.28, 0.00, 61.51, 64.89
CTUN, 587, 0.00, 1.64, 0.000000, 0.00, 10, 138, 597, 0
ATT, -7.20, -6.40, 12.77, 10.88, 0.00, 61.72, 64.89
CTUN, 542, 0.00, 1.83, 0.000000, 0.00, 10, 134, 553, 0
GPS, 3, 459935600, 8, 2.26, -33.7840338, 151.0682383, 1.83, 95.82, 0.33, 128.40
ATT, -6.74, -6.96, 11.60, 11.33, 0.00, 62.01, 64.89
CTUN, 543, 0.00, 1.89, 0.000000, 0.00, 11, 124, 554, 0
ATT, -5.69, -6.95, 11.48, 10.69, 0.00, 62.40, 64.89
CTUN, 543, 0.00, 2.02, 0.000000, 0.00, 10, 111, 553, 0
GPS, 3, 459935800, 7, 2.61, -33.7840337, 151.0682378, 2.03, 96.15, 0.17, 128.40
CTUN, 489, 0.00, 2.22, 0.000000, 0.00, 8, 97, 497, 0
ATT, -5.81, -6.35, 11.60, 10.18, 0.00, 62.64, 64.89
CTUN, 486, 0.00, 2.19, 0.000000, 0.00, 7, 81, 493, 0
ATT, -5.58, -5.80, 10.66, 10.06, 0.00, 62.65, 64.89
GPS, 3, 459936000, 7, 2.61, -33.7840337, 151.0682368, 2.25, 96.35, 0.38, 128.40
CTUN, 486, 0.00, 2.47, 0.000000, 0.00, 6, 60, 493, 0
ATT, -5.00, -5.32, 9.84, 9.20, 0.00, 62.81, 64.89
CTUN, 486, 0.00, 2.52, 0.000000, 0.00, 5, 41, 491, 0
ATT, -5.00, -5.16, 10.07, 7.99, 0.00, 62.96, 64.89
GPS, 3, 459936200, 7, 2.61, -33.7840337, 151.0682353, 2.36, 96.50, 0.63, 184.49
CTUN, 487, 0.00, 2.48, 0.000000, 0.00, 4, 22, 491, 0
ATT, -6.51, -4.87, 11.01, 7.59, 0.00, 62.93, 64.89
DU32, 7, 82041
CURR, 487, 99594, 1158, 1103, 4712, 78.61805
CTUN, 486, 0.00, 2.50, 0.000000, 0.00, 4, 2, 490, 0
GPS, 3, 459936400, 7, 2.61, -33.7840333, 151.0682335, 2.39, 96.60, 0.86, 261.40
ATT, -7.67, -4.91, 11.48, 8.26, 0.00, 62.71, 64.89
CTUN, 493, 0.00, 2.53, 0.000000, 0.00, 5, -17, 498, 0
ATT, -6.04, -5.47, 10.66, 8.57, 0.00, 62.52, 64.89
CTUN, 529, 0.00, 2.53, 0.000000, 0.00, 6, -34, 530, 0
GPS, 3, 459936600, 7, 2.61, -33.7840333, 151.0682312, 2.36, 96.59, 1.11, 270.61
ATT, -4.41, -4.86, 7.14, 7.88, 0.00, 62.38, 64.89
CTUN, 556, 0.00, 2.54, 0.000000, 0.00, 5, -46, 561, 0
ATT, -1.97, -3.65, 4.33, 6.26, 0.00, 62.17, 64.89
CTUN, 570, 0.00, 2.48, 0.000000, 0.00, 3, -52, 571, 0
GPS, 3, 459936800, 7, 2.61, -33.7840334, 151.0682290, 2.29, 96.44, 1.13, 278.43
CTUN, 577, 0.00, 2.51, 0.000000, 0.00, 1, -54, 578, 0
ATT, -2.67, -2.10, 2.46, 3.49, 0.00, 61.70, 64.89
CTUN, 585, 0.00, 2.49, 0.000000, 0.00, 0, -55, 583, 0
ATT, 0.00, -1.50, 0.00, 1.89, 0.00, 61.20, 64.89
GPS, 3, 459937000, 7, 2.61, -33.7840331, 151.0682265, 2.20, 96.27, 1.25, 287.14
CTUN, 598, 0.00, 2.41, 0.000000, 0.00, 0, -54, 598, 0
ATT, 0.00, 0.05, 0.00, -0.32, 0.00, 60.61, 64.89
CTUN, 600, 0.00, 2.36, 0.000000, 0.00, 0, -49, 598, 0
ATT, 0.00, 1.01, 0.00, -0.92, 0.00, 60.21, 64.89
GPS, 3, 459937200, 7, 2.61, -33.7840328, 151.0682242, 2.13, 96.09, 1.20, 288.92
CTUN, 609, 0.00, 2.25, 0.000000, 0.00, 0, -46, 609, 0
ATT, 0.00, 1.11, 0.00, -0.85, 0.00, 60.00, 64.89
DU32, 7, 82041
CURR, 609, 104630, 1141, 1550, 4732, 82.37912
CTUN, 609, 0.00, 2.32, 0.000000, 0.00, 0, -41, 609, 0
GPS, 3, 459937400, 7, 2.61, -33.7840330, 151.0682223, 2.06, 95.92, 0.94, 286.06
ATT, 0.00, 1.27, 0.00, -0.72, 0.00, 59.90, 64.89
CTUN, 614, 0.00, 2.17, 0.000000, 0.00, 0, -33, 614, 0
ATT, 0.00, 1.17, 0.00, -0.38, 0.00, 59.88, 64.89
CTUN, 613, 0.00, 2.15, 0.000000, 0.00, 0, -28, 614, 0
GPS, 3, 459937600, 7, 2.61, -33.7840326, 151.0682207, 2.02, 95.80, 0.82, 288.21
ATT, 0.00, 0.87, 0.00, 0.03, 0.00, 59.88, 64.89
CTUN, 614, 0.00, 2.11, 0.000000, 0.00, 0, -20, 612, 0
ATT, 0.00, 0.68, 0.00, 0.29, 0.00, 59.88, 64.89
CTUN, 614, 0.00, 2.06, 0.000000, 0.00, 0, -14, 614, 0
GPS, 3, 459937800, 7, 2.61, -33.7840330, 151.0682196, 2.00, 95.68, 0.54, 288.21
CTUN, 614, 0.00, 2.05, 0.000000, 0.00, 0, -7, 614, 0
ATT, 0.00, 0.44, 0.00, 0.66, 0.00, 59.91, 64.89
CTUN, 614, 0.00, 1.96, 0.000000, 0.00, 0, -1, 614, 0
ATT, 0.00, 0.30, 0.00, 0.95, 0.00, 59.98, 64.89
PM, 0, 0, 50, 1, 1000, 12472, 0, 4
GPS, 3, 459938000, 8, 2.26, -33.7840327, 151.0682187, 1.99, 95.71, 0.32, 288.21
CTUN, 614, 0.00, 2.20, 0.000000, 0.00, 0, 3, 614, 0
ATT, 0.00, -0.03, 0.00, 1.10, 0.00, 60.13, 64.89
CTUN, 614, 0.00, 2.18, 0.000000, 0.00, 0, 9, 614, 0
ATT, 0.00, -0.25, 0.00, 1.19, 0.00, 60.27, 64.89
GPS, 3, 459938200, 8, 2.26, -33.7840327, 151.0682181, 2.02, 95.69, 0.27, 288.21
CTUN, 614, 0.00, 2.12, 0.000000, 0.00, 0, 14, 614, 0
ATT, 0.00, -0.43, 0.00, 1.31, 0.00, 60.44, 64.89
DU32, 7, 82041
CURR, 614, 110149, 1138, 1589, 4732, 86.78764
CTUN, 615, 0.00, 2.19, 0.000000, 0.00, 0, 20, 614, 0
GPS, 3, 459938400, 8, 2.26, -33.7840328, 151.0682179, 2.07, 95.60, 0.23, 288.21
ATT, 0.00, -0.61, 0.00, 1.35, 0.00, 60.61, 64.89
CTUN, 614, 0.00, 2.14, 0.000000, 0.00, 0, 26, 614, 0
ATT, 0.00, -0.75, 0.00, 1.28, 0.00, 60.73, 64.89
CTUN, 614, 0.00, 2.26, 0.000000, 0.00, 0, 29, 614, 0
GPS, 3, 459938600, 7, 2.61, -33.7840329, 151.0682180, 2.14, 95.59, 0.04, 288.21
ATT, 0.00, -0.70, 0.00, 1.28, 0.00, 60.82, 64.89
CTUN, 597, 0.00, 2.32, 0.000000, 0.00, 0, 34, 602, 0
ATT, 0.00, -0.67, 0.00, 1.20, 0.00, 60.84, 64.89
CTUN, 581, 0.00, 2.33, 0.000000, 0.00, 0, 37, 581, 0
GPS, 3, 459938800, 7, 2.61, -33.7840329, 151.0682181, 2.23, 95.69, 0.11, 288.21
CTUN, 497, 0.00, 2.29, 0.000000, 0.00, 0, 36, 497, 0
ATT, 0.00, -0.66, 0.00, 1.20, 0.00, 60.88, 64.89
CTUN, 486, 0.00, 2.36, 0.000000, 0.00, 0, 24, 486, 0
ATT, 0.00, -0.60, 0.00, 1.20, 0.00, 60.84, 64.89
GPS, 3, 459939000, 8, 2.26, -33.7840330, 151.0682185, 2.29, 95.68, 0.15, 288.21
CTUN, 485, 0.00, 2.31, 0.000000, 0.00, 0, 7, 486, 0
ATT, 0.00, -0.51, 0.00, 1.00, 0.00, 61.14, 64.89
CTUN, 489, 0.00, 2.52, 0.000000, 0.00, 0, -10, 489, 0
ATT, 0.00, -0.66, 0.00, 0.87, 0.00, 61.57, 64.89
GPS, 3, 459939200, 8, 2.26, -33.7840330, 151.0682189, 2.30, 95.72, 0.17, 288.21
CTUN, 529, 0.00, 2.60, 0.000000, 0.00, 0, -29, 523, 0
ATT, 0.00, -0.70, 0.00, 0.76, 0.00, 62.23, 64.89
DU32, 7, 82041
CURR, 544, 115150, 1152, 1137, 4732, 90.56880
CTUN, 556, 0.00, 2.55, 0.000000, 0.00, 0, -43, 551, 0
GPS, 3, 459939400, 8, 2.26, -33.7840337, 151.0682196, 2.26, 95.68, 0.24, 288.21
ATT, 0.00, -0.61, 0.00, 0.80, 0.00, 62.74, 64.89
CTUN, 580, 0.00, 2.39, 0.000000, 0.00, 0, -50, 580, 0
ATT, 0.00, -0.64, 0.00, 0.96, 0.00, 62.91, 64.89
CTUN, 580, 0.00, 2.31, 0.000000, 0.00, 0, -51, 580, 0
GPS, 3, 459939600, 8, 2.26, -33.7840348, 151.0682206, 2.17, 95.52, 0.28, 288.21
ATT, 0.00, -0.38, 0.00, 1.08, 0.00, 62.86, 64.89
CTUN, 578, 0.00, 2.32, 0.000000, 0.00, 0, -54, 578, 0
ATT, 0.00, -0.35, 0.00, 1.23, 0.00, 62.71, 64.89
CTUN, 581, 0.00, 2.32, 0.000000, 0.00, 0, -52, 580, 0
GPS, 3, 459939800, 8, 2.26, -33.7840354, 151.0682218, 2.09, 95.35, 0.45, 288.21
CTUN, 590, 0.00, 2.32, 0.000000, 0.00, 0, -52, 590, 0
ATT, 0.00, -0.38, 0.00, 1.16, 0.00, 62.49, 64.89
CTUN, 591, 0.00, 2.25, 0.000000, 0.00, 0, -51, 592, 0
ATT, 0.00, -0.35, 0.00, 0.93, 0.00, 62.27, 64.89
GPS, 3, 459940000, 8, 2.26, -33.7840345, 151.0682222, 2.01, 95.37, 0.44, 288.21
CTUN, 594, 0.00, 2.22, 0.000000, 0.00, 0, -49, 594, 0
ATT, 0.00, -0.36, 0.00, 0.88, 0.00, 62.00, 64.89
CTUN, 598, 0.00, 2.10, 0.000000, 0.00, 0, -46, 594, 0
ATT, 0.00, -0.45, 0.00, 0.93, 0.00, 61.76, 64.89
GPS, 3, 459940200, 8, 2.26, -33.7840348, 151.0682233, 1.94, 95.29, 0.54, 288.21
CTUN, 598, 0.00, 2.06, 0.000000, 0.00, 0, -44, 598, 0
ATT, 0.00, -0.34, 0.00, 0.93, 0.00, 61.57, 64.89
DU32, 7, 82041
CURR, 598, 120396, 1139, 1502, 4693, 94.55764
CTUN, 600, 0.00, 2.03, 0.000000, 0.00, 0, -41, 598, 0
GPS, 3, 459940400, 8, 2.26, -33.7840353, 151.0682247, 1.88, 95.24, 0.61, 25.89
ATT, 0.00, -0.27, 0.00, 1.03, 0.00, 61.48, 64.89
CTUN, 598, 0.00, 1.88, 0.000000, 0.00, 0, -37, 598, 0
ATT, 0.00, -0.29, 0.00, 0.93, 0.00, 61.45, 64.89
CTUN, 598, 0.00, 1.88, 0.000000, 0.00, 0, -34, 598, 0
GPS, 3, 459940600, 8, 2.26, -33.7840359, 151.0682260, 1.81, 95.18, 0.65, 73.42
ATT, 0.00, -0.12, 0.00, 0.94, 0.00, 61.38, 64.89
CTUN, 599, 0.00, 1.98, 0.000000, 0.00, 0, -31, 599, 0
ATT, 0.00, -0.06, 0.00, 0.95, 0.00, 61.29, 64.89
CTUN, 598, 0.00, 1.97, 0.000000, 0.00, 0, -28, 598, 0
GPS, 3, 459940800, 8, 2.26, -33.7840368, 151.0682278, 1.77, 95.10, 0.81, 95.37
CTUN, 598, 0.00, 1.83, 0.000000, 0.00, 0, -26, 598, 0
ATT, 0.00, 0.03, 0.00, 0.91, 0.00, 61.07, 64.89
CTUN, 598, 0.00, 1.88, 0.000000, 0.00, 0, -23, 598, 0
ATT, 0.00, 0.03, 0.00, 0.92, 0.00, 60.82, 64.89
GPS, 3, 459941000, 8, 2.26, -33.7840373, 151.0682294, 1.73, 95.02, 0.79, 97.96
CTUN, 598, 0.00, 1.90, 0.000000, 0.00, 0, -20, 598, 0
ATT, 0.00, 0.05, 0.00, 0.87, 0.00, 60.38, 64.89
CTUN, 598, 0.00, 1.92, 0.000000, 0.00, 0, -17, 598, 0
ATT, 0.00, -0.19, 0.00, 0.82, 0.00, 60.00, 64.89
GPS, 3, 459941200, 8, 2.26, -33.7840381, 151.0682314, 1.72, 94.95, 0.94, 102.84
CTUN, 598, 0.00, 1.87, 0.000000, 0.00, 0, -14, 598, 0
ATT, 0.00, -0.44, 0.00, 0.68, 0.00, 59.57, 64.89
DU32, 7, 82041
CURR, 598, 125778, 1138, 1530, 4712, 98.75984
CTUN, 598, 0.00, 1.93, 0.000000, 0.00, 0, -11, 598, 0
ATT, 0.00, -0.68, 0.00, 0.56, 0.00, 59.17, 64.89
GPS, 3, 459941400, 9, 2.14, -33.7840384, 151.0682334, 1.71, 94.91, 0.97, 101.63
CTUN, 598, 0.00, 1.83, 0.000000, 0.00, 0, -9, 598, 0
ATT, 0.00, -0.98, 0.00, 0.49, 0.00, 58.91, 64.89
CTUN, 598, 0.00, 1.85, 0.000000, 0.00, 0, -5, 598, 0
GPS, 3, 459941600, 9, 2.13, -33.7840384, 151.0682353, 1.72, 94.86, 0.88, 95.64
ATT, 0.00, -1.32, 0.00, 0.35, 0.00, 58.83, 64.89
CTUN, 598, 0.00, 1.90, 0.000000, 0.00, 0, -3, 598, 0
ATT, 0.00, -1.48, 9.25, 0.58, 0.00, 58.88, 64.89
CTUN, 598, 0.00, 1.83, 0.000000, 0.00, 0, -1, 598, 0
GPS, 3, 459941800, 8, 2.26, -33.7840389, 151.0682377, 1.73, 94.81, 1.08, 94.95
CTUN, 598, 0.00, 1.94, 0.000000, 0.00, 2, 4, 600, 0
ATT, -1.39, -2.01, 20.85, 6.48, 0.00, 58.91, 64.89
CTUN, 598, 0.00, 1.92, 0.000000, 0.00, 10, 6, 608, 0
ATT, -1.16, -1.46, 20.97, 13.74, 0.00, 59.17, 64.89
GPS, 3, 459942000, 8, 2.26, -33.7840386, 151.0682394, 1.76, 94.80, 0.90, 91.88
CTUN, 598, 0.00, 1.85, 0.000000, 0.00, 20, 7, 618, 0
ATT, -1.16, -2.18, 19.21, 17.31, 0.00, 60.11, 64.89
CTUN, 598, 0.00, 1.95, 0.000000, 0.00, 24, 9, 622, 0
ATT, -1.27, -2.58, 16.28, 18.05, 0.00, 60.80, 64.89
GPS, 3, 459942200, 8, 2.26, -33.7840392, 151.0682414, 1.80, 94.82, 0.92, 94.16
CTUN, 598, 0.00, 1.88, 0.000000, 0.00, 24, 13, 622, 0
ATT, -1.51, -2.89, 6.67, 16.12, 0.00, 61.49, 64.89
DU32, 7, 82041
CURR, 598, 131228, 1136, 1607, 4712, 103.0773
CTUN, 598, 0.00, 1.96, 0.000000, 0.00, 18, 16, 616, 0
GPS, 3, 459942400, 8, 2.26, -33.7840406, 151.0682421, 1.84, 94.79, 0.55, 125.96
ATT, -6.74, -2.78, 4.21, 10.55, 0.00, 61.95, 64.89
CTUN, 598, 0.00, 1.98, 0.000000, 0.00, 7, 22, 605, 0
ATT, -8.37, -5.77, 3.86, 6.62, 0.00, 62.16, 64.89
CTUN, 598, 0.00, 2.02, 0.000000, 0.00, 5, 26, 603, 0
GPS, 3, 459942600, 8, 2.26, -33.7840414, 151.0682416, 1.91, 94.83, 0.53, 151.28
ATT, -7.20, -6.81, 0.46, 3.79, 0.00, 62.06, 64.89
CTUN, 598, 0.00, 2.06, 0.000000, 0.00, 4, 28, 602, 0
ATT, -7.20, -6.63, 0.46, 0.69, 0.00, 62.04, 64.89
CTUN, 582, 0.00, 2.05, 0.000000, 0.00, 3, 30, 587, 0
GPS, 3, 459942800, 8, 2.26, -33.7840416, 151.0682408, 1.98, 94.88, 0.38, 151.28
CTUN, 575, 0.00, 2.05, 0.000000, 0.00, 3, 31, 578, 0
ATT, -7.90, -6.86, 2.34, -0.81, 0.00, 61.70, 64.89
CTUN, 560, 0.00, 2.13, 0.000000, 0.00, 3, 30, 563, 0
ATT, -10.58, -6.97, 4.92, -0.51, 0.00, 61.34, 64.89
GPS, 3, 459943000, 8, 2.26, -33.7840426, 151.0682400, 2.05, 95.02, 0.69, 178.19
CTUN, 560, 0.00, 2.18, 0.000000, 0.00, 4, 23, 564, 0
ATT, -12.79, -8.25, 6.09, 1.71, 0.00, 60.98, 64.89
CTUN, 560, 0.00, 2.20, 0.000000, 0.00, 5, 20, 565, 0
ATT, -11.74, -9.37, 7.14, 3.30, 0.00, 60.95, 64.89
GPS, 3, 459943200, 8, 2.26, -33.7840430, 151.0682391, 2.11, 95.14, 0.55, 188.79
CTUN, 560, 0.00, 2.18, 0.000000, 0.00, 6, 14, 566, 0
ATT, -11.74, -9.78, 8.67, 4.55, 0.00, 61.08, 64.89
DU32, 7, 82041
CURR, 560, 136493, 1143, 1385, 4712, 107.1445
CTUN, 560, 0.00, 2.28, 0.000000, 0.00, 7, 8, 567, 0
GPS, 3, 459943400, 8, 2.26, -33.7840428, 151.0682384, 2.13, 95.10, 0.29, 188.79
ATT, -11.16, -9.56, 8.67, 5.95, 0.00, 61.22, 64.89
CTUN, 561, 0.00, 2.19, 0.000000, 0.00, 8, 2, 568, 0
ATT, -8.95, -9.41, 7.38, 6.32, 0.00, 61.43, 64.89
CTUN, 560, 0.00, 2.27, 0.000000, 0.00, 8, -1, 568, 0
GPS, 3, 459943600, 7, 2.61, -33.7840426, 151.0682373, 2.15, 95.07, 0.52, 236.73
ATT, -6.27, -7.97, 5.03, 5.83, 0.00, 61.66, 64.89
CTUN, 560, 0.00, 2.23, 0.000000, 0.00, 6, -6, 566, 0
ATT, -0.34, -6.01, 1.17, 4.64, 0.00, 61.79, 64.89
CTUN, 560, 0.00, 2.24, 0.000000, 0.00, 4, -10, 565, 0
GPS, 3, 459943800, 7, 2.61, -33.7840415, 151.0682357, 2.14, 95.06, 0.84, 296.06
CTUN, 560, 0.00, 2.32, 0.000000, 0.00, 0, -14, 560, 0
ATT, 0.00, -2.11, 0.00, 1.90, 0.00, 61.73, 64.89
CTUN, 560, 0.00, 2.33, 0.000000, 0.00, 0, -18, 561, 0
ATT, 0.00, -1.17, 0.00, 0.31, 0.00, 61.50, 64.89
GPS, 3, 459944000, 7, 2.61, -33.7840401, 151.0682341, 2.13, 94.99, 0.94, 305.67
CTUN, 560, 0.00, 2.20, 0.000000, 0.00, 0, -21, 560, 0
ATT, 0.00, 0.08, 0.00, -0.44, 0.00, 61.14, 64.89
CTUN, 560, 0.00, 2.26, 0.000000, 0.00, 0, -24, 560, 0
ATT, 0.00, 0.73, 0.00, -0.10, 0.00, 60.80, 64.89
GPS, 3, 459944200, 9, 2.13, -33.7840394, 151.0682325, 2.09, 94.87, 0.99, 306.39
CTUN, 560, 0.00, 2.16, 0.000000, 0.00, 0, -27, 560, 0
ATT, 0.00, 0.81, 0.00, 0.04, 0.00, 60.39, 64.89
DU32, 7, 82041
CURR, 560, 141564, 1141, 1365, 4712, 110.9399
CTUN, 560, 0.00, 2.10, 0.000000, 0.00, 0, -31, 560, 0
ATT, 0.00, 0.72, 0.00, 0.33, 0.00, 59.92, 64.89
GPS, 3, 459944400, 9, 2.13, -33.7840383, 151.0682314, 2.04, 94.76, 0.91, 313.18
CTUN, 560, 0.00, 2.17, 0.000000, 0.00, 0, -35, 560, 0
ATT, 0.00, 0.72, 0.00, 0.59, 0.00, 59.44, 64.89
CTUN, 560, 0.00, 2.12, 0.000000, 0.00, 0, -38, 560, 0
GPS, 3, 459944600, 8, 2.26, -33.7840372, 151.0682306, 1.98, 94.66, 0.80, 322.05
ATT, 0.00, 0.70, 0.00, 0.78, 0.00, 58.97, 64.89
CTUN, 560, 0.00, 2.08, 0.000000, 0.00, 0, -41, 560, 0
ATT, 3.46, 0.64, 0.00, 1.08, 0.00, 58.68, 64.89
CTUN, 560, 0.00, 1.87, 0.000000, 0.00, 0, -44, 561, 0
GPS, 3, 459944800, 9, 2.13, -33.7840363, 151.0682301, 1.90, 94.51, 0.74, 330.58
CTUN, 562, 0.00, 2.03, 0.000000, 0.00, 0, -48, 560, 0
ATT, 0.00, 2.07, 1.52, 0.85, 0.00, 58.28, 64.89
CTUN, 578, 0.00, 1.90, 0.000000, 0.00, 0, -48, 578, 0
ATT, 0.00, 1.05, 1.05, 2.01, 0.00, 58.11, 64.89
GPS, 3, 459945000, 8, 2.33, -33.7840350, 151.0682297, 1.82, 94.45, 0.71, 339.96
CTUN, 584, 0.00, 2.00, 0.000000, 0.00, 0, -50, 581, 0
ATT, 0.00, 0.81, 0.58, 1.94, 0.00, 57.91, 64.89
CTUN, 590, 0.00, 1.85, 0.000000, 0.00, 0, -50, 590, 0
ATT, 0.00, 0.22, 0.93, 1.78, 0.00, 57.75, 64.89
GPS, 3, 459945200, 10, 1.68, -33.7840350, 151.0682296, 1.73, 94.31, 0.29, 340.55
CTUN, 592, 0.00, 1.73, 0.000000, 0.00, 0, -48, 592, 0
ATT, 0.00, -0.17, 3.51, 2.11, 0.00, 57.49, 64.89
CTUN, 592, 0.00, 1.69, 0.000000, 0.00, 0, -46, 592, 0
ATT, 0.00, -0.11, 7.14, 3.28, 0.00, 57.14, 64.89
GPS, 3, 459945400, 10, 1.68, -33.7840344, 151.0682294, 1.64, 94.23, 0.20, 340.55
CTUN, 610, 0.00, 1.74, 0.000000, 0.00, 1, -42, 611, 0
DU32, 7, 82041
CURR, 610, 147901, 1133, 1568, 4752, 115.8173
ATT, 0.00, -0.32, 8.43, 5.34, 0.00, 56.85, 64.89
CTUN, 610, 0.00, 1.61, 0.000000, 0.00, 2, -36, 612, 0
GPS, 3, 459945600, 10, 1.68, -33.7840340, 151.0682294, 1.57, 94.14, 0.15, 340.55
ATT, 0.00, -0.19, 6.21, 6.99, 0.00, 56.59, 64.89
CTUN, 612, 0.00, 1.70, 0.000000, 0.00, 3, -30, 615, 0
ATT, 0.00, -0.84, 3.39, 6.39, 0.00, 56.41, 64.89
CTUN, 609, 0.00, 1.60, 0.000000, 0.00, 3, -25, 615, 0
GPS, 3, 459945800, 10, 1.68, -33.7840340, 151.0682295, 1.53, 94.12, 0.20, 340.55
CTUN, 611, 0.00, 1.57, 0.000000, 0.00, 1, -18, 612, 0
ATT, 0.00, -0.89, 0.93, 4.16, 0.00, 56.24, 64.89
CTUN, 611, 0.00, 1.58, 0.000000, 0.00, 0, -12, 611, 0
ATT, 0.00, -1.02, 0.00, 1.93, 0.00, 56.15, 64.89
GPS, 3, 459946000, 10, 1.68, -33.7840336, 151.0682291, 1.51, 94.13, 0.05, 340.55
CTUN, 611, 0.00, 1.46, 0.000000, 0.00, 0, -7, 611, 0
ATT, 0.00, -0.82, 0.00, 0.25, 0.00, 56.09, 64.89
CTUN, 611, 0.00, 1.60, 0.000000, 0.00, 0, -1, 611, 0
ATT, 0.00, -0.57, 0.00, -0.11, 0.00, 56.08, 64.89
GPS, 3, 459946200, 10, 1.68, -33.7840334, 151.0682288, 1.50, 94.15, 0.05, 340.55
CTUN, 611, 0.00, 1.58, 0.000000, 0.00, 0, 1, 611, 0
ATT, 0.00, -0.19, 0.00, -0.26, 0.00, 56.15, 64.89
CTUN, 612, 0.00, 1.44, 0.000000, 0.00, 0, 7, 611, 0
ATT, 0.00, -0.19, 0.00, -0.25, 0.00, 56.27, 64.89
GPS, 3, 459946400, 10, 1.68, -33.7840337, 151.0682290, 1.52, 94.19, 0.20, 340.55
CTUN, 611, 0.00, 1.53, 0.000000, 0.00, 0, 12, 611, 0
DU32, 7, 82041
CURR, 613, 153407, 1131, 1600, 4793, 120.2736
ATT, 0.00, -0.07, 0.00, -0.05, 0.00, 56.45, 64.89
CTUN, 611, 0.00, 1.54, 0.000000, 0.00, 0, 16, 611, 0
GPS, 3, 459946600, 10, 1.68, -33.7840340, 151.0682293, 1.55, 94.23, 0.25, 340.55
ATT, 0.00, -0.29, 0.00, 0.10, 0.00, 56.67, 64.89
CTUN, 611, 0.00, 1.55, 0.000000, 0.00, 0, 22, 611, 0
ATT, 0.00, -0.55, 0.00, 0.11, 0.00, 56.87, 64.89
CTUN, 610, 0.00, 1.59, 0.000000, 0.00, 0, 26, 610, 0
GPS, 3, 459946800, 9, 2.13, -33.7840351, 151.0682303, 1.60, 94.18, 0.62, 40.45
CTUN, 611, 0.00, 1.67, 0.000000, 0.00, 0, 30, 611, 0
ATT, 0.00, -0.78, 0.00, 0.21, 0.00, 57.02, 64.89
CTUN, 611, 0.00, 1.65, 0.000000, 0.00, 0, 34, 611, 0
ATT, 0.00, -1.08, 0.00, 0.15, 0.00, 57.11, 64.89
GPS, 3, 459947000, 9, 2.13, -33.7840356, 151.0682313, 1.66, 94.17, 0.58, 40.45
CTUN, 611, 0.00, 1.72, 0.000000, 0.00, 0, 38, 611, 0
ATT, 0.46, -1.63, 0.00, -0.06, 0.00, 57.21, 64.89
CTUN, 611, 0.00, 1.73, 0.000000, 0.00, 0, 43, 611, 0
ATT, 0.00, -1.76, 0.00, -0.08, 0.00, 57.25, 64.89
GPS, 3, 459947200, 9, 2.13, -33.7840357, 151.0682325, 1.74, 94.21, 0.65, 40.45
CTUN, 611, 0.00, 1.85, 0.000000, 0.00, 0, 46, 611, 0
ATT, 0.00, -1.84, 0.00, 0.28, 0.00, 57.45, 64.89
CTUN, 611, 0.00, 1.93, 0.000000, 0.00, 0, 50, 611, 0
ATT, 0.00, -1.80, 0.00, 0.48, 0.00, 57.78, 64.89
GPS, 3, 459947400, 9, 2.13, -33.7840354, 151.0682334, 1.86, 94.25, 0.51, 40.45
CTUN, 611, 0.00, 1.92, 0.000000, 0.00, 0, 52, 611, 0
ATT, 0.00, -1.92, 0.00, 0.43, 0.00, 58.42, 64.89
DU32, 7, 82041
CURR, 611, 158907, 1135, 1570, 4772, 124.5960
CTUN, 611, 0.00, 1.91, 0.000000, 0.00, 0, 53, 611, 0
ATT, 0.00, -1.78, 0.00, 0.47, 0.00, 59.06, 64.89
GPS, 3, 459947600, 9, 2.13, -33.7840358, 151.0682348, 1.98, 94.40, 0.73, 71.43
CTUN, 611, 0.00, 1.95, 0.000000, 0.00, 0, 57, 611, 0
ATT, 0.00, -1.58, 0.00, 0.48, 0.00, 59.74, 64.89
CTUN, 611, 0.00, 2.08, 0.000000, 0.00, 0, 60, 611, 0
GPS, 3, 459947800, 9, 2.13, -33.7840358, 151.0682363, 2.09, 94.53, 0.78, 86.49
ATT, 0.00, -1.28, 0.00, 0.69, 0.00, 60.40, 64.89
CTUN, 611, 0.00, 2.11, 0.000000, 0.00, 0, 62, 611, 0
ATT, 0.00, -1.19, 0.00, 0.69, 0.00, 60.88, 64.89
CTUN, 611, 0.00, 2.19, 0.000000, 0.00, 0, 65, 611, 0
PM, 0, 0, 50, 1, 1000, 12024, 0, 4
GPS, 3, 459948000, 9, 2.13, -33.7840354, 151.0682379, 2.22, 94.66, 0.79, 86.49
CTUN, 573, 0.00, 2.09, 0.000000, 0.00, 0, 67, 573, 0
ATT, 0.00, -1.01, 0.00, 0.81, 0.00, 61.39, 64.89
CTUN, 567, 0.00, 2.26, 0.000000, 0.00, 0, 64, 569, 0
ATT, 2.30, -0.78, 1.87, 0.97, 0.00, 61.72, 64.89
GPS, 3, 459948200, 9, 2.13, -33.7840347, 151.0682396, 2.33, 94.83, 0.90, 86.49
CTUN, 566, 0.00, 2.29, 0.000000, 0.00, 0, 60, 566, 0
ATT, 0.00, -0.43, 12.30, 3.45, 0.00, 62.02, 64.89
CTUN, 568, 0.00, 2.49, 0.000000, 0.00, 2, 54, 571, 0
ATT, 0.00, 0.57, 14.76, 8.91, 0.00, 62.10, 64.89
GPS, 3, 459948400, 9, 2.13, -33.7840348, 151.0682414, 2.45, 94.87, 0.81, 86.49
