dump 4

ArduCopter V3.1-rc2
Free RAM: 1133
APM 2
FMT, 128, 89, FMT, BBnNZ, Type,Length,Name,Format
FMT, 129, 23, PARM, Nf, Name,Value
FMT, 130, 35, GPS, BIBcLLeeEe, Status,Time,NSats,HDop,Lat,Lng,RelAlt,Alt,Spd,GCrs
FMT, 131, 27, IMU, ffffff, GyrX,GyrY,GyrZ,AccX,AccY,AccZ
FMT, 132, 67, MSG, Z, Message
FMT, 9, 19, CURR, hIhhhf, Thr,ThrInt,Volt,Curr,Vcc,CurrTot
FMT, 11, 11, MOT, hhhh, Mot1,Mot2,Mot3,Mot4
FMT, 12, 28, OF, hhBccffee, Dx,Dy,SQual,X,Y,Lat,Lng,Roll,Pitch
FMT, 5, 49, NTUN, Ecffffffffee, WPDst,WPBrg,PErX,PErY,DVelX,DVelY,VelX,VelY,DAcX,DAcY,DRol,DPit
FMT, 4, 25, CTUN, hcefchhhh, ThrIn,SonAlt,BarAlt,WPAlt,DesSonAlt,AngBst,CRate,ThrOut,DCRate
FMT, 15, 21, MAG, hhhhhhhhh, MagX,MagY,MagZ,OfsX,OfsY,OfsZ,MOfsX,MOfsY,MOfsZ
FMT, 6, 17, PM, BBBHHIhB, RenCnt,RenBlw,FixCnt,NLon,NLoop,MaxT,PMT,I2CErr
FMT, 8, 20, CMD, BBBBBeLL, CTot,CNum,CId,COpt,Prm1,Alt,Lat,Lng
FMT, 1, 17, ATT, cccccCC, RollIn,Roll,PitchIn,Pitch,YawIn,Yaw,NavYaw
FMT, 17, 37, INAV, cccfffiiff, BAlt,IAlt,IClb,ACorrX,ACorrY,ACorrZ,GLat,GLng,ILat,ILng
FMT, 3, 6, MODE, Mh, Mode,ThrCrs
FMT, 10, 3, STRT, , 
FMT, 13, 4, EV, B, Id
FMT, 20, 6, D16, Bh, Id,Value
FMT, 21, 6, DU16, BH, Id,Value
FMT, 22, 8, D32, Bi, Id,Value
FMT, 23, 8, DU32, BI, Id,Value
FMT, 24, 8, DFLT, Bf, Id,Value
FMT, 14, 28, PID, Biiiiif, Id,Error,P,I,D,Out,Gain
FMT, 16, 15, DMP, ccccCC, DCMRoll,DMPRoll,DCMPtch,DMPPtch,DCMYaw,DMPYaw
FMT, 18, 25, CAM, ILLeccC, GPSTime,Lat,Lng,Alt,Roll,Pitch,Yaw
FMT, 19, 5, ERR, BB, Subsys,ECode
D32, 9, 6187
CMD, 6, 0, 16, 0, 0, 0.00, -33.7840486, 151.0681928
EV, 10
GPS, 3, 110263400, 11, 1.50, -33.7840486, 151.0681929, -0.93, 97.25, 0.01, 26.03
CTUN, 0, 0.00, 0.00, 0.000000, 0.00, 0, 0, 0, 0
GPS, 3, 110270600, 10, 1.52, -33.7840516, 151.0681931, -0.91, 96.97, 0.02, 26.03
ATT, 0.00, 0.68, 0.00, -0.58, 0.00, 61.88, 61.88
CTUN, 0, 0.00, 0.01, 0.000000, 0.00, 0, 1, 0, 0
ATT, 0.00, 0.68, 0.00, -0.56, 0.00, 61.88, 61.88
CTUN, 0, 0.00, -0.03, 0.000000, 0.00, 0, 2, 0, 0
GPS, 3, 110270800, 10, 1.52, -33.7840517, 151.0681930, -0.80, 96.98, 0.02, 26.03
ATT, 0.00, 0.68, 0.00, -0.54, 0.00, 61.88, 61.88
CTUN, 0, 0.00, -0.02, 0.000000, 0.00, 0, 3, 0, 0
ATT, 0.00, 0.67, 0.00, -0.53, 0.00, 61.88, 61.88
CTUN, 0, 0.00, -0.10, 0.000000, 0.00, 0, 4, 0, 0
GPS, 3, 110271000, 10, 1.52, -33.7840517, 151.0681930, -0.70, 96.98, 0.02, 26.03
ATT, 0.00, 0.66, 0.00, -0.52, 0.00, 61.88, 61.88
DU32, 7, 98393
CURR, 0, 0, 1102, 0, 4487, 0.000000
CTUN, 0, 0.00, -0.04, 0.000000, 0.00, 0, 5, 0, 0
ATT, 0.00, 0.66, 0.00, -0.51, 0.00, 61.88, 61.88
CTUN, 0, 0.00, -0.01, 0.000000, 0.00, 0, 5, 0, 0
GPS, 3, 110271200, 10, 1.52, -33.7840517, 151.0681929, -0.62, 96.98, 0.03, 26.03
ATT, 0.00, 0.66, 0.00, -0.50, 0.00, 61.88, 61.88
CTUN, 0, 0.00, -0.09, 0.000000, 0.00, 0, 6, 0, 0
ATT, 0.00, 0.66, 0.00, -0.49, 0.00, 61.88, 61.88
CTUN, 0, 0.00, -0.01, 0.000000, 0.00, 0, 7, 0, 0
GPS, 3, 110271400, 10, 1.52, -33.7840517, 151.0681929, -0.54, 96.99, 0.02, 26.03
ATT, 0.00, 0.65, 0.00, -0.48, 0.00, 61.88, 61.88
CTUN, 0, 0.00, -0.05, 0.000000, 0.00, 0, 8, 0, 0
ATT, 0.00, 0.65, 0.00, -0.47, 0.00, 61.88, 61.88
CTUN, 0, 0.00, -0.05, 0.000000, 0.00, 0, 8, 0, 0
GPS, 3, 110271600, 10, 1.52, -33.7840516, 151.0681929, -0.46, 96.99, 0.01, 26.03
ATT, 0.00, 0.65, 0.00, -0.46, 0.00, 61.88, 61.88
CTUN, 0, 0.00, -0.09, 0.000000, 0.00, 0, 9, 0, 0
EV, 15
ATT, 0.00, 0.65, 0.00, -0.46, 0.00, 61.89, 61.89
EV, 28
CTUN, 207, 0.00, -0.11, 0.000000, 0.00, 0, 9, 206, 0
PM, 0, 0, 50, 2, 1000, 7332952, 0, 4
GPS, 3, 110271800, 9, 1.77, -33.7840516, 151.0681929, -0.40, 96.98, 0.01, 26.03
ATT, 0.00, 0.63, 0.00, -0.47, 0.00, 61.86, 61.89
CTUN, 307, 0.00, 0.00, 0.000000, 0.00, 0, 9, 296, 0
ATT, 0.00, 0.65, 0.00, -0.43, 0.00, 61.76, 61.89
CTUN, 337, 0.00, -0.31, 0.000000, 0.00, 0, 10, 337, 0
GPS, 3, 110272000, 10, 1.52, -33.7840516, 151.0681929, -0.34, 96.98, 0.02, 26.03
ATT, 0.00, 0.73, 0.00, -0.49, 0.00, 61.63, 61.89
DU32, 7, 65657
CURR, 337, 804, 1102, 0, 4505, 0.000000
CTUN, 337, 0.00, -0.54, 0.000000, 0.00, 0, 10, 337, 0
ATT, 0.00, 0.77, 0.00, -0.48, 0.00, 61.56, 61.89
CTUN, 258, 0.00, -0.75, 0.000000, 0.00, 0, 9, 304, 0
GPS, 3, 110272200, 10, 1.52, -33.7840516, 151.0681929, -0.34, 96.98, 0.01, 26.03
ATT, 0.00, 0.72, 0.00, -0.50, 0.00, 61.54, 61.89
CTUN, 190, 0.00, -0.56, 0.000000, 0.00, 0, 9, 190, 0
ATT, 0.00, 0.71, 0.00, -0.51, 0.00, 61.46, 61.46
CTUN, 0, 0.00, -0.66, 0.000000, 0.00, 0, 9, 0, 0
GPS, 3, 110272400, 10, 1.52, -33.7840516, 151.0681930, -0.35, 96.97, 0.07, 26.03
ATT, 0.00, 0.69, 0.00, -0.46, 0.00, 61.48, 61.48
CTUN, 0, 0.00, -0.45, 0.000000, 0.00, 0, 9, 0, 0
ATT, 0.00, 0.67, 0.00, -0.47, 0.00, 61.52, 61.52
CTUN, 0, 0.00, -0.44, 0.000000, 0.00, 0, 9, 0, 0
GPS, 3, 110272600, 10, 1.52, -33.7840516, 151.0681930, -0.36, 96.97, 0.06, 26.03
ATT, 0.00, 0.68, 0.00, -0.45, 0.00, 61.54, 61.54
CTUN, 0, 0.00, -0.13, 0.000000, 0.00, 0, 9, 0, 0
ATT, 0.00, 0.68, 0.00, -0.44, 0.00, 61.53, 61.53
CTUN, 0, 0.00, -0.16, 0.000000, 0.00, 0, 9, 0, 0
GPS, 3, 110272800, 10, 1.52, -33.7840516, 151.0681929, -0.33, 96.97, 0.01, 26.03
ATT, 0.00, 0.67, 0.00, -0.43, 0.00, 61.54, 61.54
CTUN, 0, 0.00, -0.12, 0.000000, 0.00, 0, 9, 0, 0
ATT, 0.00, 0.65, 0.00, -0.41, 0.00, 61.54, 61.54
CTUN, 0, 0.00, -0.21, 0.000000, 0.00, 0, 10, 0, 0
GPS, 3, 110273000, 10, 1.52, -33.7840516, 151.0681928, -0.29, 97.01, 0.02, 26.03
DU32, 7, 65625
CURR, 0, 1629, 1102, 0, 4469, 0.000000
ATT, 0.00, 0.65, 0.00, -0.40, 0.00, 61.53, 61.53
CTUN, 0, 0.00, -0.13, 0.000000, 0.00, 0, 10, 0, 0
ATT, 0.00, 0.66, 0.00, -0.38, 0.00, 61.54, 61.54
CTUN, 0, 0.00, -0.08, 0.000000, 0.00, 0, 10, 0, 0
GPS, 3, 110273200, 10, 1.52, -33.7840516, 151.0681927, -0.25, 97.02, 0.01, 26.03
ATT, 0.00, 0.65, 0.00, -0.37, 0.00, 61.54, 61.54
CTUN, 0, 0.00, -0.16, 0.000000, 0.00, 0, 10, 0, 0
ATT, 0.00, 0.64, 0.00, -0.37, 0.00, 61.53, 61.53
CTUN, 0, 0.00, -0.03, 0.000000, 0.00, 0, 10, 0, 0
EV, 18
GPS, 3, 110273400, 10, 1.52, -33.7840515, 151.0681926, -0.22, 97.04, 0.03, 26.03
ATT, 0.00, 0.64, 0.00, -0.35, 0.00, 61.53, 61.53
CTUN, 0, 0.00, -0.08, 0.000000, 0.00, 0, 10, 0, 0
ATT, 0.00, 0.64, 0.00, -0.34, 0.00, 61.53, 61.53
CTUN, 0, 0.00, 0.00, 0.000000, 0.00, 0, 11, 0, 0
GPS, 3, 110273600, 10, 1.52, -33.7840515, 151.0681926, -0.17, 97.05, 0.02, 26.03
ATT, 0.00, 0.63, 0.00, -0.34, 0.00, 61.53, 61.53
CTUN, 0, 0.00, -0.13, 0.000000, 0.00, 0, 11, 0, 0
ATT, 0.00, 0.63, 0.00, -0.35, 0.00, 61.54, 61.54
CTUN, 0, 0.00, -0.14, 0.000000, 0.00, 0, 11, 0, 0
GPS, 3, 110273800, 10, 1.52, -33.7840515, 151.0681925, -0.14, 97.07, 0.02, 26.03
ATT, 0.00, 0.64, 0.00, -0.34, 0.00, 61.53, 61.53
CTUN, 0, 0.00, 0.06, 0.000000, 0.00, 0, 11, 0, 0
ATT, 0.00, 0.64, 0.00, -0.32, 0.00, 61.52, 61.52
CTUN, 0, 0.00, -0.10, 0.000000, 0.00, 0, 12, 0, 0
GPS, 3, 110274000, 10, 1.52, -33.7840514, 151.0681924, -0.10, 97.09, 0.02, 26.03
DU32, 7, 98393
CURR, 0, 1629, 1102, 0, 4487, 0.000000
ATT, 0.00, 0.63, 0.00, -0.31, 0.00, 61.53, 61.53
CTUN, 0, 0.00, -0.10, 0.000000, 0.00, 0, 12, 0, 0
ATT, 0.00, 0.62, 0.00, -0.31, 0.00, 61.54, 61.54
CTUN, 0, 0.00, -0.01, 0.000000, 0.00, 0, 12, 0, 0
GPS, 3, 110274200, 10, 1.52, -33.7840513, 151.0681923, -0.08, 97.10, 0.01, 26.03
ATT, 0.00, 0.62, 0.00, -0.30, 0.00, 61.54, 61.54
CTUN, 0, 0.00, -0.13, 0.000000, 0.00, 0, 12, 0, 0
EV, 15
EV, 28
ATT, 0.00, 0.63, 0.00, -0.30, 0.00, 61.55, 61.55
CTUN, 142, 0.00, -0.14, 0.000000, 0.00, 0, 12, 142, 0
GPS, 3, 110274400, 10, 1.52, -33.7840512, 151.0681923, -0.06, 97.12, 0.01, 26.03
CTUN, 147, 0.00, -0.10, 0.000000, 0.00, 0, 12, 145, 0
ATT, 0.00, 0.62, 0.00, -0.29, 0.00, 61.52, 61.55
CTUN, 151, 0.00, -0.06, 0.000000, 0.00, 0, 12, 151, 0
ATT, 0.00, 0.61, 0.00, -0.29, 0.00, 61.50, 61.55
GPS, 3, 110274600, 10, 1.52, -33.7840512, 151.0681922, -0.04, 97.14, 0.02, 26.03
CTUN, 151, 0.00, -0.27, 0.000000, 0.00, 0, 12, 151, 0
ATT, 0.00, 0.61, 0.00, -0.29, 0.00, 61.46, 61.55
CTUN, 151, 0.00, -0.28, 0.000000, 0.00, 0, 12, 151, 0
GPS, 3, 110274800, 10, 1.52, -33.7840510, 151.0681921, -0.03, 97.15, 0.01, 26.03
ATT, 0.00, 0.60, 0.00, -0.33, 0.00, 61.45, 61.55
CTUN, 151, 0.00, -0.22, 0.000000, 0.00, 0, 12, 151, 0
ATT, 0.00, 0.60, 0.00, -0.29, 0.00, 61.43, 61.55
CTUN, 151, 0.00, -0.28, 0.000000, 0.00, 0, 12, 152, 0
GPS, 3, 110275000, 10, 1.52, -33.7840509, 151.0681921, -0.03, 97.17, 0.01, 26.03
ATT, 0.00, 0.59, 0.00, -0.32, 0.00, 61.41, 61.55
DU32, 7, 65657
CURR, 191, 2523, 1102, 0, 4469, 0.000000
CTUN, 197, 0.00, -0.37, 0.000000, 0.00, 0, 11, 191, 0
ATT, 0.00, 0.61, 0.00, -0.30, 0.00, 61.33, 61.55
CTUN, 206, 0.00, -0.30, 0.000000, 0.00, 0, 11, 206, 0
GPS, 3, 110275200, 10, 1.52, -33.7840509, 151.0681920, -0.04, 97.20, 0.03, 26.03
ATT, 0.00, 0.65, 0.00, -0.32, 0.00, 61.26, 61.55
CTUN, 204, 0.00, -0.37, 0.000000, 0.00, 0, 10, 204, 0
ATT, 0.00, 0.63, 0.00, -0.34, 0.00, 61.18, 61.55
CTUN, 205, 0.00, -0.43, 0.000000, 0.00, 0, 11, 205, 0
GPS, 3, 110275400, 10, 1.52, -33.7840508, 151.0681919, -0.06, 97.23, 0.01, 26.03
CTUN, 259, 0.00, -0.54, 0.000000, 0.00, 0, 10, 259, 0
ATT, 0.00, 0.68, 0.00, -0.34, 0.00, 61.13, 61.55
CTUN, 321, 0.00, -0.56, 0.000000, 0.00, 0, 9, 298, 0
ATT, 0.00, 0.68, 0.00, -0.33, 0.00, 61.05, 61.55
GPS, 3, 110275600, 10, 1.52, -33.7840507, 151.0681918, -0.09, 97.26, 0.02, 26.03
CTUN, 359, 0.00, -0.67, 0.000000, 0.00, 0, 8, 359, 0
EV, 16
ATT, 0.00, 0.68, 0.00, -0.30, 0.00, 60.96, 61.55
CTUN, 414, 0.00, -0.77, 0.000000, 0.00, 0, 8, 400, 0
GPS, 3, 110275800, 10, 1.52, -33.7840505, 151.0681917, -0.14, 97.27, 0.01, 26.03
ATT, 0.00, 0.72, 0.00, -0.30, 0.00, 60.86, 61.55
CTUN, 445, 0.00, -1.02, 0.000000, 0.00, 0, 7, 437, 0
ATT, 0.00, 0.80, 0.00, -0.17, 0.00, 60.74, 61.55
CTUN, 481, 0.00, -0.95, 0.000000, 0.00, 0, 7, 479, 0
GPS, 3, 110276000, 10, 1.52, -33.7840504, 151.0681916, -0.21, 97.29, 0.01, 26.03
ATT, 0.00, 1.08, 0.00, 0.25, 0.00, 60.25, 61.55
DU32, 7, 82041
CURR, 491, 5237, 1102, 0, 4469, 0.000000
CTUN, 501, 0.00, -1.32, 0.000000, 0.00, 0, 8, 501, 0
ATT, 0.00, 0.80, 0.00, 2.04, 0.00, 59.46, 61.55
CTUN, 513, 0.00, -1.61, 0.000000, 0.00, 0, 9, 504, 0
GPS, 3, 110276200, 10, 1.52, -33.7840503, 151.0681915, -0.31, 97.31, 0.01, 26.03
ATT, 0.00, -0.28, 0.00, 3.75, 0.00, 57.81, 61.55
CTUN, 520, 0.00, -1.51, 0.000000, 0.00, 0, 11, 520, 0
ATT, 0.00, -0.05, 0.00, 3.92, 0.00, 55.97, 61.55
CTUN, 529, 0.00, -0.79, 0.000000, 0.00, 0, 15, 529, 0
GPS, 3, 110276400, 11, 1.50, -33.7840502, 151.0681913, -0.42, 97.32, 0.09, 26.03
CTUN, 532, 0.00, -0.48, 0.000000, 0.00, 1, 22, 531, 0
ATT, 0.00, 0.24, 0.00, 4.33, 0.00, 53.74, 61.55
CTUN, 536, 0.00, -0.35, 0.000000, 0.00, 1, 26, 537, 0
ATT, 0.00, 0.45, 0.00, 4.32, 0.00, 52.05, 61.55
GPS, 3, 110276600, 10, 1.71, -33.7840503, 151.0681906, -0.40, 97.37, 0.29, 300.97
CTUN, 537, 0.00, -0.52, 0.000000, 0.00, 1, 29, 537, 0
ATT, 0.00, 0.42, -0.84, 3.78, 0.00, 50.74, 60.74
CTUN, 536, 0.00, -0.10, 0.000000, 0.00, 0, 32, 536, 0
ATT, 0.00, 0.42, -5.18, 2.40, 0.00, 49.66, 59.66
GPS, 3, 110276800, 10, 1.71, -33.7840506, 151.0681898, -0.33, 97.40, 0.47, 268.07
CTUN, 537, 0.00, -0.07, 0.000000, 0.00, 0, 34, 536, 0
ATT, 0.00, 0.35, -10.25, -0.61, 0.00, 48.76, 58.76
CTUN, 536, 0.00, -0.01, 0.000000, 0.00, 0, 32, 536, 0
GPS, 3, 110277000, 10, 1.71, -33.7840509, 151.0681884, -0.24, 97.42, 0.71, 256.34
ATT, 0.00, 0.37, -12.18, -5.19, 0.00, 47.90, 57.90
DU32, 7, 82041
CURR, 536, 9975, 1102, 0, 4487, 0.000000
CTUN, 536, 0.00, 0.10, 0.000000, 0.00, 2, 32, 538, 0
ATT, 0.00, 0.03, -11.82, -8.11, 0.00, 47.26, 57.26
CTUN, 537, 0.00, 0.20, 0.000000, 0.00, 4, 32, 541, 0
GPS, 3, 110277200, 11, 1.50, -33.7840515, 151.0681870, -0.13, 97.48, 0.74, 247.71
ATT, 0.00, 1.11, -10.73, -9.34, 0.00, 46.49, 56.49
CTUN, 532, 0.00, 0.26, 0.000000, 0.00, 5, 30, 537, 0
ATT, 0.00, 1.91, -9.28, -8.88, 0.00, 45.91, 55.91
CTUN, 536, 0.00, 0.18, 0.000000, 0.00, 5, 28, 539, 0
GPS, 3, 110277400, 11, 1.50, -33.7840517, 151.0681858, -0.03, 97.52, 0.55, 251.03
CTUN, 534, 0.00, 0.34, 0.000000, 0.00, 4, 26, 538, 0
ATT, 0.00, 1.83, -6.03, -7.69, 0.00, 45.41, 55.41
CTUN, 534, 0.00, 0.35, 0.000000, 0.00, 2, 26, 538, 0
ATT, 0.00, 1.91, -1.80, -5.97, 0.00, 45.10, 55.10
GPS, 3, 110277600, 12, 1.38, -33.7840517, 151.0681852, 0.05, 97.54, 0.30, 253.77
CTUN, 540, 0.00, 0.34, 0.000000, 0.00, 0, 23, 540, 0
ATT, 0.00, 1.82, 0.00, -2.37, 0.00, 44.88, 54.88
CTUN, 540, 0.00, 0.23, 0.000000, 0.00, 0, 21, 540, 0
ATT, 0.00, 1.83, -1.68, -0.02, 0.00, 44.71, 54.71
GPS, 3, 110277800, 12, 1.38, -33.7840514, 151.0681848, 0.12, 97.60, 0.16, 253.77
CTUN, 540, 0.00, 0.31, 0.000000, 0.00, 0, 19, 540, 0
ATT, 0.00, 1.14, -4.34, -0.03, 0.00, 44.70, 54.70
CTUN, 541, 0.00, 0.39, 0.000000, 0.00, 0, 18, 540, 0
GPS, 3, 110278000, 11, 1.50, -33.7840512, 151.0681845, 0.17, 97.65, 0.14, 253.77
ATT, 0.00, 0.17, -5.18, -1.86, 0.00, 44.77, 54.70
DU32, 7, 82041
CURR, 540, 14825, 1102, 0, 4505, 0.000000
CTUN, 541, 0.00, 0.46, 0.000000, 0.00, 0, 16, 541, 0
ATT, 0.00, 0.47, -6.87, -2.90, 0.00, 44.75, 54.70
CTUN, 540, 0.00, 0.45, 0.000000, 0.00, 0, 15, 540, 0
GPS, 3, 110278200, 11, 1.49, -33.7840510, 151.0681839, 0.23, 97.69, 0.21, 253.77
ATT, 0.00, 0.58, -8.32, -4.30, 0.00, 44.73, 54.70
CTUN, 540, 0.00, 0.46, 0.000000, 0.00, 1, 15, 541, 0
ATT, 0.00, 0.59, -8.68, -5.86, 0.00, 44.78, 54.70
CTUN, 540, 0.00, 0.46, 0.000000, 0.00, 2, 15, 542, 0
GPS, 3, 110278400, 11, 1.49, -33.7840508, 151.0681835, 0.29, 97.75, 0.19, 253.77
CTUN, 540, 0.00, 0.44, 0.000000, 0.00, 2, 12, 542, 0
ATT, 0.00, 0.85, -8.92, -6.65, 0.00, 44.88, 54.70
CTUN, 540, 0.00, 0.29, 0.000000, 0.00, 2, 11, 542, 0
ATT, 0.00, 1.00, -8.92, -6.81, 0.00, 45.01, 54.70
GPS, 3, 110278600, 10, 1.56, -33.7840506, 151.0681832, 0.33, 97.77, 0.16, 253.77
CTUN, 541, 0.00, 0.44, 0.000000, 0.00, 3, 11, 543, 0
ATT, 0.00, 1.07, -8.92, -7.11, 0.00, 45.35, 54.70
CTUN, 551, 0.00, 0.46, 0.000000, 0.00, 3, 11, 554, 0
GPS, 3, 110278800, 10, 1.56, -33.7840502, 151.0681833, 0.36, 97.74, 0.19, 253.77
ATT, 0.00, 1.06, -8.92, -7.38, 0.00, 45.86, 54.70
CTUN, 571, 0.00, 0.51, 0.000000, 0.00, 3, 12, 572, 0
ATT, 0.00, 1.20, -8.44, -7.49, 0.00, 46.33, 54.70
CTUN, 572, 0.00, 0.55, 0.000000, 0.00, 3, 15, 575, 0
GPS, 3, 110279000, 9, 1.91, -33.7840496, 151.0681837, 0.40, 97.73, 0.34, 330.85
ATT, 0.00, 1.21, -6.51, -7.14, 0.00, 46.74, 54.70
DU32, 7, 82041
CURR, 571, 19763, 1102, 0, 4487, 0.000000
CTUN, 571, 0.00, 0.48, 0.000000, 0.00, 3, 20, 574, 0
ATT, 0.00, 1.38, -3.61, -5.75, 0.00, 46.90, 54.70
CTUN, 584, 0.00, 0.51, 0.000000, 0.00, 1, 25, 586, 0
GPS, 3, 110279200, 10, 1.71, -33.7840487, 151.0681842, 0.46, 97.72, 0.56, 11.69
ATT, 0.00, 1.35, -1.93, -3.49, 0.00, 46.83, 54.70
CTUN, 584, 0.00, 0.42, 0.000000, 0.00, 0, 31, 584, 0
ATT, 0.00, 1.13, -0.96, -2.13, 0.00, 46.62, 54.70
CTUN, 581, 0.00, 0.55, 0.000000, 0.00, 0, 38, 583, 0
GPS, 3, 110279400, 11, 1.49, -33.7840478, 151.0681852, 0.52, 97.76, 0.67, 36.40
ATT, 0.00, 0.92, -1.80, -0.74, 0.00, 46.34, 54.70
CTUN, 584, 0.00, 0.54, 0.000000, 0.00, 0, 45, 584, 0
ATT, 0.00, 0.71, -3.01, -0.27, 0.00, 46.00, 54.70
CTUN, 584, 0.00, 0.47, 0.000000, 0.00, 0, 49, 584, 0
GPS, 3, 110279600, 11, 1.49, -33.7840468, 151.0681862, 0.61, 97.80, 0.70, 38.88
CTUN, 582, 0.00, 0.73, 0.000000, 0.00, 0, 55, 582, 0
ATT, 0.00, 0.14, -4.58, -1.21, 0.00, 45.52, 54.70
CTUN, 584, 0.00, 0.58, 0.000000, 0.00, 0, 60, 585, 0
ATT, 0.00, -0.06, -6.15, -2.27, 0.00, 44.95, 54.70
GPS, 3, 110279800, 11, 1.49, -33.7840460, 151.0681868, 0.74, 97.91, 0.56, 41.06
CTUN, 584, 0.00, 0.69, 0.000000, 0.00, 0, 66, 584, 0
ATT, 0.00, 0.43, -7.11, -3.40, 0.00, 44.22, 54.22
CTUN, 584, 0.00, 0.74, 0.000000, 0.00, 1, 72, 584, 0
ATT, 0.00, 0.60, -7.11, -4.71, 0.00, 43.41, 53.41
GPS, 3, 110280000, 11, 1.49, -33.7840451, 151.0681875, 0.86, 97.98, 0.55, 41.31
CTUN, 584, 0.00, 0.83, 0.000000, 0.00, 1, 79, 585, 0
DU32, 7, 82041
CURR, 584, 25592, 1102, 0, 4469, 0.000000
ATT, 0.00, 0.50, -6.87, -5.27, 0.00, 42.74, 52.74
CTUN, 584, 0.00, 1.05, 0.000000, 0.00, 2, 86, 586, 0
GPS, 3, 110280200, 11, 1.49, -33.7840442, 151.0681881, 1.02, 98.11, 0.60, 41.10
ATT, 0.00, 0.48, -6.87, -5.17, 0.00, 42.20, 52.20
CTUN, 584, 0.00, 1.02, 0.000000, 0.00, 1, 92, 585, 0
ATT, 0.00, 0.98, -6.63, -4.82, 0.00, 41.95, 51.95
CTUN, 583, 0.00, 1.11, 0.000000, 0.00, 1, 98, 584, 0
GPS, 3, 110280400, 11, 1.49, -33.7840432, 151.0681887, 1.21, 98.29, 0.63, 39.00
ATT, 0.00, 0.91, -4.22, -4.32, 0.00, 41.98, 51.92
CTUN, 584, 0.00, 1.13, 0.000000, 0.00, 1, 102, 585, 0
ATT, 0.00, 0.52, -0.72, -3.16, 0.00, 42.23, 51.92
CTUN, 584, 0.00, 1.38, 0.000000, 0.00, 0, 107, 584, 0
GPS, 3, 110280600, 11, 1.49, -33.7840423, 151.0681897, 1.41, 98.45, 0.72, 43.98
CTUN, 584, 0.00, 1.29, 0.000000, 0.00, 0, 111, 584, 0
ATT, 0.00, 0.49, 0.00, -0.66, 0.00, 42.68, 51.92
CTUN, 584, 0.00, 1.53, 0.000000, 0.00, 0, 116, 584, 0
ATT, 0.00, 0.15, 0.00, 0.58, 0.00, 43.29, 51.92
GPS, 3, 110280800, 11, 1.49, -33.7840411, 151.0681903, 1.62, 98.72, 0.72, 41.41
CTUN, 582, 0.00, 1.46, 0.000000, 0.00, 0, 118, 582, 0
ATT, 0.00, -0.06, 0.00, 0.68, 0.00, 43.85, 51.92
CTUN, 584, 0.00, 1.69, 0.000000, 0.00, 0, 120, 582, 0
ATT, 0.00, -0.26, 0.00, 0.37, 0.00, 44.28, 51.92
GPS, 3, 110281000, 11, 1.49, -33.7840403, 151.0681910, 1.84, 98.91, 0.61, 41.99
CTUN, 583, 0.00, 1.77, 0.000000, 0.00, 0, 122, 583, 0
DU32, 7, 82041
CURR, 583, 30842, 1102, 0, 4505, 0.000000
ATT, 0.00, -0.09, 0.00, 0.15, 0.00, 44.29, 51.92
CTUN, 583, 0.00, 1.85, 0.000000, 0.00, 0, 126, 583, 0
GPS, 3, 110281200, 11, 1.49, -33.7840394, 151.0681917, 2.08, 99.13, 0.59, 39.48
ATT, 0.00, -0.04, 0.00, 0.37, 0.00, 43.95, 51.92
CTUN, 576, 0.00, 1.87, 0.000000, 0.00, 0, 130, 584, 0
ATT, 0.00, 0.03, 0.00, 0.49, 0.00, 43.46, 51.92
CTUN, 571, 0.00, 2.14, 0.000000, 0.00, 0, 133, 571, 0
GPS, 3, 110281400, 11, 1.49, -33.7840385, 151.0681919, 2.31, 99.45, 0.49, 33.08
ATT, 0.00, 0.17, -1.68, 0.38, 0.00, 42.93, 51.92
CTUN, 531, 0.00, 2.15, 0.000000, 0.00, 0, 133, 531, 0
ATT, 0.00, 0.34, -3.73, -0.74, 0.00, 42.54, 51.92
CTUN, 530, 0.00, 2.28, 0.000000, 0.00, 0, 130, 530, 0
GPS, 3, 110281600, 11, 1.49, -33.7840379, 151.0681923, 2.55, 99.66, 0.41, 31.06
CTUN, 529, 0.00, 2.37, 0.000000, 0.00, 0, 123, 529, 0
ATT, 0.00, 0.81, -3.86, -3.12, 0.00, 42.41, 51.92
CTUN, 529, 0.00, 2.49, 0.000000, 0.00, 1, 116, 531, 0
ATT, 0.00, 0.88, -3.25, -4.14, 0.00, 42.49, 51.92
PM, 0, 0, 50, 1, 1000, 12036, 0, 4
GPS, 3, 110281800, 11, 1.49, -33.7840373, 151.0681927, 2.76, 99.86, 0.35, 25.43
CTUN, 522, 0.00, 2.72, 0.000000, 0.00, 1, 112, 523, 0
ATT, 0.00, 1.33, 0.00, -4.04, 0.00, 42.55, 51.92
CTUN, 500, 0.00, 2.73, 0.000000, 0.00, 0, 105, 513, 0
ATT, 0.00, 1.80, 0.00, -2.68, 0.00, 42.56, 51.92
GPS, 3, 110282000, 10, 1.71, -33.7840366, 151.0681928, 2.95, 99.98, 0.44, 14.08
CTUN, 498, 0.00, 2.92, 0.000000, 0.00, 0, 98, 499, 0
ATT, 0.00, 2.06, -1.20, -1.16, 0.00, 42.67, 51.92
DU32, 7, 82041
CURR, 498, 35715, 1102, 0, 4487, 0.000000
CTUN, 498, 0.00, 2.98, 0.000000, 0.00, 0, 87, 499, 0
ATT, 0.00, 1.13, -6.03, -1.15, 0.00, 42.87, 51.92
GPS, 3, 110282200, 11, 1.49, -33.7840362, 151.0681936, 3.13, 100.01, 0.37, 14.76
CTUN, 498, 0.00, 3.08, 0.000000, 0.00, 0, 77, 498, 0
ATT, 0.00, -0.31, -6.27, -3.79, 0.00, 43.18, 51.92
CTUN, 498, 0.00, 3.07, 0.000000, 0.00, 1, 65, 500, 0
GPS, 3, 110282400, 11, 1.49, -33.7840357, 151.0681942, 3.26, 100.06, 0.35, 19.98
ATT, 0.00, -1.09, -4.94, -5.47, 0.00, 43.62, 51.92
CTUN, 498, 0.00, 3.27, 0.000000, 0.00, 1, 53, 499, 0
ATT, 0.00, -0.27, -3.61, -4.78, 0.00, 43.96, 51.92
CTUN, 498, 0.00, 3.28, 0.000000, 0.00, 1, 44, 499, 0
GPS, 3, 110282600, 11, 1.49, -33.7840350, 151.0681948, 3.35, 100.13, 0.47, 26.77
ATT, 0.00, 0.21, -3.49, -3.38, 0.00, 44.37, 51.92
CTUN, 498, 0.00, 3.30, 0.000000, 0.00, 0, 32, 498, 0
ATT, 0.00, -0.25, -1.80, -3.43, 0.00, 44.71, 51.92
CTUN, 498, 0.00, 3.31, 0.000000, 0.00, 0, 23, 498, 0
GPS, 3, 110282800, 11, 1.49, -33.7840343, 151.0681954, 3.40, 100.11, 0.51, 27.37
ATT, 0.00, -0.75, 0.00, -2.92, 0.00, 44.92, 51.92
CTUN, 498, 0.00, 3.40, 0.000000, 0.00, 0, 13, 499, 0
ATT, 0.00, -0.25, 0.00, -1.07, 0.00, 44.94, 51.92
CTUN, 499, 0.00, 3.36, 0.000000, 0.00, 0, 2, 499, 0
GPS, 3, 110283000, 11, 1.49, -33.7840336, 151.0681960, 3.41, 100.08, 0.52, 25.66
CTUN, 499, 0.00, 3.30, 0.000000, 0.00, 0, -6, 499, 0
ATT, 0.00, 0.02, 0.00, 0.00, 0.00, 44.91, 51.92
DU32, 7, 82041
CURR, 498, 40699, 1102, 0, 4505, 0.000000
CTUN, 498, 0.00, 3.33, 0.000000, 0.00, 0, -15, 498, 0
ATT, 0.00, -0.96, 0.00, -0.33, 0.00, 44.89, 51.92
GPS, 3, 110283200, 11, 1.49, -33.7840328, 151.0681964, 3.38, 100.03, 0.52, 22.34
CTUN, 499, 0.00, 3.28, 0.000000, 0.00, 0, -26, 498, 0
ATT, 0.00, -1.20, 0.00, -0.46, 0.00, 44.75, 51.92
CTUN, 498, 0.00, 3.25, 0.000000, 0.00, 0, -35, 498, 0
ATT, 0.00, -0.58, 0.00, 0.31, 0.00, 44.63, 51.92
GPS, 3, 110283400, 11, 1.49, -33.7840320, 151.0681966, 3.31, 99.95, 0.53, 16.39
CTUN, 498, 0.00, 3.16, 0.000000, 0.00, 0, -43, 499, 0
ATT, 0.00, -0.16, 0.00, 0.82, 0.00, 44.58, 51.92
CTUN, 499, 0.00, 3.15, 0.000000, 0.00, 0, -52, 498, 0
GPS, 3, 110283600, 11, 1.49, -33.7840311, 151.0681964, 3.21, 99.93, 0.51, 11.32
ATT, 0.00, -0.23, 0.00, 0.61, 0.00, 44.57, 51.92
CTUN, 499, 0.00, 3.09, 0.000000, 0.00, 0, -62, 499, 0
ATT, 0.00, -0.52, 0.00, 0.24, 0.00, 44.57, 51.92
CTUN, 498, 0.00, 2.94, 0.000000, 0.00, 0, -70, 499, 0
GPS, 3, 110283800, 11, 1.49, -33.7840304, 151.0681962, 3.06, 99.87, 0.41, 3.88
ATT, 0.00, -0.40, 0.00, 0.26, 0.00, 44.45, 51.92
CTUN, 498, 0.00, 2.87, 0.000000, 0.00, 0, -77, 498, 0
ATT, 2.06, 0.08, 0.00, 0.56, 0.00, 44.17, 51.92
CTUN, 498, 0.00, 2.84, 0.000000, 0.00, 0, -84, 498, 0
GPS, 3, 110284000, 11, 1.49, -33.7840296, 151.0681957, 2.88, 99.72, 0.48, 350.54
CTUN, 505, 0.00, 2.82, 0.000000, 0.00, 0, -92, 505, 0
ATT, 3.78, 1.47, 0.00, 0.08, 0.00, 43.84, 51.92
DU32, 7, 82041
CURR, 519, 45206, 1102, 0, 4469, 0.000000
CTUN, 522, 0.00, 2.74, 0.000000, 0.00, 0, -97, 519, 0
ATT, 0.00, 2.61, 0.00, 0.87, 0.00, 43.60, 51.92
GPS, 3, 110284200, 11, 1.49, -33.7840291, 151.0681951, 2.69, 99.53, 0.42, 341.72
CTUN, 539, 0.00, 2.66, 0.000000, 0.00, 0, -100, 539, 0
ATT, 0.00, 1.36, 0.00, 0.83, 0.00, 43.48, 51.92
CTUN, 565, 0.00, 2.39, 0.000000, 0.00, 0, -102, 565, 0
ATT, 0.00, 0.56, 0.00, 0.62, 0.00, 43.40, 51.92
GPS, 3, 110284400, 11, 1.49, -33.7840287, 151.0681943, 2.49, 99.39, 0.40, 324.25
CTUN, 565, 0.00, 2.38, 0.000000, 0.00, 0, -98, 565, 0
ATT, 0.00, 0.81, 0.00, 0.90, 0.00, 43.35, 51.92
CTUN, 566, 0.00, 2.19, 0.000000, 0.00, 0, -93, 566, 0
GPS, 3, 110284600, 10, 1.71, -33.7840284, 151.0681936, 2.28, 99.18, 0.36, 317.89
ATT, 0.00, 1.05, 0.00, 1.21, 0.00, 43.44, 51.92
CTUN, 569, 0.00, 2.13, 0.000000, 0.00, 0, -88, 569, 0
ATT, 0.00, 0.87, 0.00, 1.22, 0.00, 43.64, 51.92
CTUN, 583, 0.00, 1.95, 0.000000, 0.00, 0, -85, 581, 0
GPS, 3, 110284800, 10, 1.71, -33.7840283, 151.0681925, 2.09, 99.00, 0.42, 293.17
ATT, 0.00, 1.31, 0.00, 1.00, 0.00, 44.06, 51.92
CTUN, 584, 0.00, 1.93, 0.000000, 0.00, 0, -79, 584, 0
ATT, 0.00, 0.88, 0.00, 0.35, 0.00, 44.64, 51.92
CTUN, 583, 0.00, 1.79, 0.000000, 0.00, 0, -71, 583, 0
GPS, 3, 110285000, 11, 1.49, -33.7840283, 151.0681915, 1.93, 98.89, 0.41, 282.44
CTUN, 584, 0.00, 1.66, 0.000000, 0.00, 0, -64, 584, 0
ATT, 0.00, 0.03, 0.00, -0.44, 0.00, 45.44, 51.92
DU32, 7, 82041
CURR, 583, 50328, 1102, 0, 4487, 0.000000
CTUN, 584, 0.00, 1.66, 0.000000, 0.00, 0, -55, 584, 0
ATT, 0.00, 0.48, 0.00, -0.51, 0.00, 45.82, 51.92
GPS, 3, 110285200, 11, 1.49, -33.7840287, 151.0681902, 1.78, 98.72, 0.57, 259.50
CTUN, 584, 0.00, 1.62, 0.000000, 0.00, 0, -48, 584, 0
ATT, 0.00, 0.78, 0.00, -0.94, 0.00, 45.97, 51.92
CTUN, 584, 0.00, 1.63, 0.000000, 0.00, 0, -41, 584, 0
ATT, 0.00, 1.14, 0.00, -1.12, 0.00, 45.95, 51.92
GPS, 3, 110285400, 11, 1.49, -33.7840291, 151.0681889, 1.68, 98.55, 0.59, 254.20
CTUN, 589, 0.00, 1.57, 0.000000, 0.00, 0, -34, 588, 0
ATT, 0.00, 1.72, 0.00, -1.45, 0.00, 45.87, 51.92
CTUN, 588, 0.00, 1.41, 0.000000, 0.00, 0, -27, 588, 0
GPS, 3, 110285600, 10, 1.71, -33.7840296, 151.0681876, 1.61, 98.38, 0.59, 249.02
ATT, 0.00, 1.83, 0.00, -1.16, 0.00, 45.76, 51.92
CTUN, 589, 0.00, 1.41, 0.000000, 0.00, 0, -19, 588, 0
ATT, 0.00, 1.69, -3.25, -0.72, 0.00, 45.61, 51.92
CTUN, 588, 0.00, 1.49, 0.000000, 0.00, 0, -11, 588, 0
GPS, 3, 110285800, 10, 1.71, -33.7840301, 151.0681865, 1.55, 98.22, 0.52, 245.08
ATT, 0.00, 1.58, -4.82, -2.08, 0.00, 45.49, 51.92
CTUN, 588, 0.00, 1.47, 0.000000, 0.00, 0, -3, 588, 0
ATT, 0.00, 0.86, -6.63, -3.49, 0.00, 45.52, 51.92
CTUN, 588, 0.00, 1.50, 0.000000, 0.00, 0, 5, 588, 0
GPS, 3, 110286000, 10, 1.71, -33.7840308, 151.0681853, 1.55, 98.27, 0.61, 234.78
CTUN, 588, 0.00, 1.51, 0.000000, 0.00, 1, 14, 589, 0
ATT, 0.00, 0.56, -6.75, -5.48, 0.00, 45.60, 51.92
DU32, 7, 82041
CURR, 588, 55614, 1102, 0, 4505, 0.000000
CTUN, 588, 0.00, 1.40, 0.000000, 0.00, 2, 20, 590, 0
ATT, 0.00, 0.32, -5.54, -6.37, 0.00, 45.79, 51.92
GPS, 3, 110286200, 10, 1.71, -33.7840319, 151.0681847, 1.57, 98.20, 0.63, 216.53
CTUN, 588, 0.00, 1.45, 0.000000, 0.00, 2, 27, 590, 0
ATT, 0.00, 0.24, -3.25, -6.29, 0.00, 46.08, 51.92
CTUN, 588, 0.00, 1.51, 0.000000, 0.00, 2, 34, 590, 0
ATT, 0.00, 0.74, -3.86, -4.99, 0.00, 46.38, 51.92
GPS, 3, 110286400, 10, 1.71, -33.7840323, 151.0681837, 1.62, 98.18, 0.46, 221.56
CTUN, 576, 0.00, 1.55, 0.000000, 0.00, 1, 41, 577, 0
ATT, 0.34, 1.05, -4.82, -4.65, 0.00, 46.79, 51.92
CTUN, 572, 0.00, 1.63, 0.000000, 0.00, 1, 45, 573, 0
GPS, 3, 110286600, 10, 1.71, -33.7840328, 151.0681833, 1.70, 98.27, 0.34, 211.56
ATT, 1.37, 0.69, -5.54, -5.27, 0.00, 47.30, 51.92
CTUN, 572, 0.00, 1.55, 0.000000, 0.00, 2, 49, 574, 0
ATT, 0.57, 0.73, -6.03, -5.81, 0.00, 47.62, 51.92
CTUN, 571, 0.00, 1.65, 0.000000, 0.00, 2, 50, 574, 0
GPS, 3, 110286800, 10, 1.71, -33.7840331, 151.0681833, 1.78, 98.40, 0.27, 211.56
ATT, 0.00, 0.70, -7.11, -5.89, 0.00, 47.81, 51.92
CTUN, 572, 0.00, 1.79, 0.000000, 0.00, 2, 53, 574, 0
ATT, 0.00, 0.50, -7.60, -6.13, 0.00, 47.70, 51.92
CTUN, 572, 0.00, 1.82, 0.000000, 0.00, 2, 57, 574, 0
GPS, 3, 110287000, 10, 1.71, -33.7840334, 151.0681833, 1.89, 98.50, 0.19, 211.56
CTUN, 571, 0.00, 1.84, 0.000000, 0.00, 2, 60, 573, 0
ATT, 0.00, 0.53, -7.11, -6.49, 0.00, 47.25, 51.92
DU32, 7, 82041
CURR, 572, 60827, 1102, 0, 4523, 0.000000
CTUN, 572, 0.00, 1.86, 0.000000, 0.00, 2, 65, 574, 0
ATT, 0.00, 0.63, -6.15, -6.42, 0.00, 46.58, 51.92
GPS, 3, 110287200, 10, 1.71, -33.7840335, 151.0681836, 2.00, 98.65, 0.22, 211.56
CTUN, 572, 0.00, 2.03, 0.000000, 0.00, 2, 71, 574, 0
ATT, 0.00, 0.73, -3.13, -5.36, 0.00, 45.68, 51.92
CTUN, 572, 0.00, 2.04, 0.000000, 0.00, 1, 76, 572, 0
ATT, 0.00, 1.36, 0.00, -3.98, 0.00, 45.03, 51.92
GPS, 3, 110287400, 10, 1.71, -33.7840336, 151.0681845, 2.15, 98.71, 0.35, 141.86
CTUN, 572, 0.00, 2.08, 0.000000, 0.00, 0, 81, 572, 0
ATT, 0.00, 1.21, 0.00, -1.82, 3.27, 44.88, 52.57
CTUN, 571, 0.00, 2.17, 0.000000, 0.00, 0, 85, 571, 0
GPS, 3, 110287600, 10, 1.71, -33.7840336, 151.0681853, 2.30, 98.81, 0.41, 108.52
ATT, 0.00, 1.32, 0.00, 0.00, 12.73, 45.72, 55.72
CTUN, 571, 0.00, 2.31, 0.000000, 0.00, 0, 91, 571, 0
ATT, 0.00, 1.21, 0.00, 0.92, 9.94, 48.30, 58.30
CTUN, 573, 0.00, 2.35, 0.000000, 0.00, 0, 100, 573, 0
GPS, 3, 110287800, 10, 1.71, -33.7840338, 151.0681861, 2.48, 98.97, 0.41, 107.92
ATT, 0.00, 1.04, 0.00, 1.24, 9.33, 52.73, 62.73
CTUN, 572, 0.00, 2.40, 0.000000, 0.00, 0, 102, 572, 0
ATT, 0.00, 0.15, 0.00, 0.06, 3.88, 56.76, 65.84
CTUN, 572, 0.00, 2.58, 0.000000, 0.00, 0, 103, 572, 0
GPS, 3, 110288000, 9, 1.78, -33.7840341, 151.0681868, 2.68, 99.11, 0.35, 114.70
CTUN, 551, 0.00, 2.68, 0.000000, 0.00, 0, 104, 566, 0
ATT, 0.00, -0.21, 0.00, -1.61, 0.00, 60.27, 66.04
DU32, 7, 82041
CURR, 551, 65956, 1102, 0, 4487, 0.000000
CTUN, 552, 0.00, 2.91, 0.000000, 0.00, 0, 103, 552, 0
ATT, 0.00, -0.38, 0.00, -1.74, 0.00, 61.79, 66.04
GPS, 3, 110288200, 10, 1.57, -33.7840345, 151.0681872, 2.88, 99.30, 0.33, 121.79
CTUN, 547, 0.00, 2.91, 0.000000, 0.00, 0, 98, 547, 0
ATT, 0.00, -0.18, 0.00, -1.65, 0.00, 62.78, 66.04
CTUN, 507, 0.00, 2.97, 0.000000, 0.00, 0, 96, 507, 0
ATT, 0.00, -0.24, 0.00, -1.46, 0.00, 62.84, 66.04
GPS, 3, 110288400, 11, 1.49, -33.7840349, 151.0681877, 3.07, 99.48, 0.32, 126.37
CTUN, 458, 0.00, 2.95, 0.000000, 0.00, 0, 89, 458, 0
ATT, 0.00, -0.65, 0.00, -1.35, 0.00, 62.10, 66.04
CTUN, 457, 0.00, 3.17, 0.000000, 0.00, 0, 72, 457, 0
GPS, 3, 110288600, 11, 1.49, -33.7840354, 151.0681884, 3.22, 99.64, 0.37, 127.14
ATT, 0.00, -0.72, 0.00, -1.02, 0.00, 61.22, 66.04
CTUN, 458, 0.00, 3.20, 0.000000, 0.00, 0, 53, 458, 0
ATT, 0.00, -0.35, 0.00, -0.47, 0.00, 60.65, 66.04
CTUN, 458, 0.00, 3.45, 0.000000, 0.00, 0, 34, 458, 0
GPS, 3, 110288800, 10, 1.71, -33.7840358, 151.0681889, 3.31, 99.74, 0.34, 128.64
ATT, 0.00, 0.04, 0.00, 0.12, 0.00, 60.24, 66.04
CTUN, 457, 0.00, 3.35, 0.000000, 0.00, 0, 15, 458, 0
ATT, 0.00, 0.19, 0.00, 0.46, 0.00, 60.03, 66.04
CTUN, 458, 0.00, 3.30, 0.000000, 0.00, 0, -1, 458, 0
GPS, 3, 110289000, 9, 1.77, -33.7840360, 151.0681895, 3.33, 99.81, 0.32, 120.67
ATT, 0.00, 0.01, 0.00, 0.31, 0.00, 60.05, 66.04
CTUN, 458, 0.00, 3.33, 0.000000, 0.00, 0, -20, 458, 0
DU32, 7, 82041
CURR, 458, 70258, 1102, 0, 4487, 0.000000
ATT, 0.00, -0.03, 0.00, -0.08, 0.00, 60.30, 66.04
CTUN, 458, 0.00, 3.27, 0.000000, 0.00, 0, -39, 458, 0
GPS, 3, 110289200, 11, 1.49, -33.7840365, 151.0681896, 3.27, 99.79, 0.27, 120.67
CTUN, 458, 0.00, 3.26, 0.000000, 0.00, 0, -57, 458, 0
ATT, 0.00, 0.49, 0.00, -1.28, 0.00, 60.86, 66.04
CTUN, 458, 0.00, 3.17, 0.000000, 0.00, 0, -76, 458, 0
ATT, 0.00, 0.88, 0.00, -1.97, 0.00, 61.46, 66.04
GPS, 3, 110289400, 11, 1.49, -33.7840370, 151.0681895, 3.14, 99.69, 0.23, 120.67
CTUN, 458, 0.00, 3.19, 0.000000, 0.00, 0, -94, 458, 0
ATT, 0.00, 1.40, 0.00, -2.08, 0.00, 62.12, 66.04
CTUN, 458, 0.00, 3.13, 0.000000, 0.00, 0, -114, 458, 0
ATT, 0.00, 1.61, 0.00, -1.96, 0.00, 62.57, 66.04
GPS, 3, 110289600, 11, 1.49, -33.7840376, 151.0681897, 2.94, 99.40, 0.24, 120.67
CTUN, 479, 0.00, 2.88, 0.000000, 0.00, 0, -135, 479, 0
ATT, 0.00, 1.27, 0.00, -1.78, 0.00, 62.71, 66.04
CTUN, 519, 0.00, 2.79, 0.000000, 0.00, 0, -154, 512, 0
GPS, 3, 110289800, 11, 1.49, -33.7840384, 151.0681897, 2.66, 99.14, 0.32, 151.03
ATT, 0.00, 0.86, 0.00, -2.30, 0.00, 62.26, 66.04
CTUN, 575, 0.00, 2.65, 0.000000, 0.00, 0, -165, 575, 0
ATT, 0.00, 0.11, 0.00, -2.39, 0.00, 61.69, 66.04
CTUN, 578, 0.00, 2.37, 0.000000, 0.00, 0, -166, 578, 0
GPS, 3, 110290000, 11, 1.49, -33.7840390, 151.0681899, 2.33, 98.82, 0.24, 156.15
ATT, 0.00, -0.39, 0.00, -0.98, 0.00, 60.80, 66.04
CTUN, 591, 0.00, 2.18, 0.000000, 0.00, 0, -160, 591, 0
DU32, 7, 82041
CURR, 602, 74820, 1102, 0, 4487, 0.000000
ATT, 0.00, -0.45, 0.00, 0.80, 0.00, 60.04, 66.04
CTUN, 606, 0.00, 2.02, 0.000000, 0.00, 0, -151, 606, 0
GPS, 3, 110290200, 11, 1.49, -33.7840397, 151.0681896, 2.02, 98.45, 0.39, 187.42
CTUN, 609, 0.00, 1.85, 0.000000, 0.00, 0, -139, 606, 0
ATT, 0.00, -0.98, 0.00, 2.57, 0.00, 59.29, 66.04
CTUN, 629, 0.00, 1.66, 0.000000, 0.00, 0, -126, 629, 0
ATT, 0.00, -1.77, 0.00, 2.97, 0.00, 58.83, 66.04
GPS, 3, 110290400, 11, 1.49, -33.7840405, 151.0681897, 1.74, 98.20, 0.37, 177.60
CTUN, 638, 0.00, 1.66, 0.000000, 0.00, 0, -110, 633, 0
ATT, 0.00, -1.80, 0.00, 2.37, 0.00, 58.58, 66.04
CTUN, 638, 0.00, 1.56, 0.000000, 0.00, 0, -92, 638, 0
ATT, 0.00, -1.23, 0.00, 1.18, 0.00, 58.60, 66.04
GPS, 3, 110290600, 11, 1.49, -33.7840414, 151.0681894, 1.53, 97.95, 0.46, 187.47
CTUN, 638, 0.00, 1.50, 0.000000, 0.00, 0, -73, 639, 0
ATT, 0.00, -1.17, 0.00, 0.69, 0.00, 58.93, 66.04
CTUN, 639, 0.00, 1.39, 0.000000, 0.00, 0, -56, 639, 0
GPS, 3, 110290800, 11, 1.49, -33.7840421, 151.0681884, 1.40, 97.86, 0.50, 205.32
ATT, 0.00, -1.07, 0.00, 0.79, 0.00, 59.33, 66.04
CTUN, 639, 0.00, 1.39, 0.000000, 0.00, 0, -37, 639, 0
ATT, -0.23, -1.02, -0.12, 0.87, 0.00, 59.59, 66.04
CTUN, 638, 0.00, 1.30, 0.000000, 0.00, 0, -19, 639, 0
GPS, 3, 110291000, 11, 1.49, -33.7840430, 151.0681875, 1.34, 97.72, 0.58, 211.80
ATT, 0.00, -0.74, -1.93, 0.48, 0.00, 59.61, 66.04
CTUN, 639, 0.00, 1.34, 0.000000, 0.00, 0, -5, 639, 0
DU32, 7, 82041
CURR, 638, 80507, 1102, 0, 4469, 0.000000
ATT, 0.00, -0.75, -3.73, -0.83, 0.00, 59.55, 66.04
CTUN, 639, 0.00, 1.23, 0.000000, 0.00, 0, 10, 639, 0
GPS, 3, 110291200, 11, 1.49, -33.7840438, 151.0681863, 1.34, 97.65, 0.61, 219.21
CTUN, 640, 0.00, 1.31, 0.000000, 0.00, 0, 24, 639, 0
ATT, 0.00, -0.20, -3.61, -2.61, 0.00, 59.31, 66.04
CTUN, 639, 0.00, 1.25, 0.000000, 0.00, 0, 38, 639, 0
ATT, 0.00, -0.80, -1.56, -3.32, 0.00, 59.19, 66.04
GPS, 3, 110291400, 11, 1.49, -33.7840446, 151.0681848, 1.40, 97.58, 0.73, 226.13
CTUN, 639, 0.00, 1.43, 0.000000, 0.00, 0, 53, 639, 0
ATT, 0.00, -0.79, 0.00, -2.58, 0.00, 59.02, 66.04
CTUN, 638, 0.00, 1.51, 0.000000, 0.00, 0, 68, 638, 0
ATT, 0.00, 0.51, 0.00, -2.02, 0.00, 58.55, 66.04
GPS, 3, 110291600, 11, 1.49, -33.7840456, 151.0681838, 1.51, 97.55, 0.65, 221.60
CTUN, 639, 0.00, 1.54, 0.000000, 0.00, 0, 83, 638, 0
ATT, 0.00, 1.06, 0.00, -1.10, 0.00, 58.10, 66.04
CTUN, 639, 0.00, 1.63, 0.000000, 0.00, 0, 100, 639, 0
PM, 0, 0, 50, 0, 1000, 10432, 0, 4
GPS, 3, 110291800, 11, 1.49, -33.7840460, 151.0681821, 1.69, 97.84, 0.63, 228.84
ATT, 0.00, 1.61, -5.18, -1.14, 0.00, 57.85, 66.04
CTUN, 613, 0.00, 1.72, 0.000000, 0.00, 0, 113, 613, 0
ATT, 0.00, 2.06, -8.80, -3.19, 0.00, 57.98, 66.04
CTUN, 581, 0.00, 1.84, 0.000000, 0.00, 1, 125, 600, 0
GPS, 3, 110292000, 11, 1.49, -33.7840468, 151.0681806, 1.93, 98.08, 0.66, 230.01
ATT, -0.93, 1.24, -10.97, -6.98, 0.00, 58.52, 66.04
CTUN, 519, 0.00, 1.91, 0.000000, 0.00, 3, 128, 522, 0
ATT, -2.21, 0.74, -12.42, -9.62, 0.00, 59.05, 66.04
CTUN, 519, 0.00, 1.98, 0.000000, 0.00, 5, 123, 524, 0
DU32, 7, 82041
CURR, 519, 86078, 1102, 0, 4505, 0.000000
GPS, 3, 110292200, 11, 1.49, -33.7840479, 151.0681796, 2.17, 98.26, 0.68, 223.12
CTUN, 519, 0.00, 2.37, 0.000000, 0.00, 7, 115, 526, 0
ATT, -5.71, -0.38, -13.75, -11.64, 0.00, 59.90, 66.04
CTUN, 519, 0.00, 2.40, 0.000000, 0.00, 10, 104, 529, 0
ATT, -3.84, -2.47, -13.75, -13.06, 0.00, 60.59, 66.04
GPS, 3, 110292400, 11, 1.49, -33.7840486, 151.0681789, 2.39, 98.53, 0.45, 217.33
CTUN, 520, 0.00, 2.35, 0.000000, 0.00, 13, 93, 533, 0
ATT, -3.49, -3.50, -10.73, -14.31, 0.00, 61.24, 66.04
CTUN, 519, 0.00, 2.52, 0.000000, 0.00, 11, 84, 530, 0
ATT, -2.79, -3.07, -6.75, -11.77, 0.00, 61.40, 66.04
GPS, 3, 110292600, 10, 1.52, -33.7840493, 151.0681789, 2.57, 98.67, 0.37, 202.24
CTUN, 530, 0.00, 2.62, 0.000000, 0.00, 6, 75, 535, 0
ATT, -7.92, -2.60, -0.12, -7.62, 0.00, 61.40, 66.04
CTUN, 534, 0.00, 2.76, 0.000000, 0.00, 2, 68, 536, 0
GPS, 3, 110292800, 10, 1.52, -33.7840496, 151.0681794, 2.71, 98.85, 0.31, 152.74
ATT, -8.74, -5.22, 0.00, -2.40, 0.00, 61.42, 66.04
CTUN, 534, 0.00, 2.80, 0.000000, 0.00, 1, 60, 535, 0
ATT, -9.67, -6.32, 0.00, -0.48, 0.00, 61.40, 66.04
CTUN, 534, 0.00, 2.91, 0.000000, 0.00, 2, 54, 536, 0
GPS, 3, 110293000, 11, 1.49, -33.7840498, 151.0681806, 2.83, 98.89, 0.47, 113.08
ATT, -9.67, -7.46, 0.00, 0.30, 0.00, 61.27, 66.04
CTUN, 536, 0.00, 2.93, 0.000000, 0.00, 3, 47, 537, 0
ATT, -9.20, -8.13, -3.61, 0.01, 0.00, 61.06, 66.04
CTUN, 534, 0.00, 2.98, 0.000000, 0.00, 4, 41, 538, 0
GPS, 3, 110293200, 11, 1.49, -33.7840497, 151.0681817, 2.93, 98.91, 0.49, 95.30
DU32, 7, 82041
CURR, 536, 91406, 1102, 0, 4505, 0.000000
ATT, -7.57, -8.44, -4.94, -1.69, 0.00, 60.86, 66.04
CTUN, 534, 0.00, 3.04, 0.000000, 0.00, 4, 36, 538, 0
ATT, -6.41, -7.64, -5.18, -2.73, 0.00, 60.58, 66.04
CTUN, 534, 0.00, 3.07, 0.000000, 0.00, 4, 31, 538, 0
GPS, 3, 110293400, 12, 1.38, -33.7840490, 151.0681823, 3.01, 98.95, 0.47, 68.16
CTUN, 534, 0.00, 3.12, 0.000000, 0.00, 3, 24, 537, 0
ATT, -3.73, -6.13, -6.15, -3.50, 0.00, 60.36, 66.04
CTUN, 534, 0.00, 3.25, 0.000000, 0.00, 2, 19, 536, 0
ATT, 0.00, -4.43, -6.99, -4.08, 0.00, 60.23, 66.04
GPS, 3, 110293600, 11, 1.49, -33.7840480, 151.0681828, 3.07, 98.87, 0.63, 32.04
CTUN, 534, 0.00, 3.18, 0.000000, 0.00, 1, 16, 535, 0
ATT, 0.00, -1.47, -8.08, -4.87, 0.00, 59.99, 66.04
CTUN, 534, 0.00, 3.21, 0.000000, 0.00, 1, 13, 535, 0
ATT, 0.00, 0.14, -9.28, -5.46, 0.00, 59.89, 66.04
GPS, 3, 110293800, 10, 1.57, -33.7840468, 151.0681834, 3.11, 98.85, 0.73, 23.59
CTUN, 534, 0.00, 3.23, 0.000000, 0.00, 2, 7, 536, 0
ATT, 0.00, 0.49, -9.41, -6.37, 0.00, 59.95, 66.04
CTUN, 534, 0.00, 3.20, 0.000000, 0.00, 3, 3, 537, 0
ATT, 0.00, 0.80, -9.04, -7.42, 0.00, 60.15, 66.04
GPS, 3, 110294000, 11, 1.49, -33.7840455, 151.0681840, 3.13, 98.81, 0.83, 19.84
CTUN, 534, 0.00, 3.23, 0.000000, 0.00, 3, -1, 537, 0
ATT, 0.00, 1.09, -8.68, -7.61, 0.00, 60.47, 66.04
CTUN, 534, 0.00, 3.21, 0.000000, 0.00, 3, -5, 537, 0
GPS, 3, 110294200, 11, 1.49, -33.7840442, 151.0681847, 3.14, 98.81, 0.81, 23.57
ATT, 0.00, 0.96, -7.72, -7.24, 0.00, 60.91, 66.04
DU32, 7, 82041
CURR, 540, 96233, 1102, 0, 4487, 0.000000
CTUN, 542, 0.00, 3.28, 0.000000, 0.00, 3, -8, 543, 0
ATT, 0.00, 0.57, -6.03, -6.77, 0.00, 61.31, 66.04
CTUN, 549, 0.00, 3.14, 0.000000, 0.00, 2, -12, 551, 0
GPS, 3, 110294400, 12, 1.38, -33.7840429, 151.0681857, 3.13, 98.80, 0.92, 27.64
ATT, 0.00, 0.10, -4.34, -5.32, 0.00, 61.71, 66.04
CTUN, 561, 0.00, 3.22, 0.000000, 0.00, 1, -15, 562, 0
ATT, 0.00, -0.24, -3.86, -4.18, 0.00, 62.01, 66.04
CTUN, 575, 0.00, 3.16, 0.000000, 0.00, 1, -15, 570, 0
GPS, 3, 110294600, 12, 1.38, -33.7840416, 151.0681872, 3.10, 98.72, 0.97, 35.39
ATT, 0.00, -0.55, -1.56, -2.81, 0.00, 62.30, 66.04
CTUN, 583, 0.00, 3.05, 0.000000, 0.00, 0, -15, 583, 0
ATT, 0.00, -0.39, 0.00, -1.00, 0.00, 62.32, 66.04
CTUN, 590, 0.00, 3.22, 0.000000, 0.00, 0, -10, 590, 0
GPS, 3, 110294800, 12, 1.38, -33.7840404, 151.0681883, 3.08, 98.73, 0.93, 37.82
CTUN, 588, 0.00, 3.22, 0.000000, 0.00, 0, -3, 588, 0
ATT, 0.00, -0.41, 0.00, 0.53, 0.00, 62.16, 66.04
CTUN, 590, 0.00, 3.23, 0.000000, 0.00, 0, 3, 590, 0
ATT, 0.00, -0.30, 0.00, 1.20, 0.00, 61.99, 66.04
GPS, 3, 110295000, 12, 1.38, -33.7840391, 151.0681894, 3.10, 98.73, 0.96, 39.89
CTUN, 592, 0.00, 3.08, 0.000000, 0.00, 0, 7, 590, 0
ATT, 0.00, -0.31, 0.00, 1.55, 0.00, 61.84, 66.04
CTUN, 588, 0.00, 3.19, 0.000000, 0.00, 0, 13, 588, 0
ATT, 0.00, -0.38, 0.00, 1.55, 0.00, 61.77, 66.04
GPS, 3, 110295200, 12, 1.38, -33.7840381, 151.0681909, 3.13, 98.67, 0.89, 43.59
CTUN, 590, 0.00, 3.04, 0.000000, 0.00, 0, 17, 590, 0
DU32, 7, 82041
CURR, 590, 101998, 1102, 0, 4487, 0.000000
ATT, 0.00, -0.61, 0.00, 1.44, 0.00, 61.73, 66.04
CTUN, 588, 0.00, 3.24, 0.000000, 0.00, 0, 22, 588, 0
GPS, 3, 110295400, 12, 1.38, -33.7840370, 151.0681918, 3.16, 98.63, 0.80, 40.20
ATT, 0.00, -0.52, 0.00, 0.79, 0.00, 61.65, 66.04
CTUN, 589, 0.00, 3.15, 0.000000, 0.00, 0, 28, 589, 0
ATT, 0.00, -0.63, 0.00, 0.43, 0.00, 61.53, 66.04
CTUN, 589, 0.00, 3.16, 0.000000, 0.00, 0, 32, 589, 0
GPS, 3, 110295600, 12, 1.38, -33.7840359, 151.0681923, 3.22, 98.66, 0.64, 33.67
ATT, 0.00, -0.65, 0.00, -0.03, 0.00, 61.45, 66.04
CTUN, 589, 0.00, 3.18, 0.000000, 0.00, 0, 38, 589, 0
ATT, 0.00, -0.51, 0.00, -0.12, 0.00, 61.50, 66.04
CTUN, 589, 0.00, 3.16, 0.000000, 0.00, 0, 42, 589, 0
GPS, 3, 110295800, 12, 1.38, -33.7840348, 151.0681924, 3.29, 98.66, 0.63, 20.82
CTUN, 589, 0.00, 3.37, 0.000000, 0.00, 0, 47, 589, 0
ATT, 0.00, -0.32, 0.00, -0.48, 0.00, 61.50, 66.04
CTUN, 589, 0.00, 3.30, 0.000000, 0.00, 0, 51, 589, 0
ATT, 0.00, -0.11, 0.00, -0.79, 0.00, 61.52, 66.04
MODE, ALT_HOLD, 568
GPS, 3, 110296000, 11, 1.49, -33.7840338, 151.0681926, 3.39, 98.68, 0.59, 13.94
CTUN, 591, 0.00, 3.41, 3.920000, 0.00, 0, 56, 585, 0
ATT, 0.00, 0.23, 0.00, -0.85, 0.00, 61.45, 66.04
CTUN, 588, 0.00, 3.51, 3.920000, 0.00, 0, 59, 532, 0
ATT, 0.00, 0.47, 0.00, -1.01, 0.00, 61.31, 66.04
GPS, 3, 110296200, 11, 1.49, -33.7840328, 151.0681925, 3.50, 98.81, 0.57, 3.66
CTUN, 590, 0.00, 3.62, 3.920000, 0.00, 0, 57, 511, 0
DU32, 7, 82041
CURR, 589, 107180, 1102, 0, 4523, 0.000000
ATT, 7.46, 0.71, 0.00, -0.86, 0.00, 61.24, 66.04
CTUN, 590, 0.00, 3.74, 3.920000, 0.00, 0, 47, 512, 0
ATT, 15.15, 2.92, 0.00, -1.39, 0.00, 61.32, 66.04
GPS, 3, 110296400, 11, 1.49, -33.7840316, 151.0681922, 3.62, 98.90, 0.69, 355.49
CTUN, 588, 0.00, 3.67, 3.920000, 0.00, 3, 38, 506, 0
ATT, 21.00, 9.85, 0.00, -0.97, 0.00, 61.23, 66.04
CTUN, 588, 0.00, 3.81, 3.920000, 0.00, 9, 30, 519, 0
GPS, 3, 110296600, 10, 1.56, -33.7840308, 151.0681919, 3.70, 98.99, 0.50, 349.26
ATT, 21.69, 16.05, 0.00, 0.06, 0.00, 61.21, 66.04
CTUN, 588, 0.00, 3.82, 3.920000, 0.00, 16, 21, 537, 0
ATT, 15.84, 16.83, 0.00, 0.11, 0.00, 61.14, 66.04
CTUN, 590, 0.00, 3.83, 3.920000, 0.00, 18, 16, 548, 0
GPS, 3, 110296800, 11, 1.49, -33.7840304, 151.0681917, 3.75, 98.99, 0.27, 346.65
ATT, 19.40, 15.64, 0.00, 0.12, 0.00, 60.76, 66.04
CTUN, 589, 0.00, 3.81, 3.920000, 0.00, 15, 11, 557, 0
ATT, 15.61, 16.68, 0.00, 0.22, 0.00, 60.14, 66.04
CTUN, 588, 0.00, 3.79, 3.920000, 0.00, 17, 11, 544, 0
GPS, 3, 110297000, 10, 1.56, -33.7840310, 151.0681916, 3.78, 99.00, 0.31, 261.57
ATT, 0.00, 14.73, 0.00, 1.43, 0.00, 59.51, 66.04
CTUN, 588, 0.00, 3.92, 3.920000, 0.00, 14, 11, 555, 0
ATT, 0.00, 7.26, 0.00, 2.03, 0.00, 58.98, 66.04
CTUN, 589, 0.00, 3.89, 3.920000, 0.00, 3, 12, 532, 0
GPS, 3, 110297200, 10, 1.56, -33.7840325, 151.0681916, 3.81, 99.01, 0.82, 197.33
CTUN, 589, 0.00, 3.78, 3.920000, 0.00, 0, 11, 526, 0
ATT, 0.00, 2.32, 0.00, -1.08, 0.00, 58.00, 66.04
CTUN, 589, 0.00, 3.90, 3.920000, 0.00, 0, 9, 529, 0
ATT, 0.00, 0.12, 0.00, -0.86, 0.00, 57.51, 66.04
GPS, 3, 110297400, 10, 1.56, -33.7840345, 151.0681917, 3.83, 98.97, 1.07, 186.41
CTUN, 589, 0.00, 3.90, 3.920000, 0.00, 0, 8, 523, 0
DU32, 7, 82041
CURR, 589, 113019, 1102, 0, 4505, 0.000000
ATT, 0.00, 0.77, 0.00, 0.06, 0.00, 57.42, 66.04
CTUN, 589, 0.00, 3.79, 3.920000, 0.00, 0, 4, 534, 0
ATT, 0.00, 0.26, 0.00, -0.53, 0.00, 57.84, 66.04
GPS, 3, 110297600, 11, 1.49, -33.7840369, 151.0681915, 3.85, 98.98, 1.33, 182.96
CTUN, 588, 0.00, 3.89, 3.920000, 0.00, 0, 3, 547, 0
ATT, 0.00, -0.49, 0.00, -0.92, 0.00, 58.57, 66.04
CTUN, 589, 0.00, 3.89, 3.920000, 0.00, 0, 2, 544, 0
ATT, -4.43, -0.13, 0.00, -0.58, 0.00, 59.33, 66.04
GPS, 3, 110297800, 10, 1.52, -33.7840391, 151.0681914, 3.86, 98.98, 1.19, 182.64
CTUN, 588, 0.00, 3.89, 3.920000, 0.00, 0, 0, 557, 0
ATT, -4.89, -1.05, -0.12, -0.01, 0.00, 60.06, 66.04
CTUN, 589, 0.00, 3.90, 3.920000, 0.00, 0, 0, 563, 0
ATT, -7.46, -3.37, -2.89, -1.09, 0.00, 60.87, 66.04
GPS, 3, 110298000, 10, 1.56, -33.7840414, 151.0681915, 3.86, 98.93, 1.23, 182.06
CTUN, 588, 0.00, 3.92, 3.920000, 0.00, 1, 0, 557, 0
ATT, -14.57, -5.88, -0.12, -2.04, 0.00, 61.63, 66.04
CTUN, 588, 0.00, 3.84, 3.920000, 0.00, 5, 0, 571, 0
GPS, 3, 110298200, 12, 1.38, -33.7840436, 151.0681915, 3.87, 98.94, 1.23, 182.14
ATT, -13.75, -11.34, -1.20, -2.26, 0.00, 62.19, 66.04
CTUN, 588, 0.00, 3.77, 3.920000, 0.00, 8, 0, 581, 0
ATT, -14.10, -11.13, -0.12, -2.75, 0.00, 62.18, 66.04
CTUN, 588, 0.00, 3.87, 3.920000, 0.00, 9, 0, 586, 0
GPS, 3, 110298400, 11, 1.45, -33.7840452, 151.0681915, 3.86, 98.85, 0.85, 183.41
ATT, -10.25, -10.75, 0.00, -2.91, 0.00, 61.87, 66.04
CTUN, 588, 0.00, 3.93, 3.920000, 0.00, 7, 1, 572, 0
DU32, 7, 82041
CURR, 589, 118620, 1102, 0, 4469, 0.000000
ATT, -8.39, -9.45, 0.00, -3.17, 0.00, 61.69, 66.04
CTUN, 588, 0.00, 3.84, 3.920000, 0.00, 3, 1, 567, 0
GPS, 3, 110298600, 12, 1.38, -33.7840463, 151.0681914, 3.87, 98.79, 0.58, 185.04
ATT, -4.89, -5.76, 0.00, -1.18, 0.00, 61.42, 66.04
CTUN, 588, 0.00, 3.86, 3.920000, 0.00, 1, 2, 567, 0
ATT, 0.00, -3.68, 0.00, -0.18, 0.00, 61.58, 66.04
CTUN, 588, 0.00, 3.86, 3.920000, 0.00, 0, 2, 576, 0
GPS, 3, 110298800, 12, 1.38, -33.7840469, 151.0681912, 3.87, 98.74, 0.31, 188.92
ATT, 0.00, -1.28, -0.24, -0.64, 0.00, 62.05, 66.04
CTUN, 589, 0.00, 3.86, 3.920000, 0.00, 0, 3, 561, 0
ATT, 0.00, -0.36, -0.72, -0.19, 0.00, 62.59, 66.04
CTUN, 589, 0.00, 3.82, 3.920000, 0.00, 0, 4, 561, 0
GPS, 3, 110299000, 12, 1.38, -33.7840472, 151.0681910, 3.88, 98.70, 0.17, 188.92
ATT, 0.00, 0.71, -3.01, -1.20, 0.00, 63.29, 66.04
CTUN, 589, 0.00, 3.78, 3.920000, 0.00, 0, 2, 569, 0
ATT, 0.00, 0.44, -7.60, -3.02, 0.00, 63.97, 66.04
CTUN, 589, 0.00, 3.94, 3.920000, 0.00, 0, 1, 572, 0
GPS, 3, 110299200, 11, 1.40, -33.7840473, 151.0681906, 3.87, 98.66, 0.15, 188.92
ATT, 0.00, 0.61, -7.96, -6.69, 0.00, 64.58, 66.04
CTUN, 587, 0.00, 3.90, 3.920000, 0.00, 3, 3, 556, 0
ATT, 0.00, -0.02, -7.96, -8.51, 0.00, 65.02, 66.04
CTUN, 589, 0.00, 3.87, 3.920000, 0.00, 4, 3, 569, 0
GPS, 3, 110299400, 12, 1.38, -33.7840477, 151.0681903, 3.88, 98.65, 0.20, 188.92
ATT, -0.11, 1.07, -4.22, -7.63, 0.00, 65.14, 66.04
CTUN, 589, 0.00, 4.00, 3.920000, 0.00, 3, 3, 568, 0
DU32, 7, 82041
CURR, 589, 123736, 1102, 0, 4487, 0.000000
ATT, -3.38, 1.17, -1.68, -5.98, 0.00, 65.34, 66.04
CTUN, 589, 0.00, 3.96, 3.920000, 0.00, 2, 2, 560, 0
GPS, 3, 110299600, 11, 1.49, -33.7840480, 151.0681903, 3.89, 98.67, 0.20, 188.92
ATT, -5.94, -1.08, 0.00, -4.19, 0.00, 65.72, 66.04
CTUN, 589, 0.00, 4.00, 3.920000, 0.00, 1, 3, 557, 0
ATT, -5.59, -3.33, 0.00, -2.63, 0.00, 66.20, 66.04
CTUN, 589, 0.00, 3.92, 3.920000, 0.00, 1, 2, 563, 0
GPS, 3, 110299800, 11, 1.49, -33.7840484, 151.0681908, 3.91, 98.68, 0.29, 160.12
CTUN, 589, 0.00, 3.98, 3.920000, 0.00, 2, 0, 567, 0
ATT, -4.31, -5.24, 0.00, -2.04, 0.00, 66.83, 66.04
CTUN, 589, 0.00, 4.05, 3.920000, 0.00, 1, -1, 570, 0
GPS, 3, 110300000, 11, 1.49, -33.7840487, 151.0681914, 3.92, 98.70, 0.36, 132.81
ATT, -2.21, -4.80, 0.00, -1.25, 0.00, 67.29, 66.04
CTUN, 589, 0.00, 4.05, 3.920000, 0.00, 1, -1, 561, 0
ATT, -0.34, -4.23, 0.00, -1.38, 0.00, 67.61, 66.04
CTUN, 589, 0.00, 3.90, 3.920000, 0.00, 1, -1, 563, 0
GPS, 3, 110300200, 11, 1.49, -33.7840486, 151.0681921, 3.93, 98.65, 0.33, 111.35
ATT, 0.00, -3.42, 0.00, -1.87, 0.00, 67.82, 66.04
CTUN, 588, 0.00, 4.03, 3.920000, 0.00, 0, -2, 560, 0
ATT, 0.00, -2.77, 0.00, -2.00, 0.00, 67.66, 66.04
CTUN, 590, 0.00, 4.00, 3.920000, 0.00, 0, -2, 562, 0
GPS, 3, 110300400, 11, 1.49, -33.7840483, 151.0681926, 3.93, 98.67, 0.35, 90.69
ATT, 0.00, -2.10, 0.00, -2.24, 0.00, 66.90, 66.04
CTUN, 588, 0.00, 3.89, 3.920000, 0.00, 0, -2, 556, 0
DU32, 7, 82041
CURR, 588, 129356, 1102, 0, 4452, 0.000000
ATT, 0.00, -0.94, 0.00, -2.42, 0.00, 65.80, 66.04
CTUN, 588, 0.00, 3.91, 3.920000, 0.00, 0, -3, 567, 0
GPS, 3, 110300600, 11, 1.49, -33.7840478, 151.0681934, 3.93, 98.64, 0.48, 72.43
ATT, 0.00, -0.05, 0.00, -1.47, 0.00, 64.34, 66.04
CTUN, 590, 0.00, 3.74, 3.920000, 0.00, 0, -2, 555, 0
ATT, 0.00, 1.01, 0.00, 0.09, 0.00, 63.07, 66.04
CTUN, 590, 0.00, 3.77, 3.920000, 0.00, 0, -2, 563, 0
GPS, 3, 110300800, 11, 1.49, -33.7840473, 151.0681944, 3.91, 98.62, 0.55, 67.34
ATT, 0.00, 1.52, 0.00, 1.30, 0.00, 61.67, 66.04
CTUN, 588, 0.00, 4.02, 3.920000, 0.00, 0, -1, 561, 0
ATT, 0.00, 1.96, 0.00, 1.67, 0.00, 60.49, 66.04
CTUN, 590, 0.00, 4.00, 3.920000, 0.00, 0, 1, 557, 0
GPS, 3, 110301000, 11, 1.49, -33.7840468, 151.0681952, 3.90, 98.59, 0.45, 62.21
ATT, 0.00, 1.85, 0.00, 2.10, 0.00, 59.60, 66.04
CTUN, 588, 0.00, 4.05, 3.920000, 0.00, 0, 2, 548, 0
ATT, 0.00, 1.97, 0.00, 2.36, 0.00, 59.14, 66.04
CTUN, 591, 0.00, 3.90, 3.920000, 0.00, 0, 1, 546, 0
GPS, 3, 110301200, 11, 1.49, -33.7840466, 151.0681959, 3.92, 98.56, 0.33, 66.22
ATT, 0.00, 1.76, 0.00, 1.81, 0.00, 59.00, 66.04
CTUN, 589, 0.00, 3.87, 3.920000, 0.00, 0, 0, 558, 0
ATT, 0.00, 0.79, 0.00, 0.75, 0.00, 59.13, 66.04
CTUN, 589, 0.00, 3.92, 3.920000, 0.00, 0, -1, 558, 0
GPS, 3, 110301400, 11, 1.49, -33.7840465, 151.0681962, 3.92, 98.56, 0.17, 66.22
ATT, 0.00, 0.76, 0.00, 0.76, 0.00, 59.25, 66.04
CTUN, 589, 0.00, 3.87, 3.920000, 0.00, 0, -2, 561, 0
DU32, 7, 82041
CURR, 589, 134932, 1102, 0, 4487, 0.000000
ATT, 0.00, 1.03, 0.00, 0.57, 0.00, 59.36, 66.04
CTUN, 589, 0.00, 3.85, 3.920000, 0.00, 0, -1, 565, 0
GPS, 3, 110301600, 11, 1.49, -33.7840467, 151.0681964, 3.91, 98.54, 0.11, 66.22
ATT, 0.00, 0.42, 0.00, 0.38, 0.00, 59.45, 66.04
CTUN, 588, 0.00, 3.83, 3.920000, 0.00, 0, -2, 564, 0
ATT, 0.00, 0.52, 0.00, 0.07, 0.00, 59.37, 66.04
CTUN, 589, 0.00, 3.75, 3.920000, 0.00, 0, -2, 559, 0
PM, 0, 0, 50, 14, 1002, 12120, 0, 4
GPS, 3, 110301800, 11, 1.49, -33.7840469, 151.0681964, 3.90, 98.51, 0.15, 66.22
ATT, 0.00, 0.53, 0.00, -0.11, 0.00, 59.17, 66.04
CTUN, 589, 0.00, 3.81, 3.920000, 0.00, 0, -1, 567, 0
ATT, 0.00, 0.18, 0.00, -1.07, 0.00, 58.96, 66.04
CTUN, 589, 0.00, 3.79, 3.920000, 0.00, 0, 0, 562, 0
GPS, 3, 110302000, 11, 1.49, -33.7840474, 151.0681961, 3.88, 98.48, 0.28, 115.33
ATT, 0.00, -0.20, 0.00, -1.86, 0.00, 58.72, 66.04
CTUN, 589, 0.00, 3.74, 3.920000, 0.00, 0, 2, 566, 0
ATT, 0.00, 0.36, 0.00, -1.39, 0.00, 58.38, 66.04
CTUN, 589, 0.00, 3.81, 3.920000, 0.00, 0, 4, 560, 0
GPS, 3, 110302200, 11, 1.49, -33.7840478, 151.0681957, 3.88, 98.46, 0.29, 169.20
ATT, 0.00, 1.09, 0.00, -0.79, 0.00, 57.98, 66.04
CTUN, 589, 0.00, 3.74, 3.920000, 0.00, 0, 5, 563, 0
ATT, -0.93, 0.84, 0.00, -0.53, 0.00, 57.64, 66.04
CTUN, 592, 0.00, 3.78, 3.920000, 0.00, 0, 5, 563, 0
GPS, 3, 110302400, 11, 1.49, -33.7840483, 151.0681954, 3.87, 98.45, 0.35, 197.23
ATT, -2.91, 0.21, 0.00, -0.22, 0.00, 57.40, 66.04
CTUN, 588, 0.00, 3.78, 3.920000, 0.00, 0, 3, 559, 0
ATT, -2.33, -0.89, 0.00, 0.01, 0.00, 57.38, 66.04
CTUN, 589, 0.00, 3.80, 3.920000, 0.00, 0, 2, 562, 0
GPS, 3, 110302600, 11, 1.49, -33.7840488, 151.0681948, 3.87, 98.51, 0.35, 201.40
DU32, 7, 82041
CURR, 589, 140577, 1102, 0, 4523, 0.000000
ATT, -0.69, -0.91, 0.00, -0.01, 0.00, 57.37, 66.04
CTUN, 589, 0.00, 3.85, 3.920000, 0.00, 0, 4, 562, 0
ATT, -1.16, -0.46, -1.08, 0.21, 0.00, 57.40, 66.04
CTUN, 589, 0.00, 3.89, 3.920000, 0.00, 0, 2, 572, 0
GPS, 3, 110302800, 11, 1.49, -33.7840493, 151.0681941, 3.87, 98.51, 0.45, 215.10
ATT, -1.86, -0.40, -1.08, 0.16, 0.00, 57.62, 66.04
CTUN, 589, 0.00, 3.81, 3.920000, 0.00, 0, 3, 570, 0
ATT, -1.04, -1.65, -3.13, -0.34, 0.00, 58.11, 66.04
CTUN, 589, 0.00, 3.79, 3.920000, 0.00, 0, 3, 569, 0
GPS, 3, 110303000, 11, 1.49, -33.7840501, 151.0681935, 3.87, 98.48, 0.54, 214.41
ATT, -1.04, -2.13, -4.46, -0.94, 0.00, 58.62, 66.04
CTUN, 589, 0.00, 3.74, 3.920000, 0.00, 0, 3, 565, 0
ATT, -1.39, -2.10, -6.63, -2.17, 0.00, 59.01, 66.04
CTUN, 588, 0.00, 3.74, 3.920000, 0.00, 0, 3, 569, 0
GPS, 3, 110303200, 11, 1.49, -33.7840509, 151.0681927, 3.87, 98.46, 0.58, 217.96
ATT, -2.21, -2.64, -7.23, -4.51, 0.00, 59.22, 66.04
CTUN, 589, 0.00, 3.75, 3.920000, 0.00, 1, 3, 570, 0
ATT, -4.43, -3.13, -6.51, -5.99, 0.00, 59.23, 66.04
CTUN, 592, 0.00, 3.84, 3.920000, 0.00, 3, 6, 565, 0
GPS, 3, 110303400, 11, 1.49, -33.7840515, 151.0681917, 3.86, 98.47, 0.60, 225.93
ATT, -5.12, -2.96, -6.15, -5.72, 0.00, 58.99, 66.04
CTUN, 589, 0.00, 3.69, 3.920000, 0.00, 2, 6, 567, 0
GPS, 3, 110303600, 11, 1.49, -33.7840520, 151.0681909, 3.86, 98.43, 0.46, 229.13
ATT, -4.54, -3.12, -5.54, -5.51, 0.00, 58.79, 66.04
CTUN, 589, 0.00, 3.76, 3.920000, 0.00, 2, 6, 558, 0
DU32, 7, 82041
CURR, 589, 146250, 1102, 0, 4541, 0.000000
ATT, -4.43, -3.64, -4.82, -5.31, 0.00, 58.54, 66.04
CTUN, 591, 0.00, 3.73, 3.920000, 0.00, 2, 6, 553, 0
GPS, 3, 110303800, 11, 1.49, -33.7840524, 151.0681902, 3.86, 98.43, 0.38, 230.75
ATT, -4.54, -3.92, -5.18, -4.34, 0.00, 58.16, 66.04
CTUN, 589, 0.00, 3.69, 3.920000, 0.00, 2, 4, 569, 0
ATT, -3.96, -3.57, -5.18, -4.24, 0.00, 57.87, 66.04
CTUN, 589, 0.00, 3.88, 3.920000, 0.00, 2, 4, 569, 0
ATT, -3.73, -2.78, -5.18, -4.36, 0.00, 57.56, 66.04
CTUN, 589, 0.00, 3.95, 3.920000, 0.00, 1, 6, 563, 0
GPS, 3, 110304000, 11, 1.49, -33.7840527, 151.0681897, 3.86, 98.38, 0.24, 233.82
ATT, -2.79, -1.70, -5.18, -4.30, 0.00, 57.36, 66.04
CTUN, 587, 0.00, 3.94, 3.920000, 0.00, 1, 3, 572, 0
GPS, 3, 110304200, 11, 1.49, -33.7840528, 151.0681895, 3.88, 98.39, 0.17, 233.82
ATT, -2.79, -0.81, -5.06, -4.60, 0.00, 57.47, 66.04
CTUN, 591, 0.00, 3.84, 3.920000, 0.00, 1, 2, 566, 0
ATT, -2.79, -1.14, -5.18, -5.02, 0.00, 57.95, 66.04
CTUN, 588, 0.00, 3.75, 3.920000, 0.00, 1, 0, 572, 0
GPS, 3, 110304400, 11, 1.49, -33.7840529, 151.0681894, 3.87, 98.40, 0.10, 233.82
ATT, -2.79, -1.93, -5.18, -4.53, 0.00, 58.63, 66.04
CTUN, 589, 0.00, 3.76, 3.920000, 0.00, 1, 0, 570, 0
ATT, -1.98, -2.70, -5.18, -4.04, 0.00, 59.01, 66.04
CTUN, 589, 0.00, 3.70, 3.920000, 0.00, 1, 1, 575, 0
GPS, 3, 110304600, 11, 1.49, -33.7840529, 151.0681894, 3.86, 98.42, 0.04, 233.82
CTUN, 589, 0.00, 3.78, 3.920000, 0.00, 2, 3, 570, 0
DU32, 7, 82041
CURR, 589, 151908, 1102, 0, 4487, 0.000000
ATT, -2.21, -3.26, -4.94, -4.47, 0.00, 59.23, 66.04
CTUN, 590, 0.00, 3.74, 3.920000, 0.00, 2, 4, 573, 0
ATT, -2.68, -3.06, -4.70, -4.69, 0.00, 59.18, 66.04
GPS, 3, 110304800, 11, 1.49, -33.7840528, 151.0681895, 3.86, 98.47, 0.11, 233.82
CTUN, 587, 0.00, 3.73, 3.920000, 0.00, 1, 4, 571, 0
ATT, -2.68, -2.76, -4.22, -4.32, 0.00, 59.07, 66.04
CTUN, 589, 0.00, 3.69, 3.920000, 0.00, 1, 7, 565, 0
ATT, -2.68, -2.47, -4.22, -3.52, 0.00, 58.83, 66.04
GPS, 3, 110305000, 11, 1.49, -33.7840524, 151.0681896, 3.85, 98.53, 0.22, 299.56
CTUN, 589, 0.00, 3.87, 3.920000, 0.00, 1, 8, 550, 0
ATT, -2.44, -2.50, -3.86, -3.39, 0.00, 58.43, 66.04
CTUN, 589, 0.00, 3.79, 3.920000, 0.00, 1, 8, 554, 0
ATT, -0.34, -2.55, -4.10, -3.24, 0.00, 58.16, 66.04
GPS, 3, 110305200, 11, 1.49, -33.7840520, 151.0681897, 3.86, 98.53, 0.21, 335.85
CTUN, 589, 0.00, 3.77, 3.920000, 0.00, 0, 9, 544, 0
ATT, -0.11, -1.94, -4.70, -3.10, 0.00, 58.22, 66.04
CTUN, 587, 0.00, 3.76, 3.920000, 0.00, 0, 7, 550, 0
ATT, 0.00, -1.39, -4.82, -3.08, 0.00, 58.45, 66.04
GPS, 3, 110305400, 11, 1.49, -33.7840516, 151.0681901, 3.87, 98.54, 0.31, 14.24
CTUN, 588, 0.00, 3.72, 3.920000, 0.00, 0, 6, 558, 0
ATT, 0.00, -1.31, -4.94, -3.40, 0.00, 59.02, 66.04
CTUN, 589, 0.00, 3.75, 3.920000, 0.00, 0, 3, 559, 0
ATT, 0.00, -0.76, -4.94, -3.48, 0.00, 59.75, 66.04
GPS, 3, 110305600, 11, 1.49, -33.7840512, 151.0681902, 3.86, 98.56, 0.25, 15.47
CTUN, 589, 0.00, 3.69, 3.920000, 0.00, 0, 0, 574, 0
ATT, 0.00, -0.58, -4.22, -3.91, 0.00, 60.69, 66.04
CTUN, 589, 0.00, 3.84, 3.920000, 0.00, 1, 2, 575, 0
ATT, 0.00, -0.75, -3.98, -4.18, 0.00, 61.39, 66.04
GPS, 3, 110305800, 11, 1.49, -33.7840506, 151.0681904, 3.85, 98.54, 0.35, 18.23
CTUN, 591, 0.00, 3.91, 3.920000, 0.00, 1, 3, 565, 0
DU32, 7, 82041
CURR, 591, 158669, 1102, 0, 4541, 0.000000
ATT, 0.00, -0.73, -3.73, -4.16, 0.00, 61.92, 66.04
CTUN, 589, 0.00, 3.72, 3.920000, 0.00, 1, 3, 575, 0
ATT, 0.00, -0.61, -3.49, -4.18, 0.00, 62.18, 66.04
GPS, 3, 110306000, 11, 1.49, -33.7840500, 151.0681905, 3.86, 98.57, 0.30, 19.71
CTUN, 589, 0.00, 3.81, 3.920000, 0.00, 1, 4, 566, 0
ATT, 0.00, -0.17, -3.25, -3.87, 0.00, 62.20, 66.04
CTUN, 588, 0.00, 3.81, 3.920000, 0.00, 0, 5, 565, 0
ATT, 0.00, -0.01, -2.41, -3.73, 0.00, 62.09, 66.04
GPS, 3, 110306200, 11, 1.49, -33.7840495, 151.0681910, 3.86, 98.57, 0.40, 30.52
CTUN, 588, 0.00, 3.73, 3.920000, 0.00, 0, 4, 574, 0
ATT, 0.00, 0.04, -0.60, -3.13, 0.00, 61.86, 66.04
CTUN, 587, 0.00, 3.70, 3.920000, 0.00, 0, 4, 559, 0
ATT, 0.00, 0.31, 0.00, -1.57, 0.00, 61.54, 66.04
GPS, 3, 110306400, 11, 1.49, -33.7840489, 151.0681916, 3.85, 98.60, 0.41, 36.46
CTUN, 588, 0.00, 3.88, 3.920000, 0.00, 0, 6, 557, 0
ATT, 0.00, 0.51, 0.00, -0.34, 0.00, 61.24, 66.04
CTUN, 589, 0.00, 3.71, 3.920000, 0.00, 0, 5, 568, 0
ATT, 0.00, -0.22, 0.00, -0.41, 0.00, 61.07, 66.04
GPS, 3, 110306600, 11, 1.49, -33.7840484, 151.0681919, 3.86, 98.64, 0.32, 37.16
CTUN, 589, 0.00, 3.94, 3.920000, 0.00, 0, 6, 558, 0
ATT, 0.00, -0.85, 0.00, -0.36, 0.00, 60.91, 66.04
CTUN, 589, 0.00, 3.87, 3.920000, 0.00, 0, 7, 553, 0
GPS, 3, 110306800, 11, 1.49, -33.7840479, 151.0681925, 3.87, 98.66, 0.36, 43.30
ATT, 0.00, -0.89, 0.00, -0.23, 0.00, 60.64, 66.04
CTUN, 589, 0.00, 3.84, 3.920000, 0.00, 0, 5, 560, 0
DU32, 7, 82041
CURR, 587, 164300, 1102, 0, 4487, 0.000000
ATT, 0.00, -0.81, 0.00, 0.07, 0.00, 60.32, 66.04
CTUN, 589, 0.00, 3.86, 3.920000, 0.00, 0, 5, 558, 0
GPS, 3, 110307000, 11, 1.49, -33.7840475, 151.0681927, 3.88, 98.66, 0.30, 39.30
ATT, 0.00, -0.49, 0.00, 0.04, 0.00, 59.95, 66.04
CTUN, 589, 0.00, 3.85, 3.920000, 0.00, 0, 6, 546, 0
ATT, 0.00, -0.67, 0.00, -0.33, 0.00, 59.62, 66.04
CTUN, 589, 0.00, 3.93, 3.920000, 0.00, 0, 4, 546, 0
GPS, 3, 110307200, 11, 1.49, -33.7840471, 151.0681927, 3.89, 98.66, 0.18, 39.30
ATT, 0.00, -0.43, 0.00, -0.55, 0.00, 59.23, 66.04
CTUN, 589, 0.00, 3.88, 3.920000, 0.00, 0, 3, 549, 0
ATT, 0.00, -0.06, 0.00, -0.54, 0.00, 58.85, 66.04
CTUN, 589, 0.00, 3.94, 3.920000, 0.00, 0, 1, 556, 0
GPS, 3, 110307400, 11, 1.49, -33.7840467, 151.0681927, 3.90, 98.67, 0.23, 26.75
ATT, 0.00, -0.22, 0.00, -1.30, 0.00, 58.45, 66.04
CTUN, 589, 0.00, 3.90, 3.920000, 0.00, 0, 2, 548, 0
ATT, 0.00, -0.11, 0.00, -1.99, 0.00, 57.99, 66.04
CTUN, 589, 0.00, 3.86, 3.920000, 0.00, 0, 1, 549, 0
GPS, 3, 110307600, 11, 1.49, -33.7840463, 151.0681925, 3.90, 98.68, 0.18, 26.75
ATT, 0.00, 0.06, 0.00, -2.20, 0.00, 57.74, 66.04
CTUN, 589, 0.00, 3.77, 3.920000, 0.00, 0, 0, 556, 0
ATT, 0.00, 0.24, 0.00, -2.24, 0.00, 57.74, 66.04
CTUN, 588, 0.00, 3.95, 3.920000, 0.00, 0, 0, 563, 0
GPS, 3, 110307800, 11, 1.49, -33.7840461, 151.0681923, 3.89, 98.65, 0.14, 26.75
ATT, 0.00, 0.46, 0.00, -1.96, 0.00, 57.90, 66.04
CTUN, 588, 0.00, 3.78, 3.920000, 0.00, 0, 0, 563, 0
ATT, 0.00, 0.81, 0.00, -1.70, 0.00, 58.09, 66.04
CTUN, 588, 0.00, 3.85, 3.920000, 0.00, 0, 1, 556, 0
GPS, 3, 110308000, 11, 1.49, -33.7840459, 151.0681919, 3.89, 98.63, 0.13, 26.75
DU32, 7, 82041
CURR, 589, 170389, 1102, 0, 4487, 0.000000
ATT, 0.00, 0.94, 0.00, -1.66, 0.00, 58.29, 66.04
CTUN, 589, 0.00, 3.98, 3.920000, 0.00, 0, 2, 551, 0
ATT, 0.00, 1.25, 0.00, -1.36, 0.00, 58.46, 66.04
CTUN, 588, 0.00, 3.88, 3.920000, 0.00, 0, 1, 557, 0
GPS, 3, 110308200, 11, 1.49, -33.7840458, 151.0681915, 3.90, 98.65, 0.13, 26.75
ATT, 0.00, 2.27, 0.00, -0.71, 0.00, 58.72, 66.04
CTUN, 589, 0.00, 3.98, 3.920000, 0.00, 0, 0, 565, 0
ATT, 0.00, 2.34, 0.00, -0.36, 0.00, 59.23, 66.04
CTUN, 588, 0.00, 4.03, 3.920000, 0.00, 0, -1, 563, 0
GPS, 3, 110308400, 11, 1.49, -33.7840458, 151.0681912, 3.90, 98.63, 0.06, 26.75
CTUN, 591, 0.00, 3.93, 3.920000, 0.00, 0, -3, 574, 0
ATT, 0.00, 1.78, 0.00, -0.70, 0.00, 59.94, 66.04
CTUN, 588, 0.00, 3.90, 3.920000, 0.00, 0, -3, 583, 0
ATT, 0.00, 0.86, -0.12, -0.95, 0.00, 60.65, 66.04
GPS, 3, 110308600, 11, 1.49, -33.7840461, 151.0681908, 3.90, 98.61, 0.15, 26.75
CTUN, 589, 0.00, 3.81, 3.920000, 0.00, 0, -2, 575, 0
ATT, 0.00, 0.27, -1.56, -0.99, 0.00, 61.25, 66.04
CTUN, 589, 0.00, 3.85, 3.920000, 0.00, 0, -3, 584, 0
ATT, 0.00, -0.12, -1.80, -1.83, 0.00, 61.64, 66.04
GPS, 3, 110308800, 11, 1.49, -33.7840465, 151.0681904, 3.89, 98.60, 0.23, 293.33
CTUN, 589, 0.00, 3.87, 3.920000, 0.00, 0, 0, 579, 0
ATT, 0.00, -0.97, -1.80, -2.66, 0.00, 62.01, 66.04
CTUN, 588, 0.00, 3.87, 3.920000, 0.00, 0, 0, 571, 0
ATT, 0.00, -0.70, -0.84, -2.47, 0.00, 62.20, 66.04
GPS, 3, 110309000, 11, 1.49, -33.7840470, 151.0681897, 3.89, 98.59, 0.32, 245.28
DU32, 7, 82041
CURR, 588, 176113, 1102, 0, 4505, 0.000000
CTUN, 588, 0.00, 3.83, 3.920000, 0.00, 0, 1, 572, 0
ATT, 0.00, -0.73, 0.00, -1.64, 0.00, 62.30, 66.04
CTUN, 588, 0.00, 3.77, 3.920000, 0.00, 0, 2, 565, 0
ATT, 0.00, -0.90, 0.00, -1.10, 0.00, 62.22, 66.04
GPS, 3, 110309200, 11, 1.49, -33.7840474, 151.0681893, 3.88, 98.59, 0.25, 231.96
CTUN, 588, 0.00, 3.89, 3.920000, 0.00, 0, 3, 571, 0
ATT, 0.00, -0.63, 0.00, -0.47, 0.00, 61.94, 66.04
CTUN, 589, 0.00, 3.69, 3.920000, 0.00, 0, 4, 561, 0
ATT, 0.00, -0.18, 0.00, -0.01, 0.00, 61.66, 66.04
GPS, 3, 110309400, 11, 1.49, -33.7840478, 151.0681888, 3.88, 98.60, 0.27, 221.04
CTUN, 589, 0.00, 3.87, 3.920000, 0.00, 0, 5, 557, 0
ATT, 0.00, -0.48, 0.00, -0.30, 0.00, 61.43, 66.04
CTUN, 588, 0.00, 3.78, 3.920000, 0.00, 0, 3, 565, 0
ATT, 0.00, -0.49, 0.00, -0.67, 0.00, 61.22, 66.04
GPS, 3, 110309600, 12, 1.38, -33.7840483, 151.0681882, 3.88, 98.63, 0.35, 220.74
CTUN, 588, 0.00, 3.89, 3.920000, 0.00, 0, 4, 563, 0
ATT, 0.00, -0.10, 0.00, -0.70, 0.00, 60.84, 66.04
CTUN, 588, 0.00, 3.76, 3.920000, 0.00, 0, 2, 564, 0
ATT, 0.00, -0.07, 0.00, -1.11, 0.00, 60.55, 66.04
GPS, 3, 110309800, 12, 1.38, -33.7840487, 151.0681876, 3.88, 98.64, 0.32, 222.46
CTUN, 591, 0.00, 3.80, 3.920000, 0.00, 0, 2, 569, 0
