dump 6

ArduCopter V3.1-rc3.1
Free RAM: 1138
APM 2
FMT, 128, 89, FMT, BBnNZ, Type,Length,Name,Format
FMT, 129, 23, PARM, Nf, Name,Value
FMT, 130, 35, GPS, BIBcLLeeEe, Status,Time,NSats,HDop,Lat,Lng,RelAlt,Alt,Spd,GCrs
FMT, 131, 27, IMU, ffffff, GyrX,GyrY,GyrZ,AccX,AccY,AccZ
FMT, 132, 67, MSG, Z, Message
FMT, 9, 19, CURR, hIhhhf, Thr,ThrInt,Volt,Curr,Vcc,CurrTot
FMT, 11, 11, MOT, hhhh, Mot1,Mot2,Mot3,Mot4
FMT, 12, 28, OF, hhBccffee, Dx,Dy,SQual,X,Y,Lat,Lng,Roll,Pitch
FMT, 5, 49, NTUN, Ecffffffffee, WPDst,WPBrg,PErX,PErY,DVelX,DVelY,VelX,VelY,DAcX,DAcY,DRol,DPit
FMT, 4, 25, CTUN, hcefchhhh, ThrIn,SonAlt,BarAlt,WPAlt,DesSonAlt,AngBst,CRate,ThrOut,DCRate
FMT, 15, 21, MAG, hhhhhhhhh, MagX,MagY,MagZ,OfsX,OfsY,OfsZ,MOfsX,MOfsY,MOfsZ
FMT, 6, 17, PM, BBBHHIhB, RenCnt,RenBlw,FixCnt,NLon,NLoop,MaxT,PMT,I2CErr
FMT, 8, 20, CMD, BBBBBeLL, CTot,CNum,CId,COpt,Prm1,Alt,Lat,Lng
FMT, 1, 17, ATT, cccccCC, RollIn,Roll,PitchIn,Pitch,YawIn,Yaw,NavYaw
FMT, 17, 37, INAV, cccfffiiff, BAlt,IAlt,IClb,ACorrX,ACorrY,ACorrZ,GLat,GLng,ILat,ILng
FMT, 3, 6, MODE, Mh, Mode,ThrCrs
FMT, 10, 3, STRT, , 
FMT, 13, 4, EV, B, Id
FMT, 20, 6, D16, Bh, Id,Value
FMT, 21, 6, DU16, BH, Id,Value
FMT, 22, 8, D32, Bi, Id,Value
FMT, 23, 8, DU32, BI, Id,Value
FMT, 24, 8, DFLT, Bf, Id,Value
FMT, 14, 28, PID, Biiiiif, Id,Error,P,I,D,Out,Gain
FMT, 18, 25, CAM, ILLeccC, GPSTime,Lat,Lng,Alt,Roll,Pitch,Yaw
FMT, 19, 5, ERR, BB, Subsys,ECode
D32, 9, 5300
CMD, 1, 0, 16, 0, 0, 0.00, -33.7840524, 151.0681562
EV, 10
GPS, 3, 540915200, 9, 1.80, -33.7840524, 151.0681560, -0.58, 97.24, 0.04, 223.55
CTUN, 223, 0.00, -0.04, 0.000000, 0.00, 0, 0, 0, 0
EV, 15
GPS, 3, 540922400, 9, 1.80, -33.7840540, 151.0681528, -0.57, 96.89, 0.03, 223.55
EV, 28
ATT, 0.00, -0.01, 0.00, 0.85, 0.00, 53.11, 53.05
CTUN, 223, 0.00, -0.09, 0.000000, 0.00, 0, 1, 222, 0
ATT, 0.00, 0.05, 0.00, 0.87, 0.00, 52.94, 53.05
PM, 0, 0, 52, 10, 1001, 7333028, 18, 4
CTUN, 223, 0.00, -0.06, 0.000000, 0.00, 0, 1, 223, 0
GPS, 3, 540922600, 9, 1.80, -33.7840540, 151.0681528, -0.51, 96.87, 0.01, 223.55
ATT, 0.00, 0.08, 0.00, 0.89, 0.00, 52.85, 53.05
CTUN, 222, 0.00, -0.17, 0.000000, 0.00, 0, 2, 223, 0
ATT, 0.00, 0.09, 0.00, 0.91, 0.00, 52.82, 53.05
CTUN, 248, 0.00, -0.31, 0.000000, 0.00, 0, 2, 223, 0
GPS, 3, 540922800, 9, 1.80, -33.7840541, 151.0681528, -0.46, 96.84, 0.01, 223.55
DU32, 7, 8313
CURR, 265, 892, 1185, 346, 4752, 0.451135
ATT, 0.00, 0.09, 0.00, 0.88, 0.00, 52.89, 53.05
CTUN, 290, 0.00, -0.24, 0.000000, 0.00, 0, 2, 290, 0
ATT, 0.00, 0.13, 0.00, 0.90, 0.00, 52.85, 53.05
CTUN, 320, 0.00, -0.40, 0.000000, 0.00, 0, 3, 310, 0
GPS, 3, 540923000, 9, 1.80, -33.7840540, 151.0681528, -0.43, 96.82, 0.16, 223.55
ATT, 0.00, 0.15, 0.00, 0.88, 0.00, 52.80, 53.05
CTUN, 358, 0.00, -0.28, 0.000000, 0.00, 0, 3, 335, 0
ATT, 0.00, 0.13, 0.00, 0.87, 0.00, 52.75, 53.05
GPS, 3, 540923200, 9, 1.80, -33.7840539, 151.0681532, -0.42, 96.75, 0.23, 223.55
CTUN, 372, 0.00, -0.43, 0.000000, 0.00, 0, 2, 374, 0
ATT, 0.00, 0.17, 0.00, 0.83, 0.00, 52.69, 53.05
CTUN, 374, 0.00, -0.53, 0.000000, 0.00, 0, 2, 372, 0
ATT, 0.00, 0.21, 0.00, 0.82, 0.00, 52.67, 53.05
GPS, 3, 540923400, 9, 1.80, -33.7840538, 151.0681533, -0.41, 96.72, 0.15, 223.55
CTUN, 416, 0.00, -0.53, 0.000000, 0.00, 0, 2, 377, 0
ATT, 0.00, 0.26, 0.00, 0.82, 0.00, 52.65, 53.05
CTUN, 488, 0.00, -0.59, 0.000000, 0.00, 0, 1, 469, 0
EV, 16
ATT, 0.00, 0.27, 0.00, 0.87, 0.00, 52.57, 53.05
GPS, 3, 540923600, 9, 1.80, -33.7840537, 151.0681539, -0.42, 96.66, 0.27, 223.55
CTUN, 512, 0.00, -0.62, 0.000000, 0.00, 0, 2, 502, 0
ATT, 0.00, 0.46, 0.00, 1.06, 0.00, 52.02, 53.05
CTUN, 555, 0.00, -0.76, 0.000000, 0.00, 0, 4, 555, 0
ATT, 0.00, 0.64, 0.00, 2.29, 0.00, 50.73, 53.05
GPS, 3, 540923800, 9, 1.80, -33.7840535, 151.0681544, -0.45, 96.58, 0.28, 223.55
CTUN, 581, 0.00, -0.68, 0.000000, 0.00, 0, 9, 572, 0
DU32, 7, 8569
CURR, 581, 5025, 1119, 1251, 4693, 2.652487
ATT, 0.00, 0.89, 0.00, 4.61, 0.00, 48.34, 53.05
CTUN, 592, 0.00, -0.73, 0.000000, 0.00, 1, 20, 589, 0
ATT, 0.00, 1.28, 0.00, 5.25, 0.00, 45.64, 53.05
GPS, 3, 540924000, 9, 1.80, -33.7840535, 151.0681547, -0.44, 96.53, 0.18, 223.55
CTUN, 596, 0.00, -0.57, 0.000000, 0.00, 2, 34, 598, 0
ATT, -0.11, 0.96, -3.15, 5.69, 0.00, 42.78, 52.78
CTUN, 597, 0.00, -0.33, 0.000000, 0.00, 2, 44, 599, 0
GPS, 3, 540924200, 9, 1.80, -33.7840542, 151.0681539, -0.37, 96.72, 0.34, 206.23
ATT, -3.48, -0.19, -8.97, 2.85, 0.00, 40.04, 50.04
CTUN, 596, 0.00, -0.06, 0.000000, 0.00, 0, 53, 596, 0
ATT, -2.32, -1.63, -12.37, -2.41, 0.00, 37.79, 47.79
CTUN, 597, 0.00, 0.12, 0.000000, 0.00, 0, 58, 597, 0
GPS, 3, 540924400, 9, 1.80, -33.7840550, 151.0681532, -0.22, 96.77, 0.48, 206.23
CTUN, 597, 0.00, 0.36, 0.000000, 0.00, 3, 65, 600, 0
ATT, 0.00, -2.16, -12.61, -7.65, 0.00, 34.98, 44.98
CTUN, 584, 0.00, 0.32, 0.000000, 0.00, 5, 67, 589, 0
ATT, 0.00, 0.31, -12.61, -9.33, 0.00, 32.58, 42.58
GPS, 3, 540924600, 9, 1.80, -33.7840560, 151.0681522, -0.05, 96.86, 0.62, 206.23
CTUN, 584, 0.00, 0.46, 0.000000, 0.00, 6, 67, 590, 0
ATT, 0.00, 2.73, -11.03, -9.84, 0.00, 29.97, 39.97
CTUN, 584, 0.00, 0.44, 0.000000, 0.00, 6, 66, 590, 0
ATT, 0.00, 2.86, -4.24, -8.73, 4.92, 28.22, 38.22
GPS, 3, 540924800, 9, 1.80, -33.7840565, 151.0681514, 0.14, 96.96, 0.45, 206.23
CTUN, 584, 0.00, 0.50, 0.000000, 0.00, 4, 67, 588, 0
DU32, 7, 8569
CURR, 585, 10376, 1106, 1393, 4693, 6.442905
ATT, 0.00, 3.29, -2.18, -4.76, 5.16, 27.31, 37.31
CTUN, 584, 0.00, 0.53, 0.000000, 0.00, 1, 69, 585, 0
ATT, 0.00, 3.39, 0.00, -1.57, 1.80, 26.94, 36.94
GPS, 3, 540925000, 9, 1.80, -33.7840564, 151.0681517, 0.32, 97.10, 0.10, 206.23
CTUN, 584, 0.00, 0.66, 0.000000, 0.00, 0, 69, 584, 0
ATT, 0.00, 2.31, 0.00, -0.07, 0.00, 26.12, 36.12
CTUN, 584, 0.00, 0.79, 0.000000, 0.00, 0, 68, 584, 0
GPS, 3, 540925200, 8, 2.02, -33.7840561, 151.0681522, 0.49, 97.22, 0.25, 206.23
ATT, 0.00, 1.29, 0.00, 0.34, 13.20, 25.06, 35.06
CTUN, 583, 0.00, 0.85, 0.000000, 0.00, 0, 68, 583, 0
ATT, 0.00, 0.75, 0.00, 0.78, 20.64, 26.06, 36.06
CTUN, 572, 0.00, 0.78, 0.000000, 0.00, 0, 74, 572, 0
GPS, 3, 540925400, 9, 1.87, -33.7840561, 151.0681530, 0.67, 97.31, 0.36, 206.23
CTUN, 572, 0.00, 1.01, 0.000000, 0.00, 0, 82, 572, 0
ATT, 0.00, -0.03, 0.00, 1.65, 15.36, 29.88, 39.88
CTUN, 572, 0.00, 1.04, 0.000000, 0.00, 0, 82, 572, 0
ATT, 0.00, -2.45, 0.00, 0.69, 15.00, 34.41, 44.41
GPS, 3, 540925600, 9, 1.80, -33.7840564, 151.0681538, 0.85, 97.47, 0.43, 170.97
CTUN, 572, 0.00, 1.17, 0.000000, 0.00, 1, 79, 573, 0
ATT, 0.00, -4.24, 0.00, -1.22, 10.44, 39.71, 49.71
CTUN, 572, 0.00, 1.27, 0.000000, 0.00, 1, 72, 573, 0
ATT, 0.00, -4.03, -0.24, -1.61, 3.84, 43.84, 52.02
GPS, 3, 540925800, 11, 1.61, -33.7840565, 151.0681544, 1.02, 97.58, 0.29, 170.97
CTUN, 572, 0.00, 1.39, 0.000000, 0.00, 1, 66, 573, 0
DU32, 7, 8569
CURR, 572, 15575, 1114, 1241, 4712, 10.07565
ATT, 0.00, -3.45, -2.78, -1.58, 0.00, 47.02, 52.81
CTUN, 572, 0.00, 1.39, 0.000000, 0.00, 0, 61, 572, 0
ATT, 0.00, -2.45, -3.03, -2.55, 0.00, 48.72, 52.81
GPS, 3, 540926000, 11, 1.61, -33.7840564, 151.0681547, 1.20, 97.69, 0.14, 170.97
CTUN, 572, 0.00, 1.47, 0.000000, 0.00, 0, 56, 572, 0
ATT, 0.00, -1.73, -2.30, -3.45, 0.00, 49.86, 52.81
CTUN, 572, 0.00, 1.48, 0.000000, 0.00, 0, 51, 572, 0
ATT, 0.00, -1.12, -2.54, -3.43, 0.00, 50.24, 52.81
GPS, 3, 540926200, 11, 1.61, -33.7840561, 151.0681553, 1.35, 97.83, 0.27, 170.97
CTUN, 572, 0.00, 1.52, 0.000000, 0.00, 0, 45, 572, 0
ATT, 0.00, -0.74, -2.54, -3.38, 0.00, 50.19, 52.81
CTUN, 572, 0.00, 1.55, 0.000000, 0.00, 0, 39, 572, 0
ATT, 0.00, 0.33, -1.81, -3.27, 0.00, 49.82, 52.81
GPS, 3, 540926400, 11, 1.61, -33.7840552, 151.0681558, 1.43, 98.03, 0.52, 66.70
CTUN, 587, 0.00, 1.49, 0.000000, 0.00, 0, 35, 572, 0
ATT, 0.00, 1.37, -1.33, -2.71, 0.00, 49.20, 52.81
CTUN, 591, 0.00, 1.48, 0.000000, 0.00, 0, 31, 591, 0
GPS, 3, 540926600, 11, 1.61, -33.7840542, 151.0681565, 1.51, 98.14, 0.57, 47.25
ATT, 0.00, 1.68, -1.69, -2.22, 0.00, 48.46, 52.81
CTUN, 590, 0.00, 1.57, 0.000000, 0.00, 0, 31, 590, 0
ATT, 0.00, 1.87, -1.69, -1.73, 0.00, 47.74, 52.81
CTUN, 592, 0.00, 1.60, 0.000000, 0.00, 0, 30, 591, 0
GPS, 3, 540926800, 11, 1.61, -33.7840532, 151.0681579, 1.57, 98.15, 0.75, 43.38
ATT, 0.00, 1.41, -1.69, -1.09, 0.00, 46.90, 52.81
CTUN, 592, 0.00, 1.59, 0.000000, 0.00, 0, 28, 592, 0
DU32, 7, 8569
CURR, 592, 20780, 1108, 1291, 4693, 13.40849
ATT, 0.00, 0.99, -0.97, -0.67, 0.00, 46.23, 52.81
CTUN, 603, 0.00, 1.54, 0.000000, 0.00, 0, 26, 603, 0
GPS, 3, 540927000, 11, 1.61, -33.7840522, 151.0681593, 1.62, 98.21, 0.78, 46.31
CTUN, 603, 0.00, 1.62, 0.000000, 0.00, 0, 28, 603, 0
ATT, 0.00, 0.19, -0.72, -0.12, 0.00, 45.42, 52.81
CTUN, 617, 0.00, 1.71, 0.000000, 0.00, 0, 29, 615, 0
ATT, 0.00, -0.19, 0.00, 0.24, 0.00, 44.66, 52.81
GPS, 3, 540927200, 11, 1.61, -33.7840510, 151.0681606, 1.68, 98.22, 0.86, 42.71
CTUN, 634, 0.00, 1.64, 0.000000, 0.00, 0, 32, 635, 0
ATT, 0.00, -0.27, 0.00, 1.00, 0.00, 43.59, 52.81
CTUN, 635, 0.00, 1.69, 0.000000, 0.00, 0, 41, 635, 0
ATT, 0.00, -0.33, 0.00, 1.41, 0.00, 42.73, 52.73
GPS, 3, 540927400, 11, 1.61, -33.7840500, 151.0681623, 1.75, 98.21, 0.84, 48.10
CTUN, 635, 0.00, 1.75, 0.000000, 0.00, 0, 47, 635, 0
ATT, 0.00, -0.97, 0.00, 1.45, 0.00, 41.89, 51.89
CTUN, 638, 0.00, 1.87, 0.000000, 0.00, 0, 58, 638, 0
GPS, 3, 540927600, 10, 1.77, -33.7840491, 151.0681636, 1.86, 98.27, 0.75, 49.40
ATT, 0.00, -1.38, 0.00, 1.20, 0.00, 41.09, 51.09
CTUN, 636, 0.00, 1.73, 0.000000, 0.00, 0, 67, 636, 0
ATT, 0.00, -1.84, 0.00, 0.82, 0.00, 40.45, 50.45
CTUN, 613, 0.00, 1.88, 0.000000, 0.00, 0, 75, 613, 0
GPS, 3, 540927800, 10, 1.77, -33.7840477, 151.0681649, 1.99, 98.45, 0.79, 46.11
ATT, 0.00, -2.18, 0.00, 0.31, 0.00, 39.89, 49.89
CTUN, 614, 0.00, 1.93, 0.000000, 0.00, 0, 83, 614, 0
DU32, 7, 8569
CURR, 614, 26371, 1095, 1463, 4654, 17.37060
ATT, 0.00, -2.46, 0.00, -0.01, 0.00, 39.64, 49.64
CTUN, 613, 0.00, 2.04, 0.000000, 0.00, 0, 86, 613, 0
GPS, 3, 540928000, 10, 1.77, -33.7840465, 151.0681659, 2.13, 98.58, 0.70, 43.27
CTUN, 614, 0.00, 2.11, 0.000000, 0.00, 0, 89, 614, 0
ATT, 0.00, -2.18, 0.00, -0.62, 0.00, 39.58, 49.58
CTUN, 613, 0.00, 2.24, 0.000000, 0.00, 0, 91, 614, 0
ATT, 0.00, -1.62, 0.00, -0.84, 0.00, 39.61, 49.58
GPS, 3, 540928200, 10, 1.77, -33.7840452, 151.0681669, 2.32, 98.67, 0.74, 35.45
CTUN, 614, 0.00, 2.34, 0.000000, 0.00, 0, 93, 613, 0
ATT, 6.11, -0.78, 0.00, -0.82, 0.00, 39.76, 49.58
CTUN, 572, 0.00, 2.33, 0.000000, 0.00, 0, 96, 572, 0
ATT, 6.00, 1.87, 0.23, -1.12, 0.00, 39.80, 49.58
GPS, 3, 540928400, 10, 1.77, -33.7840437, 151.0681677, 2.50, 98.88, 0.81, 31.47
CTUN, 566, 0.00, 2.48, 0.000000, 0.00, 0, 94, 566, 0
ATT, 8.42, 4.32, 3.98, 0.07, 0.00, 39.95, 49.58
CTUN, 567, 0.00, 2.48, 0.000000, 0.00, 1, 88, 568, 0
GPS, 3, 540928600, 10, 1.77, -33.7840422, 151.0681687, 2.67, 99.01, 0.91, 27.50
ATT, 8.19, 5.95, 6.09, 1.85, 0.00, 40.34, 49.58
CTUN, 567, 0.00, 2.59, 0.000000, 0.00, 2, 84, 569, 0
ATT, 3.00, 6.76, 7.03, 4.07, 0.00, 40.73, 49.58
CTUN, 567, 0.00, 2.77, 0.000000, 0.00, 4, 80, 570, 0
GPS, 3, 540928800, 10, 1.77, -33.7840409, 151.0681699, 2.82, 99.04, 0.90, 29.67
ATT, 1.96, 4.55, 10.19, 6.78, 0.00, 41.11, 49.58
CTUN, 567, 0.00, 2.80, 0.000000, 0.00, 4, 74, 571, 0
DU32, 7, 8569
CURR, 567, 31684, 1105, 1247, 4732, 21.04894
ATT, 0.34, 2.26, 12.07, 8.19, 0.00, 41.18, 49.58
CTUN, 567, 0.00, 2.94, 0.000000, 0.00, 4, 70, 571, 0
GPS, 3, 540929000, 10, 1.77, -33.7840400, 151.0681711, 2.95, 99.04, 0.72, 33.35
ATT, 0.00, -0.25, 9.37, 10.21, 0.00, 41.14, 49.58
CTUN, 567, 0.00, 2.93, 0.000000, 0.00, 6, 65, 573, 0
ATT, 0.00, -0.70, 0.70, 9.83, 0.00, 41.22, 49.58
CTUN, 567, 0.00, 3.02, 0.000000, 0.00, 6, 58, 573, 0
GPS, 3, 540929200, 10, 1.77, -33.7840394, 151.0681723, 3.08, 99.02, 0.59, 39.59
ATT, 0.00, -1.73, 0.00, 5.83, 0.00, 41.66, 49.58
CTUN, 567, 0.00, 3.11, 0.000000, 0.00, 2, 54, 569, 0
ATT, 0.00, -3.04, 0.00, 1.28, 0.00, 42.06, 49.58
CTUN, 569, 0.00, 3.24, 0.000000, 0.00, 0, 52, 567, 0
GPS, 3, 540929400, 10, 1.77, -33.7840394, 151.0681724, 3.17, 99.05, 0.09, 39.59
ATT, 0.00, -2.27, 0.00, -0.31, 0.00, 42.13, 49.58
CTUN, 567, 0.00, 3.22, 0.000000, 0.00, 0, 51, 566, 0
ATT, 0.00, -1.22, 0.00, -0.78, 0.00, 42.12, 49.58
CTUN, 567, 0.00, 3.28, 0.000000, 0.00, 0, 47, 567, 0
GPS, 3, 540929600, 10, 1.77, -33.7840393, 151.0681725, 3.28, 99.05, 0.12, 39.59
CTUN, 567, 0.00, 3.35, 0.000000, 0.00, 0, 42, 567, 0
ATT, 0.00, -0.66, 0.00, -1.52, 0.00, 42.20, 49.58
CTUN, 567, 0.00, 3.27, 0.000000, 0.00, 0, 39, 567, 0
ATT, 1.84, -0.16, 0.00, -1.79, 0.00, 42.30, 49.58
GPS, 3, 540929800, 10, 1.77, -33.7840386, 151.0681725, 3.37, 99.25, 0.26, 39.59
CTUN, 565, 0.00, 3.29, 0.000000, 0.00, 0, 37, 567, 0
ATT, 6.92, 2.07, 0.00, -1.85, 0.00, 42.43, 49.58
DU32, 7, 8569
CURR, 566, 37377, 1105, 1231, 4732, 24.68378
CTUN, 566, 0.00, 3.38, 0.000000, 0.00, 1, 37, 567, 0
ATT, 6.46, 5.33, 0.00, -0.97, 0.00, 42.51, 49.58
GPS, 3, 540930000, 10, 1.77, -33.7840381, 151.0681725, 3.44, 99.38, 0.27, 39.59
CTUN, 567, 0.00, 3.40, 0.000000, 0.00, 2, 32, 570, 0
ATT, 5.76, 5.68, 0.00, -0.77, 0.00, 42.58, 49.58
CTUN, 567, 0.00, 3.30, 0.000000, 0.00, 1, 28, 568, 0
GPS, 3, 540930200, 10, 1.77, -33.7840377, 151.0681728, 3.49, 99.43, 0.28, 39.59
ATT, 3.57, 4.95, 0.00, -0.76, 0.00, 42.50, 49.58
CTUN, 568, 0.00, 3.45, 0.000000, 0.00, 1, 26, 569, 0
ATT, 1.96, 4.38, 0.00, -0.34, 0.00, 42.40, 49.58
CTUN, 567, 0.00, 3.41, 0.000000, 0.00, 1, 22, 568, 0
GPS, 3, 540930400, 9, 1.80, -33.7840371, 151.0681736, 3.52, 99.38, 0.39, 36.03
ATT, 0.23, 3.45, 0.00, -0.64, 0.00, 42.29, 49.58
CTUN, 570, 0.00, 3.39, 0.000000, 0.00, 0, 19, 570, 0
ATT, 0.23, 2.11, 0.00, -0.55, 0.00, 42.27, 49.58
CTUN, 566, 0.00, 3.49, 0.000000, 0.00, 0, 15, 566, 0
GPS, 3, 540930600, 10, 1.77, -33.7840369, 151.0681744, 3.54, 99.38, 0.31, 44.07
CTUN, 566, 0.00, 3.32, 0.000000, 0.00, 0, 13, 566, 0
ATT, 0.00, 1.03, 0.00, -0.55, 0.00, 42.32, 49.58
CTUN, 566, 0.00, 3.48, 0.000000, 0.00, 0, 10, 566, 0
ATT, 0.00, 0.06, 0.00, -0.32, 0.00, 42.40, 49.58
GPS, 3, 540930800, 9, 1.80, -33.7840364, 151.0681755, 3.55, 99.34, 0.43, 51.72
CTUN, 568, 0.00, 3.54, 0.000000, 0.00, 0, 5, 568, 0
ATT, 0.11, -0.49, 3.04, -0.14, 0.00, 42.49, 49.58
DU32, 7, 8569
CURR, 568, 42487, 1102, 1217, 4752, 28.07708
CTUN, 569, 0.00, 3.47, 0.000000, 0.00, 0, 1, 569, 0
ATT, 0.34, -1.01, 3.98, 0.82, 0.00, 42.48, 49.58
GPS, 3, 540931000, 9, 1.80, -33.7840361, 151.0681766, 3.55, 99.22, 0.44, 55.78
CTUN, 568, 0.00, 3.37, 0.000000, 0.00, 0, 1, 568, 0
ATT, 0.46, -0.22, 4.10, 2.49, 0.00, 42.33, 49.58
CTUN, 568, 0.00, 3.52, 0.000000, 0.00, 0, -1, 568, 0
GPS, 3, 540931200, 9, 1.80, -33.7840351, 151.0681779, 3.54, 99.08, 0.69, 44.65
ATT, 0.57, 0.35, 3.86, 3.35, 0.00, 42.11, 49.58
CTUN, 568, 0.00, 3.42, 0.000000, 0.00, 0, -2, 568, 0
ATT, 1.38, 0.50, 3.86, 2.91, 0.00, 41.92, 49.58
CTUN, 568, 0.00, 3.39, 0.000000, 0.00, 0, -5, 568, 0
GPS, 3, 540931400, 9, 1.80, -33.7840344, 151.0681790, 3.52, 98.95, 0.51, 40.42
ATT, 1.38, 0.70, 4.68, 2.96, 0.00, 41.87, 49.58
CTUN, 568, 0.00, 3.40, 0.000000, 0.00, 0, -5, 568, 0
ATT, 1.38, 1.28, 5.85, 3.61, 0.00, 42.13, 49.58
CTUN, 568, 0.00, 3.33, 0.000000, 0.00, 0, -6, 568, 0
GPS, 3, 540931600, 9, 1.80, -33.7840338, 151.0681802, 3.49, 98.96, 0.42, 43.99
CTUN, 568, 0.00, 3.40, 0.000000, 0.00, 1, -11, 569, 0
ATT, 5.07, 1.47, 9.60, 4.39, 0.00, 42.59, 49.58
CTUN, 568, 0.00, 3.25, 0.000000, 0.00, 1, -13, 569, 0
ATT, 2.65, 1.98, 8.55, 5.44, 0.00, 42.93, 49.58
GPS, 3, 540931800, 10, 1.77, -33.7840334, 151.0681814, 3.45, 98.78, 0.37, 43.23
CTUN, 569, 0.00, 3.39, 0.000000, 0.00, 3, -18, 571, 0
ATT, 0.69, 2.93, 8.32, 7.65, 0.00, 43.31, 49.58
DU32, 7, 8569
CURR, 568, 47603, 1101, 1227, 4732, 31.47693
CTUN, 568, 0.00, 3.27, 0.000000, 0.00, 4, -20, 572, 0
ATT, 0.00, 1.45, 7.50, 7.44, 0.00, 43.56, 49.58
GPS, 3, 540932000, 10, 1.77, -33.7840331, 151.0681822, 3.39, 98.57, 0.24, 43.23
CTUN, 568, 0.00, 3.26, 0.000000, 0.00, 3, -24, 571, 0
ATT, 0.00, 0.18, 6.67, 6.59, 0.00, 43.70, 49.58
CTUN, 568, 0.00, 3.19, 0.000000, 0.00, 2, -28, 568, 0
ATT, 0.00, 0.02, 5.27, 6.28, 0.00, 43.85, 49.58
GPS, 3, 540932200, 10, 1.77, -33.7840332, 151.0681827, 3.33, 98.48, 0.07, 43.23
CTUN, 569, 0.00, 3.10, 0.000000, 0.00, 2, -28, 571, 0
ATT, 0.00, -0.24, 4.57, 5.17, 0.00, 44.08, 49.58
CTUN, 566, 0.00, 3.23, 0.000000, 0.00, 1, -35, 568, 0
GPS, 3, 540932400, 10, 1.77, -33.7840332, 151.0681827, 3.24, 98.37, 0.15, 43.23
ATT, 0.00, -1.00, 4.57, 3.42, 0.00, 44.26, 49.58
CTUN, 568, 0.00, 3.04, 0.000000, 0.00, 0, -36, 568, 0
ATT, 0.00, -0.66, 3.63, 2.96, 0.00, 44.22, 49.58
PM, 0, 0, 50, 0, 1000, 10420, 10, 4
CTUN, 567, 0.00, 3.11, 0.000000, 0.00, 0, -41, 569, 0
GPS, 3, 540932600, 10, 1.77, -33.7840334, 151.0681828, 3.15, 98.15, 0.12, 43.23
ATT, 0.00, -0.13, 0.35, 2.49, 0.00, 44.09, 49.58
CTUN, 584, 0.00, 2.92, 0.000000, 0.00, 0, -41, 584, 0
ATT, 0.00, -0.06, 0.00, 0.66, 0.00, 43.96, 49.58
CTUN, 584, 0.00, 3.02, 0.000000, 0.00, 0, -42, 584, 0
GPS, 3, 540932800, 10, 1.77, -33.7840336, 151.0681824, 3.05, 98.02, 0.33, 354.31
CTUN, 588, 0.00, 2.91, 0.000000, 0.00, 0, -42, 588, 0
ATT, 0.00, -0.26, 0.00, -0.28, 0.00, 43.75, 49.58
DU32, 7, 8569
CURR, 591, 53349, 1093, 1273, 4772, 35.16609
CTUN, 592, 0.00, 2.87, 0.000000, 0.00, 0, -41, 595, 0
ATT, 0.00, 0.60, 0.00, -0.25, 0.00, 43.67, 49.58
GPS, 3, 540933000, 10, 1.77, -33.7840340, 151.0681821, 2.96, 97.83, 0.32, 302.11
CTUN, 600, 0.00, 2.79, 0.000000, 0.00, 0, -40, 600, 0
ATT, 0.00, 1.06, 0.00, -0.06, 0.00, 43.82, 49.58
CTUN, 615, 0.00, 2.74, 0.000000, 0.00, 0, -39, 607, 0
ATT, 0.00, 1.05, 0.00, 0.12, 0.00, 43.97, 49.58
GPS, 3, 540933200, 9, 1.80, -33.7840341, 151.0681816, 2.87, 97.65, 0.24, 302.11
CTUN, 631, 0.00, 2.75, 0.000000, 0.00, 0, -37, 631, 0
ATT, 0.00, 0.88, 0.00, 0.23, 0.00, 44.08, 49.58
CTUN, 639, 0.00, 2.62, 0.000000, 0.00, 0, -29, 629, 0
ATT, 0.00, 0.94, 0.00, 0.42, 0.00, 44.07, 49.58
GPS, 3, 540933400, 9, 1.80, -33.7840342, 151.0681814, 2.78, 97.60, 0.21, 302.11
CTUN, 639, 0.00, 2.73, 0.000000, 0.00, 0, -21, 639, 0
ATT, 0.00, 1.25, 0.00, 0.90, 0.00, 44.15, 49.58
CTUN, 639, 0.00, 2.52, 0.000000, 0.00, 0, -12, 639, 0
GPS, 3, 540933600, 9, 1.80, -33.7840343, 151.0681808, 2.74, 97.51, 0.36, 285.73
ATT, 0.00, 0.69, 0.00, 1.28, 0.00, 44.32, 49.58
CTUN, 639, 0.00, 2.58, 0.000000, 0.00, 0, -2, 639, 0
ATT, 0.00, 0.69, 0.00, 1.43, 0.00, 44.47, 49.58
CTUN, 639, 0.00, 2.56, 0.000000, 0.00, 0, 6, 639, 0
GPS, 3, 540933800, 9, 1.80, -33.7840343, 151.0681806, 2.72, 97.48, 0.15, 285.73
ATT, 0.00, 0.57, 0.00, 1.26, 0.00, 44.53, 49.58
CTUN, 639, 0.00, 2.55, 0.000000, 0.00, 0, 16, 639, 0
DU32, 7, 8569
CURR, 639, 59001, 1085, 1464, 4693, 39.00829
ATT, 0.00, 0.32, 0.00, 0.94, 0.00, 44.40, 49.58
CTUN, 636, 0.00, 2.63, 0.000000, 0.00, 0, 23, 639, 0
GPS, 3, 540934000, 9, 1.80, -33.7840343, 151.0681804, 2.75, 97.50, 0.15, 285.73
ATT, 0.00, 0.20, 0.00, 0.90, 0.00, 44.20, 49.58
CTUN, 635, 0.00, 2.57, 0.000000, 0.00, 0, 33, 634, 0
ATT, 0.00, 0.01, 0.00, 0.59, 0.00, 43.98, 49.58
CTUN, 635, 0.00, 2.59, 0.000000, 0.00, 0, 40, 635, 0
GPS, 3, 540934200, 9, 1.80, -33.7840343, 151.0681799, 2.80, 97.59, 0.31, 285.73
CTUN, 627, 0.00, 2.65, 0.000000, 0.00, 0, 49, 635, 0
ATT, 0.00, 0.05, 0.00, 0.50, 0.00, 43.72, 49.58
CTUN, 616, 0.00, 2.70, 0.000000, 0.00, 0, 55, 616, 0
ATT, 0.00, 0.33, 0.00, 0.68, 0.00, 43.54, 49.58
GPS, 3, 540934400, 9, 1.80, -33.7840342, 151.0681797, 2.88, 97.70, 0.15, 285.73
CTUN, 613, 0.00, 2.73, 0.000000, 0.00, 0, 58, 614, 0
ATT, 0.00, 0.73, 0.00, 0.65, 0.00, 43.46, 49.58
CTUN, 614, 0.00, 2.69, 0.000000, 0.00, 0, 61, 614, 0
ATT, 0.00, 1.05, 0.00, 0.41, 0.00, 43.56, 49.58
GPS, 3, 540934600, 9, 1.80, -33.7840341, 151.0681794, 2.98, 97.77, 0.17, 285.73
CTUN, 614, 0.00, 2.86, 0.000000, 0.00, 0, 63, 614, 0
ATT, 0.00, 1.25, 0.00, 0.37, 0.00, 43.69, 49.58
CTUN, 612, 0.00, 2.89, 0.000000, 0.00, 0, 66, 612, 0
GPS, 3, 540934800, 9, 1.80, -33.7840340, 151.0681792, 3.09, 97.93, 0.16, 285.73
ATT, 0.00, 1.50, 0.00, 0.62, 0.00, 43.66, 49.58
CTUN, 612, 0.00, 2.88, 0.000000, 0.00, 0, 68, 612, 0
ATT, 0.00, 1.29, 0.00, 0.76, 0.00, 43.62, 49.58
DU32, 7, 8569
CURR, 614, 64589, 1086, 1376, 4712, 42.83562
CTUN, 614, 0.00, 2.99, 0.000000, 0.00, 0, 70, 614, 0
GPS, 3, 540935000, 9, 1.80, -33.7840341, 151.0681788, 3.20, 98.02, 0.15, 285.73
ATT, 0.00, 1.04, 0.00, 0.56, 0.00, 43.69, 49.58
CTUN, 614, 0.00, 3.03, 0.000000, 0.00, 0, 71, 614, 0
ATT, 0.00, 1.03, 0.00, 0.47, 0.00, 43.84, 49.58
CTUN, 614, 0.00, 3.06, 0.000000, 0.00, 0, 72, 614, 0
GPS, 3, 540935200, 9, 1.80, -33.7840343, 151.0681788, 3.31, 98.01, 0.08, 285.73
CTUN, 614, 0.00, 3.26, 0.000000, 0.00, 0, 73, 614, 0
ATT, 0.00, 1.09, 0.00, 0.60, 0.00, 44.19, 49.58
CTUN, 613, 0.00, 3.18, 0.000000, 0.00, 0, 74, 613, 0
ATT, 1.96, 1.10, 0.00, 0.39, 0.00, 44.55, 49.58
GPS, 3, 540935400, 10, 1.77, -33.7840347, 151.0681787, 3.45, 98.08, 0.14, 285.73
CTUN, 614, 0.00, 3.27, 0.000000, 0.00, 0, 75, 614, 0
ATT, 0.46, 1.91, 0.00, 0.50, 0.00, 44.83, 49.58
CTUN, 612, 0.00, 3.33, 0.000000, 0.00, 0, 76, 614, 0
ATT, 0.00, 1.37, 0.00, 0.52, 0.00, 45.07, 49.58
GPS, 3, 540935600, 10, 1.77, -33.7840347, 151.0681788, 3.57, 98.18, 0.05, 285.73
CTUN, 592, 0.00, 3.37, 0.000000, 0.00, 0, 76, 596, 0
ATT, 0.00, 0.40, 0.00, 0.60, 0.00, 45.41, 49.58
CTUN, 566, 0.00, 3.40, 0.000000, 0.00, 0, 74, 572, 0
GPS, 3, 540935800, 10, 1.77, -33.7840351, 151.0681791, 3.69, 98.27, 0.15, 285.73
ATT, 0.00, -0.32, 0.00, 0.62, 0.00, 45.76, 49.58
CTUN, 561, 0.00, 3.44, 0.000000, 0.00, 0, 68, 561, 0
ATT, 0.00, -0.82, 0.00, 1.15, 0.00, 45.98, 49.58
DU32, 7, 8569
CURR, 563, 70000, 1095, 1175, 4732, 46.52975
CTUN, 563, 0.00, 3.62, 0.000000, 0.00, 0, 62, 563, 0
GPS, 3, 540936000, 9, 1.80, -33.7840352, 151.0681791, 3.79, 98.28, 0.11, 285.73
ATT, 0.00, -1.59, 0.00, 1.05, 0.00, 46.31, 49.58
CTUN, 562, 0.00, 3.72, 0.000000, 0.00, 0, 50, 562, 0
ATT, 0.00, -2.05, 0.00, 0.72, 0.00, 46.49, 49.58
CTUN, 562, 0.00, 3.70, 0.000000, 0.00, 0, 42, 562, 0
GPS, 3, 540936200, 9, 1.80, -33.7840351, 151.0681790, 3.87, 98.27, 0.11, 285.73
CTUN, 562, 0.00, 3.85, 0.000000, 0.00, 0, 29, 562, 0
ATT, 0.00, -1.66, 0.00, 0.62, 0.00, 46.54, 49.58
CTUN, 562, 0.00, 3.68, 0.000000, 0.00, 0, 24, 562, 0
ATT, 0.69, -1.44, 0.00, 0.40, 0.00, 46.44, 49.58
GPS, 3, 540936400, 9, 1.80, -33.7840346, 151.0681791, 3.91, 98.26, 0.21, 285.73
CTUN, 563, 0.00, 3.78, 0.000000, 0.00, 0, 15, 563, 0
ATT, 0.00, -0.49, 0.00, -0.04, 0.00, 46.08, 49.58
CTUN, 563, 0.00, 3.87, 0.000000, 0.00, 0, 7, 561, 0
ATT, 0.00, -0.53, 0.00, 0.24, 0.00, 45.77, 49.58
GPS, 3, 540936600, 9, 1.80, -33.7840344, 151.0681794, 3.91, 98.33, 0.12, 285.73
CTUN, 563, 0.00, 3.78, 0.000000, 0.00, 0, -2, 563, 0
ATT, 0.00, -0.91, 0.00, 0.13, 0.00, 45.60, 49.58
CTUN, 565, 0.00, 3.78, 0.000000, 0.00, 0, -11, 563, 0
GPS, 3, 540936800, 10, 1.77, -33.7840342, 151.0681798, 3.89, 98.49, 0.07, 285.73
ATT, 0.00, -0.72, 0.00, 0.39, 0.00, 45.44, 49.58
CTUN, 561, 0.00, 3.82, 0.000000, 0.00, 0, -16, 561, 0
ATT, 0.00, -0.21, 0.00, 0.37, 0.00, 45.26, 49.58
DU32, 7, 8569
CURR, 561, 75062, 1095, 1191, 4712, 49.82972
CTUN, 561, 0.00, 3.73, 0.000000, 0.00, 0, -21, 561, 0
GPS, 3, 540937000, 10, 1.77, -33.7840337, 151.0681797, 3.83, 98.46, 0.28, 285.73
ATT, 0.00, 0.00, 0.00, 0.42, 0.00, 44.95, 49.58
CTUN, 561, 0.00, 3.68, 0.000000, 0.00, 0, -27, 561, 0
ATT, 0.00, 0.25, 0.00, 0.39, 0.00, 44.54, 49.58
CTUN, 561, 0.00, 3.77, 0.000000, 0.00, 0, -33, 562, 0
GPS, 3, 540937200, 10, 1.77, -33.7840333, 151.0681795, 3.76, 98.32, 0.30, 285.73
ATT, 0.00, 0.47, 0.00, 0.37, 0.00, 44.05, 49.58
CTUN, 562, 0.00, 3.57, 0.000000, 0.00, 0, -40, 563, 0
ATT, 0.00, 0.90, 0.00, 0.33, 0.00, 43.61, 49.58
CTUN, 562, 0.00, 3.67, 0.000000, 0.00, 0, -46, 562, 0
GPS, 3, 540937400, 10, 1.77, -33.7840329, 151.0681793, 3.68, 98.19, 0.37, 317.08
CTUN, 563, 0.00, 3.59, 0.000000, 0.00, 0, -51, 562, 0
ATT, 0.00, 1.12, 0.00, 0.27, 0.00, 43.20, 49.58
CTUN, 563, 0.00, 3.46, 0.000000, 0.00, 0, -59, 566, 0
ATT, 0.00, 0.84, 0.00, -0.20, 0.00, 42.90, 49.58
GPS, 3, 540937600, 9, 1.80, -33.7840325, 151.0681790, 3.55, 98.06, 0.31, 325.65
CTUN, 563, 0.00, 3.50, 0.000000, 0.00, 0, -65, 563, 0
ATT, 0.00, 0.29, 0.00, -0.56, 0.00, 42.39, 49.58
CTUN, 563, 0.00, 3.41, 0.000000, 0.00, 0, -71, 562, 0
ATT, 0.00, 0.59, 0.00, -0.48, 0.00, 41.80, 49.58
GPS, 3, 540937800, 9, 1.80, -33.7840321, 151.0681790, 3.41, 97.95, 0.25, 325.65
CTUN, 561, 0.00, 3.22, 0.000000, 0.00, 0, -75, 561, 0
ATT, 0.00, 1.14, 0.00, -0.22, 0.00, 41.02, 49.58
DU32, 7, 8569
CURR, 566, 80120, 1093, 1228, 4712, 53.11720
CTUN, 562, 0.00, 3.22, 0.000000, 0.00, 0, -81, 566, 0
GPS, 3, 540938000, 9, 1.80, -33.7840316, 151.0681790, 3.24, 97.84, 0.27, 341.99
ATT, 4.73, 1.58, 0.00, -0.12, 0.00, 40.21, 49.58
CTUN, 562, 0.00, 3.16, 0.000000, 0.00, 0, -86, 562, 0
ATT, 7.03, 3.30, 0.00, -0.94, 0.00, 39.51, 49.51
CTUN, 573, 0.00, 3.15, 0.000000, 0.00, 0, -90, 569, 0
GPS, 3, 540938200, 10, 1.77, -33.7840312, 151.0681790, 3.06, 97.62, 0.28, 350.03
ATT, 4.84, 5.09, 0.00, -0.65, 0.00, 38.91, 48.91
CTUN, 601, 0.00, 3.02, 0.000000, 0.00, 2, -92, 603, 0
ATT, 4.73, 5.75, 0.00, 0.50, 0.00, 38.48, 48.48
CTUN, 603, 0.00, 2.79, 0.000000, 0.00, 2, -92, 605, 0
GPS, 3, 540938400, 10, 1.77, -33.7840309, 151.0681790, 2.85, 97.41, 0.20, 350.03
ATT, 1.61, 4.92, 0.00, 0.93, 0.36, 38.11, 48.11
CTUN, 603, 0.00, 2.82, 0.000000, 0.00, 1, -88, 604, 0
ATT, 1.50, 3.41, 0.00, 0.98, 8.40, 37.93, 47.93
CTUN, 603, 0.00, 2.49, 0.000000, 0.00, 0, -84, 603, 0
GPS, 3, 540938600, 10, 1.77, -33.7840307, 151.0681797, 2.67, 97.23, 0.29, 23.64
CTUN, 603, 0.00, 2.59, 0.000000, 0.00, 0, -74, 603, 0
ATT, 0.00, 2.29, 0.00, 1.27, 13.44, 39.13, 49.13
CTUN, 603, 0.00, 2.50, 0.000000, 0.00, 0, -65, 602, 0
ATT, 0.00, 1.82, 0.00, 1.88, 14.88, 41.88, 51.88
GPS, 3, 540938800, 9, 1.80, -33.7840308, 151.0681804, 2.54, 97.07, 0.25, 23.64
CTUN, 603, 0.00, 2.42, 0.000000, 0.00, 0, -56, 603, 0
ATT, 0.00, 0.93, 0.00, 2.17, 15.12, 46.58, 56.58
DU32, 7, 8569
CURR, 603, 86047, 1077, 1411, 4712, 57.24769
CTUN, 603, 0.00, 2.41, 0.000000, 0.00, 0, -52, 603, 0
ATT, 0.00, -0.24, 0.00, 1.35, 11.40, 51.50, 61.43
GPS, 3, 540939000, 9, 1.80, -33.7840310, 151.0681811, 2.42, 96.99, 0.31, 23.64
CTUN, 603, 0.00, 2.25, 0.000000, 0.00, 0, -48, 602, 0
ATT, 0.00, -1.17, 0.00, 0.43, 3.48, 57.53, 64.52
CTUN, 603, 0.00, 2.44, 0.000000, 0.00, 0, -47, 603, 0
GPS, 3, 540939200, 9, 1.80, -33.7840313, 151.0681818, 2.32, 96.84, 0.35, 23.64
ATT, 0.00, -1.58, 0.00, 0.93, 0.00, 61.27, 64.52
CTUN, 603, 0.00, 2.12, 0.000000, 0.00, 0, -47, 603, 0
ATT, 0.00, -2.05, 0.00, 0.87, 0.00, 62.82, 64.52
CTUN, 603, 0.00, 2.21, 0.000000, 0.00, 0, -47, 603, 0
GPS, 3, 540939400, 9, 1.80, -33.7840316, 151.0681818, 2.22, 96.65, 0.06, 23.64
ATT, 0.00, -2.12, 0.35, 0.90, 0.00, 63.47, 64.52
CTUN, 605, 0.00, 2.16, 0.000000, 0.00, 0, -47, 603, 0
ATT, 0.00, -2.03, 0.00, 1.01, 0.00, 63.34, 64.52
CTUN, 606, 0.00, 2.11, 0.000000, 0.00, 0, -47, 603, 0
GPS, 3, 540939600, 9, 1.80, -33.7840317, 151.0681817, 2.13, 96.48, 0.02, 23.64
CTUN, 604, 0.00, 1.89, 0.000000, 0.00, 0, -44, 604, 0
ATT, 0.00, -1.65, 0.00, 0.65, 0.00, 62.69, 64.52
CTUN, 606, 0.00, 1.91, 0.000000, 0.00, 0, -41, 606, 0
ATT, 0.00, -1.37, 0.00, 0.50, 0.00, 61.91, 64.52
GPS, 3, 540939800, 10, 1.77, -33.7840313, 151.0681822, 2.02, 96.42, 0.23, 23.64
CTUN, 606, 0.00, 1.93, 0.000000, 0.00, 0, -41, 606, 0
ATT, 1.50, -0.59, 0.00, 0.64, 0.00, 60.74, 64.52
DU32, 7, 8569
CURR, 606, 91482, 1082, 1344, 4732, 60.89632
CTUN, 606, 0.00, 1.89, 0.000000, 0.00, 0, -39, 606, 0
ATT, 4.26, 0.26, 0.00, 0.54, 0.00, 59.84, 64.52
GPS, 3, 540940000, 9, 1.80, -33.7840309, 151.0681826, 1.93, 96.35, 0.21, 23.64
CTUN, 606, 0.00, 1.84, 0.000000, 0.00, 0, -39, 606, 0
ATT, 5.76, 2.56, 0.00, 0.89, 0.00, 58.86, 64.52
CTUN, 606, 0.00, 1.92, 0.000000, 0.00, 0, -34, 606, 0
GPS, 3, 540940200, 10, 1.77, -33.7840305, 151.0681830, 1.85, 96.28, 0.23, 23.64
ATT, 5.53, 4.37, 0.00, 1.25, 0.00, 58.09, 64.52
CTUN, 605, 0.00, 1.83, 0.000000, 0.00, 1, -32, 606, 0
ATT, 2.65, 4.58, 0.00, 1.46, 0.00, 57.74, 64.52
CTUN, 606, 0.00, 1.74, 0.000000, 0.00, 1, -30, 607, 0
GPS, 3, 540940400, 10, 1.77, -33.7840301, 151.0681833, 1.78, 96.22, 0.22, 23.64
ATT, 2.30, 3.64, 0.00, 1.64, 0.00, 57.54, 64.52
CTUN, 605, 0.00, 1.67, 0.000000, 0.00, 1, -27, 607, 0
ATT, 4.96, 2.65, 0.00, 1.22, 0.00, 57.45, 64.52
CTUN, 606, 0.00, 1.74, 0.000000, 0.00, 0, -25, 606, 0
GPS, 3, 540940600, 9, 1.80, -33.7840300, 151.0681834, 1.73, 96.17, 0.07, 23.64
CTUN, 606, 0.00, 1.72, 0.000000, 0.00, 0, -23, 606, 0
ATT, 4.38, 2.99, 0.00, 0.90, 0.00, 57.49, 64.52
CTUN, 605, 0.00, 1.61, 0.000000, 0.00, 0, -21, 605, 0
ATT, 4.26, 3.15, 0.00, 1.06, 0.00, 57.76, 64.52
GPS, 3, 540940800, 9, 1.80, -33.7840301, 151.0681837, 1.68, 96.18, 0.13, 23.64
CTUN, 605, 0.00, 1.76, 0.000000, 0.00, 0, -21, 605, 0
ATT, 4.61, 3.00, 0.00, 0.57, 0.00, 58.28, 64.52
DU32, 7, 8569
CURR, 605, 96934, 1082, 1315, 4732, 64.62700
CTUN, 605, 0.00, 1.66, 0.000000, 0.00, 0, -18, 605, 0
ATT, 5.42, 3.30, 0.00, 0.44, 0.00, 58.97, 64.52
GPS, 3, 540941000, 9, 1.80, -33.7840303, 151.0681839, 1.64, 96.20, 0.15, 23.64
CTUN, 606, 0.00, 1.72, 0.000000, 0.00, 0, -19, 606, 0
ATT, 4.84, 4.12, 1.75, 0.87, 0.00, 59.57, 64.52
CTUN, 605, 0.00, 1.59, 0.000000, 0.00, 1, -17, 606, 0
ATT, 6.46, 4.41, 2.92, 1.70, 0.00, 60.12, 64.52
GPS, 3, 540941200, 10, 1.77, -33.7840305, 151.0681841, 1.61, 96.28, 0.14, 23.64
CTUN, 605, 0.00, 1.59, 0.000000, 0.00, 1, -13, 606, 0
ATT, 6.11, 4.77, 2.92, 1.93, 0.00, 60.48, 64.52
CTUN, 605, 0.00, 1.66, 0.000000, 0.00, 1, -11, 606, 0
GPS, 3, 540941400, 10, 1.77, -33.7840310, 151.0681848, 1.58, 96.37, 0.40, 23.64
ATT, 4.50, 4.81, 2.34, 2.09, 0.00, 60.75, 64.52
CTUN, 605, 0.00, 1.60, 0.000000, 0.00, 2, -14, 607, 0
ATT, 2.65, 4.22, 0.93, 1.84, 0.00, 60.92, 64.52
CTUN, 605, 0.00, 1.66, 0.000000, 0.00, 1, -14, 606, 0
GPS, 3, 540941600, 10, 1.77, -33.7840316, 151.0681851, 1.56, 96.43, 0.41, 99.49
CTUN, 605, 0.00, 1.52, 0.000000, 0.00, 1, -12, 606, 0
ATT, 1.50, 3.58, 0.35, 0.96, 0.00, 61.12, 64.52
CTUN, 605, 0.00, 1.65, 0.000000, 0.00, 0, -12, 605, 0
ATT, 1.38, 2.94, 0.35, 0.08, 0.00, 61.32, 64.52
GPS, 3, 540941800, 10, 1.77, -33.7840322, 151.0681857, 1.54, 96.32, 0.39, 99.49
CTUN, 605, 0.00, 1.66, 0.000000, 0.00, 0, -12, 605, 0
ATT, 0.00, 2.31, 0.00, -0.19, 0.00, 61.49, 64.52
DU32, 7, 8569
CURR, 605, 102385, 1084, 1303, 4693, 68.19019
CTUN, 605, 0.00, 1.49, 0.000000, 0.00, 0, -9, 605, 0
ATT, 0.00, 1.51, 0.00, -0.48, 0.00, 61.61, 64.52
GPS, 3, 540942000, 10, 1.77, -33.7840331, 151.0681862, 1.53, 96.27, 0.56, 133.08
CTUN, 605, 0.00, 1.58, 0.000000, 0.00, 0, -9, 605, 0
ATT, 0.00, 1.18, 0.00, -0.56, 0.00, 61.67, 64.52
CTUN, 605, 0.00, 1.50, 0.000000, 0.00, 0, -11, 605, 0
ATT, 0.00, 1.02, 0.00, -0.39, 0.00, 61.64, 64.52
GPS, 3, 540942200, 9, 1.86, -33.7840340, 151.0681869, 1.51, 96.20, 0.62, 142.73
CTUN, 605, 0.00, 1.45, 0.000000, 0.00, 0, -9, 605, 0
ATT, 0.00, 0.69, 0.00, -0.30, 0.00, 61.55, 64.52
CTUN, 607, 0.00, 1.49, 0.000000, 0.00, 0, -8, 607, 0
ATT, 0.00, 0.61, 0.00, 0.17, 0.00, 61.58, 64.52
GPS, 3, 540942400, 9, 1.86, -33.7840351, 151.0681873, 1.49, 96.22, 0.64, 150.38
CTUN, 615, 0.00, 1.41, 0.000000, 0.00, 0, -11, 615, 0
ATT, 0.00, -0.06, 0.00, 0.29, 0.00, 61.71, 64.52
PM, 0, 0, 50, 0, 1000, 10468, 10, 4
CTUN, 652, 0.00, 1.47, 0.000000, 0.00, 0, -9, 640, 0
GPS, 3, 540942600, 9, 1.86, -33.7840360, 151.0681880, 1.46, 96.23, 0.62, 150.85
ATT, 0.00, -0.74, 0.00, 0.43, 0.00, 61.79, 64.52
CTUN, 663, 0.00, 1.37, 0.000000, 0.00, 0, -1, 663, 0
ATT, 0.00, -0.85, 0.00, 0.61, 0.00, 61.72, 64.52
CTUN, 669, 0.00, 1.48, 0.000000, 0.00, 0, 5, 668, 0
GPS, 3, 540942800, 10, 1.77, -33.7840368, 151.0681888, 1.47, 96.14, 0.55, 150.85
CTUN, 669, 0.00, 1.52, 0.000000, 0.00, 0, 18, 669, 0
ATT, -1.51, -0.90, 0.00, 0.57, 0.00, 61.70, 64.52
DU32, 7, 8569
CURR, 668, 108074, 1069, 1524, 4693, 72.04607
CTUN, 668, 0.00, 1.51, 0.000000, 0.00, 0, 27, 668, 0
ATT, -0.23, -1.12, 0.00, 0.49, 0.00, 61.80, 64.52
GPS, 3, 540943000, 10, 1.77, -33.7840371, 151.0681895, 1.52, 96.08, 0.34, 150.85
CTUN, 671, 0.00, 1.55, 0.000000, 0.00, 0, 40, 671, 0
ATT, 0.00, -0.40, 0.00, 1.58, 0.00, 61.74, 64.52
CTUN, 669, 0.00, 1.51, 0.000000, 0.00, 0, 49, 670, 0
ATT, 0.00, -0.08, 0.00, 2.03, 0.00, 61.65, 64.52
GPS, 3, 540943200, 10, 1.77, -33.7840377, 151.0681899, 1.62, 96.13, 0.45, 154.72
CTUN, 671, 0.00, 1.78, 0.000000, 0.00, 0, 58, 671, 0
ATT, 0.00, -0.06, 0.00, 3.11, 0.00, 61.40, 64.52
CTUN, 669, 0.00, 1.65, 0.000000, 0.00, 0, 70, 669, 0
ATT, 0.00, 0.07, 0.00, 3.41, 0.00, 61.13, 64.52
GPS, 3, 540943400, 10, 1.77, -33.7840381, 151.0681905, 1.76, 96.23, 0.40, 154.72
CTUN, 635, 0.00, 1.72, 0.000000, 0.00, 0, 81, 635, 0
ATT, 0.00, -0.42, 0.00, 2.91, 0.00, 60.93, 64.52
CTUN, 636, 0.00, 1.88, 0.000000, 0.00, 0, 83, 636, 0
GPS, 3, 540943600, 10, 1.77, -33.7840384, 151.0681903, 1.92, 96.55, 0.39, 178.28
ATT, 0.00, -0.79, 0.00, 1.63, 0.00, 60.73, 64.52
CTUN, 619, 0.00, 2.02, 0.000000, 0.00, 0, 86, 619, 0
ATT, 0.00, -0.49, 0.00, 1.21, 0.00, 60.51, 64.52
CTUN, 581, 0.00, 2.17, 0.000000, 0.00, 0, 86, 584, 0
GPS, 3, 540943800, 10, 1.77, -33.7840390, 151.0681900, 2.10, 96.63, 0.36, 193.44
ATT, 0.00, -0.21, 0.00, 0.77, 0.00, 60.43, 64.52
CTUN, 581, 0.00, 2.19, 0.000000, 0.00, 0, 79, 581, 0
DU32, 7, 8569
CURR, 581, 113807, 1084, 1221, 4712, 76.01010
ATT, 0.00, -0.05, 0.00, 0.21, 0.00, 60.43, 64.52
CTUN, 581, 0.00, 2.27, 0.000000, 0.00, 0, 69, 581, 0
GPS, 3, 540944000, 10, 1.77, -33.7840395, 151.0681898, 2.25, 96.69, 0.24, 193.44
CTUN, 581, 0.00, 2.31, 0.000000, 0.00, 0, 62, 581, 0
ATT, 0.00, 0.41, 0.00, 0.01, 0.00, 60.51, 64.52
CTUN, 581, 0.00, 2.34, 0.000000, 0.00, 0, 56, 581, 0
ATT, 0.00, 0.78, 0.00, -0.19, 0.00, 60.65, 64.52
GPS, 3, 540944200, 10, 1.77, -33.7840398, 151.0681892, 2.36, 96.91, 0.34, 211.41
CTUN, 581, 0.00, 2.55, 0.000000, 0.00, 0, 51, 581, 0
ATT, 0.00, 0.91, 0.00, -0.34, 0.00, 60.80, 64.52
CTUN, 581, 0.00, 2.55, 0.000000, 0.00, 0, 44, 582, 0
ATT, 0.00, 0.97, 0.00, -0.29, 0.00, 60.90, 64.52
GPS, 3, 540944400, 10, 1.77, -33.7840402, 151.0681887, 2.46, 97.21, 0.42, 219.08
CTUN, 581, 0.00, 2.58, 0.000000, 0.00, 0, 35, 581, 0
ATT, 0.00, 0.90, 0.00, -0.24, 0.00, 60.96, 64.52
CTUN, 581, 0.00, 2.71, 0.000000, 0.00, 0, 27, 581, 0
ATT, 0.00, 0.76, 0.00, -0.25, 0.00, 61.04, 64.52
GPS, 3, 540944600, 10, 1.77, -33.7840405, 151.0681883, 2.54, 97.37, 0.34, 222.75
CTUN, 581, 0.00, 2.66, 0.000000, 0.00, 0, 22, 581, 0
ATT, 0.00, 0.69, 0.00, -0.36, 0.00, 61.09, 64.52
CTUN, 581, 0.00, 2.56, 0.000000, 0.00, 0, 17, 581, 0
ATT, 0.00, 0.77, 0.00, -0.48, 0.00, 61.20, 64.52
GPS, 3, 540944800, 10, 1.77, -33.7840410, 151.0681879, 2.59, 97.42, 0.34, 223.12
CTUN, 581, 0.00, 2.75, 0.000000, 0.00, 0, 10, 581, 0
ATT, 0.00, 0.73, 0.00, -0.57, 0.00, 61.38, 64.52
CTUN, 581, 0.00, 2.82, 0.000000, 0.00, 0, 4, 581, 0
DU32, 7, 8569
CURR, 581, 119617, 1082, 1229, 4732, 79.49242
ATT, 0.00, 0.50, 0.00, -0.53, 0.00, 61.59, 64.52
GPS, 3, 540945000, 10, 1.77, -33.7840414, 151.0681873, 2.62, 97.33, 0.31, 230.52
CTUN, 581, 0.00, 2.73, 0.000000, 0.00, 0, 0, 578, 0
ATT, 0.00, 0.59, 0.00, -0.52, 0.00, 61.76, 64.52
CTUN, 581, 0.00, 2.85, 0.000000, 0.00, 0, -5, 581, 0
ATT, 0.00, 0.61, 0.00, -0.52, 0.00, 61.89, 64.52
GPS, 3, 540945200, 10, 1.77, -33.7840418, 151.0681868, 2.64, 97.33, 0.31, 233.33
CTUN, 581, 0.00, 2.68, 0.000000, 0.00, 0, -8, 581, 0
ATT, 0.00, 0.55, 0.00, -0.55, 0.00, 62.02, 64.52
CTUN, 581, 0.00, 2.79, 0.000000, 0.00, 0, -12, 581, 0
ATT, 0.00, 0.50, 0.00, -0.39, 0.00, 62.13, 64.52
GPS, 3, 540945400, 10, 1.77, -33.7840422, 151.0681864, 2.63, 97.35, 0.36, 233.13
CTUN, 583, 0.00, 2.70, 0.000000, 0.00, 0, -14, 583, 0
ATT, -0.81, 0.31, 0.00, -0.26, 0.00, 62.23, 64.52
CTUN, 583, 0.00, 2.78, 0.000000, 0.00, 0, -18, 583, 0
ATT, -0.46, -0.17, 0.00, -0.14, 0.00, 62.35, 64.52
GPS, 3, 540945600, 10, 1.77, -33.7840426, 151.0681863, 2.61, 97.29, 0.24, 233.13
CTUN, 584, 0.00, 2.83, 0.000000, 0.00, 0, -18, 583, 0
ATT, -1.86, -0.12, 0.00, -0.26, 0.00, 62.31, 64.52
CTUN, 583, 0.00, 2.83, 0.000000, 0.00, 0, -22, 583, 0
ATT, -2.44, -0.92, 0.00, -0.38, 0.00, 62.09, 64.52
GPS, 3, 540945800, 10, 1.77, -33.7840432, 151.0681859, 2.59, 97.13, 0.33, 225.70
CTUN, 592, 0.00, 2.83, 0.000000, 0.00, 0, -22, 588, 0
ATT, -2.55, -1.16, 0.00, -0.39, 0.00, 61.80, 64.52
CTUN, 599, 0.00, 2.78, 0.000000, 0.00, 0, -25, 599, 0
GPS, 3, 540946000, 10, 1.77, -33.7840438, 151.0681854, 2.57, 97.05, 0.30, 226.85
ATT, -2.79, -1.42, 0.00, -0.22, 0.00, 61.50, 64.52
CTUN, 601, 0.00, 2.75, 0.000000, 0.00, 0, -27, 601, 0
DU32, 7, 8569
CURR, 601, 125458, 1078, 1287, 4752, 83.10628
ATT, -2.67, -1.96, 0.00, -0.62, 0.00, 61.33, 64.52
CTUN, 602, 0.00, 2.74, 0.000000, 0.00, 0, -28, 601, 0
GPS, 3, 540946200, 10, 1.77, -33.7840439, 151.0681851, 2.54, 97.05, 0.21, 226.85
CTUN, 601, 0.00, 2.61, 0.000000, 0.00, 0, -26, 601, 0
ATT, -1.86, -1.89, 0.00, -0.86, 0.00, 61.15, 64.52
CTUN, 601, 0.00, 2.57, 0.000000, 0.00, 0, -24, 601, 0
ATT, -1.97, -1.44, 0.00, -0.76, 0.00, 60.98, 64.52
GPS, 3, 540946400, 10, 1.77, -33.7840437, 151.0681849, 2.50, 97.13, 0.20, 226.85
CTUN, 601, 0.00, 2.74, 0.000000, 0.00, 0, -26, 601, 0
ATT, -1.74, -1.59, 0.00, -0.81, 0.00, 60.87, 64.52
CTUN, 601, 0.00, 2.59, 0.000000, 0.00, 0, -27, 601, 0
ATT, -1.39, -1.68, 0.00, -0.88, 0.00, 60.85, 64.52
GPS, 3, 540946600, 10, 1.77, -33.7840430, 151.0681848, 2.47, 97.22, 0.21, 226.85
CTUN, 607, 0.00, 2.56, 0.000000, 0.00, 0, -25, 607, 0
ATT, -1.39, -1.30, 0.00, -0.77, 0.00, 60.78, 64.52
CTUN, 611, 0.00, 2.67, 0.000000, 0.00, 0, -22, 611, 0
ATT, -1.62, -1.37, 0.00, -0.52, 0.00, 60.68, 64.52
GPS, 3, 540946800, 10, 1.77, -33.7840422, 151.0681845, 2.44, 97.22, 0.30, 272.13
CTUN, 611, 0.00, 2.57, 0.000000, 0.00, 0, -22, 611, 0
ATT, -1.16, -1.36, 0.00, -0.45, 0.00, 60.49, 64.52
CTUN, 611, 0.00, 2.54, 0.000000, 0.00, 0, -19, 611, 0
ATT, 0.00, -1.08, 0.00, -0.60, 0.00, 60.22, 64.52
GPS, 3, 540947000, 10, 1.77, -33.7840418, 151.0681844, 2.41, 97.24, 0.19, 272.13
CTUN, 611, 0.00, 2.67, 0.000000, 0.00, 0, -17, 611, 0
DU32, 7, 8569
CURR, 611, 131513, 1076, 1332, 4712, 87.03632
ATT, 0.00, -0.35, 0.00, -0.49, 0.00, 59.83, 64.52
CTUN, 611, 0.00, 2.56, 0.000000, 0.00, 0, -14, 611, 0
ATT, 0.00, 0.33, 0.00, -0.41, 0.00, 59.55, 64.52
GPS, 3, 540947200, 10, 1.77, -33.7840414, 151.0681840, 2.41, 97.22, 0.32, 301.94
CTUN, 611, 0.00, 2.57, 0.000000, 0.00, 0, -11, 611, 0
ATT, 0.00, 0.43, 0.00, -0.31, 0.00, 59.40, 64.52
CTUN, 611, 0.00, 2.56, 0.000000, 0.00, 0, -10, 611, 0
GPS, 3, 540947400, 10, 1.77, -33.7840410, 151.0681838, 2.40, 97.19, 0.25, 313.43
ATT, 0.00, 0.41, 0.00, -0.30, 0.00, 59.35, 64.52
CTUN, 611, 0.00, 2.42, 0.000000, 0.00, 0, -7, 611, 0
ATT, 0.00, 0.65, 0.00, -0.32, 0.00, 59.37, 64.52
CTUN, 611, 0.00, 2.44, 0.000000, 0.00, 0, -5, 611, 0
GPS, 3, 540947600, 9, 1.80, -33.7840404, 151.0681838, 2.40, 97.14, 0.36, 332.43
ATT, 0.00, 0.83, 0.00, -0.26, 0.00, 59.38, 64.52
CTUN, 611, 0.00, 2.49, 0.000000, 0.00, 0, -5, 611, 0
ATT, 0.00, 0.75, 0.00, -0.44, 0.00, 59.43, 64.52
CTUN, 611, 0.00, 2.54, 0.000000, 0.00, 0, -4, 611, 0
GPS, 3, 540947800, 9, 1.80, -33.7840398, 151.0681838, 2.40, 97.11, 0.29, 334.82
CTUN, 611, 0.00, 2.49, 0.000000, 0.00, 0, -4, 611, 0
ATT, 0.00, 0.62, 0.00, -0.58, 0.00, 59.53, 64.52
CTUN, 612, 0.00, 2.44, 0.000000, 0.00, 0, -3, 611, 0
ATT, 0.00, 0.60, 0.00, -0.59, 0.00, 59.59, 64.52
GPS, 3, 540948000, 10, 1.77, -33.7840394, 151.0681838, 2.40, 97.08, 0.27, 334.82
CTUN, 611, 0.00, 2.49, 0.000000, 0.00, 0, -1, 611, 0
ATT, 0.00, 0.57, 0.00, -0.52, 0.00, 59.67, 64.52
DU32, 7, 8569
CURR, 611, 137012, 1075, 1329, 4732, 90.63196
CTUN, 611, 0.00, 2.37, 0.000000, 0.00, 0, -1, 611, 0
ATT, 0.00, 0.89, 0.00, -0.41, 0.00, 59.74, 64.52
GPS, 3, 540948200, 10, 1.77, -33.7840392, 151.0681838, 2.41, 97.08, 0.25, 334.82
CTUN, 611, 0.00, 2.55, 0.000000, 0.00, 0, -1, 611, 0
ATT, 0.00, 0.97, 0.00, -0.24, 0.00, 59.82, 64.52
CTUN, 611, 0.00, 2.49, 0.000000, 0.00, 0, 0, 611, 0
ATT, 0.00, 0.63, 0.00, -0.02, 0.00, 59.92, 64.52
GPS, 3, 540948400, 10, 1.77, -33.7840388, 151.0681837, 2.41, 97.05, 0.27, 334.82
CTUN, 611, 0.00, 2.48, 0.000000, 0.00, 0, 1, 611, 0
ATT, 0.00, 0.47, 0.00, 0.17, 0.00, 59.99, 64.52
CTUN, 611, 0.00, 2.52, 0.000000, 0.00, 0, 1, 611, 0
ATT, 0.00, 0.49, 0.00, 0.23, 0.00, 59.96, 64.52
GPS, 3, 540948600, 10, 1.77, -33.7840385, 151.0681837, 2.43, 97.00, 0.26, 334.82
CTUN, 611, 0.00, 2.47, 0.000000, 0.00, 0, 4, 611, 0
ATT, 0.00, 0.55, 0.00, 0.36, 0.00, 59.84, 64.52
CTUN, 611, 0.00, 2.55, 0.000000, 0.00, 0, 5, 611, 0
ATT, 0.00, 0.49, 0.00, 0.51, 0.00, 59.67, 64.52
GPS, 3, 540948800, 10, 1.77, -33.7840378, 151.0681840, 2.45, 96.98, 0.33, 357.49
CTUN, 611, 0.00, 2.48, 0.000000, 0.00, 0, 6, 611, 0
ATT, 0.00, 0.60, 0.00, 0.49, 0.00, 59.49, 64.52
CTUN, 611, 0.00, 2.46, 0.000000, 0.00, 0, 7, 611, 0
GPS, 3, 540949000, 10, 1.77, -33.7840374, 151.0681840, 2.47, 97.00, 0.26, 357.34
ATT, 0.00, 0.86, 0.00, 0.62, 0.00, 59.32, 64.52
CTUN, 611, 0.00, 2.55, 0.000000, 0.00, 0, 9, 611, 0
DU32, 7, 8569
CURR, 611, 142511, 1073, 1331, 4752, 94.13891
ATT, 0.00, 0.91, 0.00, 0.77, 0.00, 59.03, 64.52
CTUN, 611, 0.00, 2.55, 0.000000, 0.00, 0, 11, 611, 0
GPS, 3, 540949200, 10, 1.77, -33.7840369, 151.0681839, 2.49, 97.03, 0.27, 358.98
CTUN, 611, 0.00, 2.67, 0.000000, 0.00, 0, 12, 611, 0
ATT, 0.00, 0.66, 0.00, 0.62, 0.00, 58.64, 64.52
CTUN, 611, 0.00, 2.56, 0.000000, 0.00, 0, 14, 611, 0
ATT, 0.00, 0.57, 0.00, 0.39, 0.00, 58.24, 64.52
GPS, 3, 540949400, 10, 1.77, -33.7840365, 151.0681840, 2.53, 97.04, 0.24, 358.98
CTUN, 611, 0.00, 2.58, 0.000000, 0.00, 0, 17, 611, 0
ATT, 0.00, 0.55, 0.00, 0.30, 0.00, 57.74, 64.52
CTUN, 611, 0.00, 2.72, 0.000000, 0.00, 0, 18, 611, 0
ATT, 0.00, 0.62, 0.00, 0.22, 0.00, 57.39, 64.52
GPS, 3, 540949600, 10, 1.77, -33.7840362, 151.0681841, 2.58, 97.04, 0.20, 358.98
CTUN, 611, 0.00, 2.61, 0.000000, 0.00, 0, 21, 611, 0
ATT, 0.00, 0.95, 0.00, 0.49, 0.00, 57.01, 64.52
CTUN, 611, 0.00, 2.63, 0.000000, 0.00, 0, 22, 611, 0
ATT, 0.00, 0.99, 0.00, 0.54, 0.00, 56.75, 64.52
GPS, 3, 540949800, 10, 1.77, -33.7840358, 151.0681841, 2.63, 97.09, 0.21, 358.98
CTUN, 611, 0.00, 2.60, 0.000000, 0.00, 0, 24, 611, 0
ATT, 0.00, 0.81, 0.00, 0.61, 0.00, 56.60, 64.52
CTUN, 612, 0.00, 2.62, 0.000000, 0.00, 0, 25, 611, 0
GPS, 3, 540950000, 10, 1.77, -33.7840354, 151.0681839, 2.68, 97.08, 0.18, 358.98
ATT, 0.00, 0.70, 0.00, 0.80, 0.00, 56.56, 64.52
CTUN, 611, 0.00, 2.76, 0.000000, 0.00, 0, 28, 611, 0
DU32, 7, 8569
CURR, 611, 148010, 1074, 1369, 4752, 97.89615
ATT, 0.00, 0.59, 0.00, 0.88, 0.00, 56.56, 64.52
CTUN, 611, 0.00, 2.69, 0.000000, 0.00, 0, 30, 611, 0
GPS, 3, 540950200, 10, 1.77, -33.7840354, 151.0681840, 2.74, 97.08, 0.06, 358.98
CTUN, 611, 0.00, 2.75, 0.000000, 0.00, 0, 31, 611, 0
ATT, 2.65, 0.62, 0.00, 0.77, 0.00, 56.61, 64.52
CTUN, 611, 0.00, 2.88, 0.000000, 0.00, 0, 33, 611, 0
ATT, 2.42, 1.02, 0.00, 0.53, 0.00, 56.68, 64.52
GPS, 3, 540950400, 10, 1.77, -33.7840351, 151.0681837, 2.81, 97.19, 0.20, 358.98
CTUN, 611, 0.00, 2.90, 0.000000, 0.00, 0, 35, 611, 0
ATT, 1.84, 2.04, 0.00, 0.99, 0.00, 56.68, 64.52
CTUN, 611, 0.00, 2.89, 0.000000, 0.00, 0, 37, 611, 0
ATT, 1.96, 2.07, 0.00, 1.01, 0.00, 56.76, 64.52
GPS, 3, 540950600, 10, 1.77, -33.7840351, 151.0681837, 2.89, 97.31, 0.02, 358.98
CTUN, 611, 0.00, 2.88, 0.000000, 0.00, 0, 38, 611, 0
ATT, 1.03, 1.44, 0.00, 0.90, 0.00, 56.84, 64.52
CTUN, 611, 0.00, 2.93, 0.000000, 0.00, 0, 40, 611, 0
ATT, 0.46, 0.86, 0.00, 1.00, 0.00, 56.95, 64.52
GPS, 3, 540950800, 9, 1.86, -33.7840352, 151.0681836, 2.97, 97.44, 0.07, 358.98
CTUN, 611, 0.00, 2.88, 0.000000, 0.00, 0, 42, 611, 0
ATT, 0.00, 0.19, 0.00, 0.91, 0.00, 57.12, 64.52
CTUN, 611, 0.00, 3.02, 0.000000, 0.00, 0, 42, 611, 0
GPS, 3, 540951000, 9, 1.86, -33.7840354, 151.0681833, 3.05, 97.63, 0.20, 358.98
ATT, 0.00, -0.50, 0.00, 0.70, 0.00, 57.34, 64.52
CTUN, 597, 0.00, 3.11, 0.000000, 0.00, 0, 43, 611, 0
DU32, 7, 8569
CURR, 586, 154095, 1073, 1340, 4752, 102.0690
ATT, 0.00, -0.95, 0.00, 0.50, 0.00, 57.56, 64.52
CTUN, 587, 0.00, 3.16, 0.000000, 0.00, 0, 43, 586, 0
GPS, 3, 540951200, 9, 1.86, -33.7840355, 151.0681830, 3.14, 97.76, 0.15, 358.98
ATT, 0.00, -1.09, -0.84, 0.43, 0.00, 57.80, 64.52
CTUN, 586, 0.00, 3.23, 0.000000, 0.00, 0, 39, 586, 0
ATT, 0.00, -1.00, -0.60, -0.03, 0.00, 58.08, 64.52
CTUN, 586, 0.00, 3.21, 0.000000, 0.00, 0, 37, 587, 0
GPS, 3, 540951400, 9, 1.86, -33.7840357, 151.0681828, 3.22, 97.84, 0.13, 358.98
ATT, 0.00, -1.49, 0.00, -0.49, 0.00, 58.37, 64.52
CTUN, 584, 0.00, 3.26, 0.000000, 0.00, 0, 33, 586, 0
ATT, 0.00, -1.71, 0.00, -0.48, 0.00, 58.58, 64.52
CTUN, 587, 0.00, 3.28, 0.000000, 0.00, 0, 26, 587, 0
GPS, 3, 540951600, 10, 1.77, -33.7840358, 151.0681825, 3.28, 97.97, 0.17, 358.98
ATT, 0.00, -1.63, 0.00, -0.31, 0.00, 58.73, 64.52
CTUN, 586, 0.00, 3.36, 0.000000, 0.00, 0, 21, 586, 0
ATT, 0.34, -1.66, 0.00, 0.00, 0.00, 58.71, 64.52
CTUN, 586, 0.00, 3.29, 0.000000, 0.00, 0, 18, 586, 0
GPS, 3, 540951800, 10, 1.77, -33.7840359, 151.0681823, 3.32, 98.08, 0.20, 358.98
ATT, 1.84, -1.23, 0.00, 0.30, 0.00, 58.61, 64.52
CTUN, 586, 0.00, 3.43, 0.000000, 0.00, 0, 15, 586, 0
ATT, 1.50, -0.47, 0.00, 0.36, 0.00, 58.47, 64.52
CTUN, 586, 0.00, 3.39, 0.000000, 0.00, 0, 12, 586, 0
GPS, 3, 540952000, 10, 1.77, -33.7840359, 151.0681819, 3.36, 98.12, 0.34, 320.31
CTUN, 586, 0.00, 3.37, 0.000000, 0.00, 0, 11, 586, 0
ATT, 1.96, -0.09, 0.00, 0.58, 0.00, 58.29, 64.52
DU32, 7, 8569
CURR, 586, 159372, 1078, 1257, 4752, 105.2588
CTUN, 586, 0.00, 3.34, 0.000000, 0.00, 0, 10, 586, 0
ATT, 1.50, 0.19, 0.00, 0.51, 0.00, 58.00, 64.52
GPS, 3, 540952200, 10, 1.77, -33.7840356, 151.0681815, 3.38, 98.13, 0.36, 314.17
CTUN, 588, 0.00, 3.45, 0.000000, 0.00, 0, 7, 588, 0
ATT, 1.96, 0.53, 0.00, 0.54, 0.00, 57.52, 64.52
CTUN, 588, 0.00, 3.42, 0.000000, 0.00, 0, 2, 588, 0
ATT, 2.42, 0.97, 0.00, 0.64, 0.00, 57.03, 64.52
GPS, 3, 540952400, 10, 1.77, -33.7840354, 151.0681809, 3.39, 98.17, 0.38, 309.90
CTUN, 591, 0.00, 3.37, 0.000000, 0.00, 0, 1, 591, 0
ATT, 4.15, 1.90, 0.00, 0.83, 0.00, 56.40, 64.52
PM, 0, 0, 50, 0, 1000, 10464, 9, 4
CTUN, 596, 0.00, 3.40, 0.000000, 0.00, 0, -2, 594, 0
ATT, 3.57, 2.91, 0.00, 0.79, 0.00, 55.90, 64.52
GPS, 3, 540952600, 10, 1.77, -33.7840352, 151.0681805, 3.39, 98.15, 0.37, 304.49
CTUN, 600, 0.00, 3.49, 0.000000, 0.00, 0, -4, 601, 0
ATT, 3.11, 2.68, 0.00, 0.65, 0.00, 55.72, 64.52
CTUN, 605, 0.00, 3.57, 0.000000, 0.00, 0, -7, 605, 0
ATT, 2.76, 2.25, 0.00, 0.41, 0.00, 55.71, 64.52
GPS, 3, 540952800, 10, 1.77, -33.7840349, 151.0681802, 3.39, 98.12, 0.37, 304.94
CTUN, 615, 0.00, 3.39, 0.000000, 0.00, 0, -8, 615, 0
ATT, 2.53, 1.93, -0.48, 0.26, 0.00, 55.83, 64.52
CTUN, 616, 0.00, 3.35, 0.000000, 0.00, 0, -7, 616, 0
GPS, 3, 540953000, 10, 1.77, -33.7840350, 151.0681796, 3.38, 98.07, 0.42, 289.69
ATT, 2.53, 2.24, -0.97, 0.24, 0.00, 55.85, 64.52
CTUN, 615, 0.00, 3.40, 0.000000, 0.00, 0, -6, 614, 0
DU32, 7, 8569
CURR, 615, 165370, 1071, 1361, 4752, 109.2136
ATT, 2.30, 2.48, -1.45, -0.11, 0.00, 55.75, 64.52
CTUN, 614, 0.00, 3.38, 0.000000, 0.00, 0, -4, 614, 0
GPS, 3, 540953200, 10, 1.77, -33.7840348, 151.0681794, 3.37, 98.01, 0.26, 289.69
ATT, 2.07, 2.21, -1.81, -0.89, 0.00, 55.51, 64.52
CTUN, 615, 0.00, 3.40, 0.000000, 0.00, 0, -2, 615, 0
ATT, 1.61, 2.21, -1.81, -1.33, 0.00, 55.25, 64.52
CTUN, 614, 0.00, 3.45, 0.000000, 0.00, 0, -2, 614, 0
GPS, 3, 540953400, 10, 1.77, -33.7840348, 151.0681789, 3.37, 98.01, 0.29, 289.69
CTUN, 615, 0.00, 3.32, 0.000000, 0.00, 0, 0, 615, 0
ATT, 1.38, 2.35, -1.81, -1.58, 0.00, 54.98, 64.52
CTUN, 615, 0.00, 3.35, 0.000000, 0.00, 0, 1, 615, 0
ATT, 1.96, 2.15, -1.81, -1.80, 0.00, 54.76, 64.52
GPS, 3, 540953600, 10, 1.77, -33.7840350, 151.0681785, 3.37, 98.02, 0.24, 289.69
CTUN, 617, 0.00, 3.42, 0.000000, 0.00, 0, 2, 614, 0
ATT, 1.50, 1.75, -2.54, -2.19, 0.00, 54.59, 64.52
CTUN, 616, 0.00, 3.22, 0.000000, 0.00, 0, 4, 616, 0
ATT, 0.92, 1.45, -3.51, -2.16, 0.00, 54.63, 64.52
GPS, 3, 540953800, 10, 1.77, -33.7840352, 151.0681785, 3.37, 97.97, 0.17, 289.69
CTUN, 616, 0.00, 3.32, 0.000000, 0.00, 0, 5, 616, 0
ATT, 0.80, 1.52, -4.00, -2.14, 0.00, 54.81, 64.52
CTUN, 617, 0.00, 3.34, 0.000000, 0.00, 0, 7, 616, 0
GPS, 3, 540954000, 10, 1.77, -33.7840355, 151.0681785, 3.38, 97.92, 0.15, 289.69
ATT, 0.69, 1.39, -4.36, -2.75, 0.00, 55.18, 64.52
CTUN, 618, 0.00, 3.34, 0.000000, 0.00, 0, 8, 618, 0
DU32, 7, 8569
CURR, 616, 170908, 1069, 1368, 4752, 113.0284
ATT, 0.23, 0.99, -3.88, -3.37, 0.00, 55.59, 64.52
CTUN, 614, 0.00, 3.38, 0.000000, 0.00, 0, 9, 616, 0
GPS, 3, 540954200, 10, 1.49, -33.7840358, 151.0681787, 3.39, 97.87, 0.10, 289.69
ATT, 0.00, 0.71, -3.76, -3.67, 0.00, 56.08, 64.52
CTUN, 616, 0.00, 3.29, 0.000000, 0.00, 1, 9, 617, 0
ATT, 0.00, 0.63, -3.39, -3.31, 0.00, 56.55, 64.52
CTUN, 616, 0.00, 3.45, 0.000000, 0.00, 0, 9, 618, 0
GPS, 3, 540954400, 9, 1.83, -33.7840360, 151.0681792, 3.40, 97.85, 0.11, 289.69
CTUN, 616, 0.00, 3.29, 0.000000, 0.00, 0, 8, 616, 0
ATT, 0.00, 0.44, -3.39, -3.01, 0.00, 57.22, 64.52
CTUN, 617, 0.00, 3.41, 0.000000, 0.00, 0, 10, 617, 0
ATT, 0.00, 0.44, -3.15, -2.95, 0.00, 57.68, 64.52
GPS, 3, 540954600, 10, 1.49, -33.7840361, 151.0681799, 3.42, 97.79, 0.19, 289.69
CTUN, 618, 0.00, 3.28, 0.000000, 0.00, 0, 10, 618, 0
ATT, 0.00, 0.36, -2.54, -2.76, 0.00, 58.11, 64.52
CTUN, 616, 0.00, 3.39, 0.000000, 0.00, 0, 9, 618, 0
ATT, 0.00, 0.42, -2.06, -2.31, 0.00, 58.25, 64.52
GPS, 3, 540954800, 11, 1.40, -33.7840362, 151.0681806, 3.43, 97.75, 0.25, 289.69
CTUN, 618, 0.00, 3.29, 0.000000, 0.00, 0, 11, 617, 0
ATT, 0.00, 0.44, -2.54, -1.86, 0.00, 58.28, 64.52
CTUN, 618, 0.00, 3.31, 0.000000, 0.00, 0, 11, 618, 0
GPS, 3, 540955000, 10, 1.77, -33.7840362, 151.0681818, 3.44, 97.70, 0.41, 25.13
ATT, 0.00, 0.20, -2.42, -1.85, 0.00, 58.13, 64.52
CTUN, 619, 0.00, 3.42, 0.000000, 0.00, 0, 12, 619, 0
DU32, 7, 8569
CURR, 619, 176461, 1069, 1365, 4732, 116.7927
ATT, 0.00, 0.19, -0.24, -1.59, 0.00, 57.89, 64.52
CTUN, 619, 0.00, 3.45, 0.000000, 0.00, 0, 15, 617, 0
GPS, 3, 540955200, 9, 1.87, -33.7840361, 151.0681827, 3.46, 97.72, 0.28, 25.13
ATT, 0.00, -0.18, 0.00, -0.47, 0.00, 57.56, 64.52
CTUN, 618, 0.00, 3.37, 0.000000, 0.00, 0, 18, 618, 0
ATT, 0.00, -0.12, 0.00, 0.20, 0.00, 57.23, 64.52
CTUN, 619, 0.00, 3.44, 0.000000, 0.00, 0, 18, 618, 0
GPS, 3, 540955400, 9, 1.87, -33.7840360, 151.0681839, 3.49, 97.73, 0.45, 54.27
CTUN, 619, 0.00, 3.46, 0.000000, 0.00, 0, 20, 619, 0
ATT, 0.00, -0.45, 0.00, 0.45, 0.00, 57.06, 64.52
CTUN, 618, 0.00, 3.43, 0.000000, 0.00, 0, 21, 619, 0
ATT, 0.00, -0.71, 0.00, 0.31, 0.00, 57.16, 64.52
GPS, 3, 540955600, 9, 1.87, -33.7840357, 151.0681848, 3.53, 97.73, 0.45, 57.64
CTUN, 618, 0.00, 3.42, 0.000000, 0.00, 0, 21, 618, 0
ATT, 0.00, -0.36, 0.00, 0.15, 0.00, 57.61, 64.52
CTUN, 617, 0.00, 3.56, 0.000000, 0.00, 0, 21, 618, 0
ATT, 1.96, -0.06, 0.00, 0.09, 0.00, 58.24, 64.52
GPS, 3, 540955800, 10, 1.77, -33.7840353, 151.0681854, 3.56, 97.77, 0.30, 56.40
CTUN, 619, 0.00, 3.52, 0.000000, 0.00, 0, 23, 618, 0
ATT, 5.42, 0.96, 0.00, -0.11, 0.00, 58.81, 64.52
CTUN, 618, 0.00, 3.56, 0.000000, 0.00, 0, 23, 618, 0
GPS, 3, 540956000, 10, 1.77, -33.7840349, 151.0681861, 3.60, 97.82, 0.35, 55.49
ATT, 7.84, 3.69, 0.00, -0.17, 0.00, 59.17, 64.52
CTUN, 619, 0.00, 3.47, 0.000000, 0.00, 1, 24, 620, 0
DU32, 7, 8569
CURR, 618, 182027, 1068, 1355, 4693, 120.5670
ATT, 6.69, 5.69, 0.00, 0.00, 0.00, 59.24, 64.52
CTUN, 616, 0.00, 3.65, 0.000000, 0.00, 2, 25, 619, 0
GPS, 3, 540956200, 9, 1.83, -33.7840345, 151.0681867, 3.64, 97.88, 0.38, 53.76
ATT, 6.00, 6.44, 0.00, 0.40, 0.00, 59.14, 64.52
CTUN, 619, 0.00, 3.62, 0.000000, 0.00, 3, 28, 622, 0
ATT, 6.23, 6.18, 0.00, 0.42, 0.00, 58.92, 64.52
CTUN, 619, 0.00, 3.64, 0.000000, 0.00, 2, 28, 621, 0
GPS, 3, 540956400, 9, 1.87, -33.7840347, 151.0681872, 3.70, 97.98, 0.21, 53.76
CTUN, 618, 0.00, 3.74, 0.000000, 0.00, 2, 31, 620, 0
ATT, 3.80, 5.53, 0.00, 0.23, 0.00, 58.60, 64.52
CTUN, 617, 0.00, 3.81, 0.000000, 0.00, 1, 33, 620, 0
ATT, 0.00, 4.04, 0.00, 0.23, 0.00, 58.31, 64.52
GPS, 3, 540956600, 9, 1.83, -33.7840349, 151.0681881, 3.76, 98.01, 0.38, 74.15
CTUN, 617, 0.00, 3.81, 0.000000, 0.00, 0, 34, 617, 0
ATT, 0.00, 0.84, 0.00, -0.51, 0.00, 58.13, 64.52
CTUN, 617, 0.00, 3.78, 0.000000, 0.00, 0, 36, 617, 0
ATT, 0.00, -0.80, 0.00, -1.29, 0.00, 58.04, 64.52
GPS, 3, 540956800, 10, 1.77, -33.7840353, 151.0681889, 3.84, 98.05, 0.37, 85.15
CTUN, 619, 0.00, 3.98, 0.000000, 0.00, 0, 35, 619, 0
ATT, 0.00, -1.19, 0.00, -1.46, 0.00, 57.96, 64.52
CTUN, 619, 0.00, 3.92, 0.000000, 0.00, 0, 37, 620, 0
GPS, 3, 540957000, 10, 1.77, -33.7840355, 151.0681899, 3.92, 98.13, 0.42, 101.79
ATT, 0.00, -1.20, 0.00, -1.35, 0.00, 57.86, 64.52
CTUN, 619, 0.00, 3.99, 0.000000, 0.00, 0, 39, 619, 0
DU32, 7, 8569
CURR, 619, 187600, 1067, 1364, 4712, 124.3521
ATT, 0.00, -0.84, 0.00, -1.05, 0.00, 57.86, 64.52
CTUN, 619, 0.00, 3.92, 0.000000, 0.00, 0, 40, 617, 0
GPS, 3, 540957200, 10, 1.77, -33.7840357, 151.0681908, 4.00, 98.18, 0.38, 105.35
ATT, 0.00, -0.62, 0.00, -0.58, 0.00, 58.10, 64.52
CTUN, 619, 0.00, 4.03, 0.000000, 0.00, 0, 40, 619, 0
ATT, 0.00, -0.54, 1.05, -0.49, 0.00, 58.46, 64.52
CTUN, 618, 0.00, 3.90, 0.000000, 0.00, 0, 41, 618, 0
GPS, 3, 540957400, 10, 1.77, -33.7840356, 151.0681916, 4.08, 98.25, 0.30, 105.35
CTUN, 619, 0.00, 4.07, 0.000000, 0.00, 0, 42, 619, 0
ATT, 0.00, -0.57, 0.70, -0.06, 0.00, 58.98, 64.52
CTUN, 618, 0.00, 4.15, 0.000000, 0.00, 0, 41, 618, 0
ATT, 0.00, -0.24, 0.70, 0.38, 0.00, 59.35, 64.52
GPS, 3, 540957600, 9, 1.80, -33.7840354, 151.0681928, 4.15, 98.27, 0.45, 88.85
CTUN, 618, 0.00, 4.09, 0.000000, 0.00, 0, 42, 618, 0
ATT, 0.00, -0.38, 0.82, 0.27, 0.00, 59.76, 64.52
CTUN, 617, 0.00, 4.31, 0.000000, 0.00, 0, 44, 618, 0
ATT, 0.34, -0.26, 0.11, 0.11, 0.00, 59.98, 64.52
GPS, 3, 540957800, 10, 1.77, -33.7840352, 151.0681934, 4.24, 98.30, 0.27, 88.85
CTUN, 619, 0.00, 4.22, 0.000000, 0.00, 0, 43, 619, 0
ATT, 5.42, 0.17, 3.51, -0.14, 0.00, 60.01, 64.52
CTUN, 619, 0.00, 4.27, 0.000000, 0.00, 0, 40, 619, 0
GPS, 3, 540958000, 10, 1.77, -33.7840348, 151.0681941, 4.32, 98.32, 0.30, 88.85
ATT, 4.84, 2.56, 3.98, 1.29, 0.00, 59.73, 64.52
CTUN, 619, 0.00, 4.27, 0.000000, 0.00, 0, 43, 619, 0
DU32, 7, 8569
CURR, 619, 193167, 1070, 1366, 4732, 128.0844
ATT, 4.15, 4.57, 4.45, 3.29, 0.00, 59.49, 64.52
CTUN, 619, 0.00, 4.35, 0.000000, 0.00, 2, 43, 621, 0
GPS, 3, 540958200, 10, 1.77, -33.7840345, 151.0681950, 4.40, 98.42, 0.31, 81.25
ATT, 5.42, 5.27, 3.98, 4.67, 0.00, 59.34, 64.52
CTUN, 618, 0.00, 4.37, 0.000000, 0.00, 3, 45, 621, 0
ATT, 6.46, 5.04, 4.57, 4.22, 0.00, 59.24, 64.52
CTUN, 618, 0.00, 4.51, 0.000000, 0.00, 3, 43, 621, 0
GPS, 3, 540958400, 10, 1.77, -33.7840344, 151.0681956, 4.48, 98.47, 0.21, 81.25
CTUN, 618, 0.00, 4.43, 0.000000, 0.00, 2, 46, 620, 0
ATT, 3.11, 4.86, 3.63, 3.88, 0.00, 59.19, 64.52
CTUN, 618, 0.00, 4.52, 0.000000, 0.00, 2, 47, 620, 0
ATT, 0.00, 4.27, 1.75, 4.03, 0.00, 59.23, 64.52
GPS, 3, 540958600, 10, 1.77, -33.7840345, 151.0681961, 4.57, 98.52, 0.19, 81.25
CTUN, 618, 0.00, 4.54, 0.000000, 0.00, 2, 46, 620, 0
ATT, 0.00, 2.87, 0.00, 3.10, 0.00, 59.39, 64.52
CTUN, 618, 0.00, 4.62, 0.000000, 0.00, 0, 46, 618, 0
ATT, 0.00, 0.51, 0.00, 0.68, 0.00, 59.61, 64.52
GPS, 3, 540958800, 10, 1.77, -33.7840349, 151.0681965, 4.66, 98.58, 0.28, 115.64
CTUN, 610, 0.00, 4.72, 0.000000, 0.00, 0, 47, 618, 0
ATT, 0.00, 0.24, 0.00, -0.02, 0.00, 59.77, 64.52
CTUN, 600, 0.00, 4.73, 0.000000, 0.00, 0, 45, 600, 0
GPS, 3, 540959000, 10, 1.77, -33.7840355, 151.0681965, 4.76, 98.68, 0.22, 115.64
ATT, 0.00, -0.07, 0.00, -0.31, 0.00, 59.93, 64.52
CTUN, 600, 0.00, 4.78, 0.000000, 0.00, 0, 45, 600, 0
DU32, 7, 8569
CURR, 600, 198707, 1071, 1271, 4752, 131.7722
ATT, 0.00, -0.28, 0.00, -0.62, 0.00, 60.09, 64.52
CTUN, 600, 0.00, 4.77, 0.000000, 0.00, 0, 45, 600, 0
GPS, 3, 540959200, 10, 1.77, -33.7840360, 151.0681967, 4.85, 98.76, 0.28, 151.36
ATT, 0.00, -0.42, 0.00, -0.62, 0.00, 60.27, 64.52
CTUN, 600, 0.00, 4.81, 0.000000, 0.00, 0, 44, 600, 0
ATT, 0.00, -0.17, 0.00, -0.54, 0.00, 60.36, 64.52
CTUN, 600, 0.00, 4.85, 0.000000, 0.00, 0, 45, 600, 0
GPS, 3, 540959400, 10, 1.77, -33.7840365, 151.0681968, 4.93, 98.83, 0.27, 170.00
ATT, 0.00, -0.03, 0.00, -0.39, 0.00, 60.40, 64.52
CTUN, 600, 0.00, 4.89, 0.000000, 0.00, 0, 45, 600, 0
ATT, 0.00, 0.18, 0.00, -0.22, 0.00, 60.38, 64.52
CTUN, 600, 0.00, 4.89, 0.000000, 0.00, 0, 44, 600, 0
GPS, 3, 540959600, 10, 1.77, -33.7840369, 151.0681971, 5.00, 98.88, 0.23, 170.00
ATT, 0.00, 0.44, 0.00, -0.03, 0.00, 60.38, 64.52
CTUN, 600, 0.00, 4.93, 0.000000, 0.00, 0, 41, 600, 0
ATT, 0.00, 0.47, 0.00, 0.04, 0.00, 60.39, 64.52
CTUN, 600, 0.00, 4.96, 0.000000, 0.00, 0, 37, 600, 0
GPS, 3, 540959800, 10, 1.77, -33.7840371, 151.0681973, 5.07, 98.95, 0.09, 170.00
ATT, 0.00, 0.74, 0.00, 0.20, 0.00, 60.40, 64.52
CTUN, 600, 0.00, 5.00, 0.000000, 0.00, 0, 32, 600, 0
ATT, 0.00, 0.86, 0.00, 0.06, 0.00, 60.44, 64.52
CTUN, 600, 0.00, 5.08, 0.000000, 0.00, 0, 27, 600, 0
GPS, 3, 540960000, 10, 1.77, -33.7840373, 151.0681976, 5.12, 99.02, 0.06, 170.00
CTUN, 600, 0.00, 5.03, 0.000000, 0.00, 0, 24, 600, 0
ATT, 0.00, 0.65, 0.00, -0.18, 0.00, 60.50, 64.52
DU32, 7, 8569
CURR, 600, 204107, 1066, 1268, 4752, 135.2072
CTUN, 600, 0.00, 5.02, 0.000000, 0.00, 0, 22, 600, 0
ATT, 0.00, 0.49, 0.00, -0.13, 0.00, 60.54, 64.52
GPS, 3, 540960200, 10, 1.77, -33.7840376, 151.0681978, 5.16, 99.09, 0.08, 170.00
CTUN, 600, 0.00, 4.99, 0.000000, 0.00, 0, 22, 600, 0
ATT, 0.00, 0.52, 0.00, -0.11, 0.00, 60.56, 64.52
CTUN, 599, 0.00, 5.02, 0.000000, 0.00, 0, 22, 599, 0
GPS, 3, 540960400, 10, 1.77, -33.7840380, 151.0681976, 5.19, 99.11, 0.06, 170.00
ATT, 0.00, 0.36, 0.00, -0.21, 0.00, 60.54, 64.52
MODE, ALT_HOLD, 607
CTUN, 600, 0.00, 5.15, 0.000000, 0.00, 0, 22, 600, 0
ATT, 0.00, 0.35, 0.00, -0.17, 0.00, 60.48, 64.52
CTUN, 600, 0.00, 5.16, 5.410000, 0.00, 0, 21, 605, 0
GPS, 3, 540960600, 10, 1.77, -33.7840385, 151.0681973, 5.22, 99.09, 0.07, 170.00
ATT, 0.00, 0.45, 0.00, 0.05, 0.00, 60.43, 64.52
CTUN, 600, 0.00, 5.16, 5.410200, 0.00, 0, 18, 611, 0
ATT, 0.00, 0.44, 0.00, 0.27, 0.00, 60.35, 64.52
CTUN, 600, 0.00, 5.18, 5.410200, 0.00, 0, 16, 604, 0
GPS, 3, 540960800, 9, 1.98, -33.7840390, 151.0681969, 5.25, 99.08, 0.07, 170.00
ATT, 0.00, 0.54, 0.00, 0.31, 0.00, 60.23, 64.52
CTUN, 600, 0.00, 5.03, 5.410200, 0.00, 0, 17, 592, 0
ATT, 0.00, 0.72, 0.00, 0.32, 0.00, 60.16, 64.52
CTUN, 600, 0.00, 5.06, 5.410200, 0.00, 0, 17, 591, 0
GPS, 3, 540961000, 8, 2.02, -33.7840395, 151.0681965, 5.26, 99.08, 0.07, 170.00
CTUN, 600, 0.00, 5.14, 5.410200, 0.00, 0, 16, 594, 0
ATT, 0.00, 0.75, 0.00, 0.31, 0.00, 60.11, 64.52
DU32, 7, 8569
CURR, 600, 209508, 1072, 1237, 4712, 138.7512
CTUN, 600, 0.00, 5.05, 5.410200, 0.00, 0, 15, 602, 0
ATT, 0.00, 0.72, 0.00, 0.14, 0.00, 60.05, 64.52
GPS, 3, 540961200, 10, 1.45, -33.7840398, 151.0681961, 5.28, 99.10, 0.10, 170.00
CTUN, 600, 0.00, 5.26, 5.410200, 0.00, 0, 12, 611, 0
ATT, 0.00, 0.55, 0.00, 0.26, 0.00, 59.95, 64.52
CTUN, 600, 0.00, 5.13, 5.410200, 0.00, 0, 8, 620, 0
GPS, 3, 540961400, 10, 1.45, -33.7840400, 151.0681958, 5.28, 99.10, 0.09, 170.00
ATT, 0.00, 0.38, 0.00, 0.40, 0.00, 59.90, 64.52
CTUN, 599, 0.00, 5.08, 5.410200, 0.00, 0, 11, 607, 0
ATT, 0.00, 0.21, 0.00, 0.33, 0.00, 59.88, 64.52
CTUN, 601, 0.00, 5.17, 5.410200, 0.00, 0, 10, 628, 0
GPS, 3, 540961600, 10, 1.77, -33.7840400, 151.0681955, 5.28, 99.08, 0.16, 170.00
ATT, 0.00, 0.16, 0.00, 0.24, 0.00, 59.97, 64.52
CTUN, 600, 0.00, 5.11, 5.410200, 0.00, 0, 10, 612, 0
ATT, 0.00, 0.07, 0.00, 0.20, 0.00, 60.12, 64.52
CTUN, 600, 0.00, 5.07, 5.410200, 0.00, 0, 12, 616, 0
GPS, 3, 540961800, 10, 1.77, -33.7840400, 151.0681950, 5.29, 99.03, 0.20, 170.00
ATT, 0.00, 0.21, 0.00, -0.02, 0.00, 60.34, 64.52
CTUN, 601, 0.00, 5.08, 5.410200, 0.00, 0, 9, 631, 0
MODE, LOITER, 607
NTUN, 0.00, 0.00, 0.000000, 0.000000, 0.000000, 0.000000, -4.478971, -19.81693, 0.000000, 0.000000, 0.22, -0.13
