dump 4

ArduCopter V3.1-rc3.1
Free RAM: 1138
APM 2
FMT, 128, 89, FMT, BBnNZ, Type,Length,Name,Format
FMT, 129, 23, PARM, Nf, Name,Value
FMT, 130, 35, GPS, BIBcLLeeEe, Status,Time,NSats,HDop,Lat,Lng,RelAlt,Alt,Spd,GCrs
FMT, 131, 27, IMU, ffffff, GyrX,GyrY,GyrZ,AccX,AccY,AccZ
FMT, 132, 67, MSG, Z, Message
FMT, 9, 19, CURR, hIhhhf, Thr,ThrInt,Volt,Curr,Vcc,CurrTot
FMT, 11, 11, MOT, hhhh, Mot1,Mot2,Mot3,Mot4
FMT, 12, 28, OF, hhBccffee, Dx,Dy,SQual,X,Y,Lat,Lng,Roll,Pitch
FMT, 5, 49, NTUN, Ecffffffffee, WPDst,WPBrg,PErX,PErY,DVelX,DVelY,VelX,VelY,DAcX,DAcY,DRol,DPit
FMT, 4, 25, CTUN, hcefchhhh, ThrIn,SonAlt,BarAlt,WPAlt,DesSonAlt,AngBst,CRate,ThrOut,DCRate
FMT, 15, 21, MAG, hhhhhhhhh, MagX,MagY,MagZ,OfsX,OfsY,OfsZ,MOfsX,MOfsY,MOfsZ
FMT, 6, 17, PM, BBBHHIhB, RenCnt,RenBlw,FixCnt,NLon,NLoop,MaxT,PMT,I2CErr
FMT, 8, 20, CMD, BBBBBeLL, CTot,CNum,CId,COpt,Prm1,Alt,Lat,Lng
FMT, 1, 17, ATT, cccccCC, RollIn,Roll,PitchIn,Pitch,YawIn,Yaw,NavYaw
FMT, 17, 37, INAV, cccfffiiff, BAlt,IAlt,IClb,ACorrX,ACorrY,ACorrZ,GLat,GLng,ILat,ILng
FMT, 3, 6, MODE, Mh, Mode,ThrCrs
FMT, 10, 3, STRT, , 
FMT, 13, 4, EV, B, Id
FMT, 20, 6, D16, Bh, Id,Value
FMT, 21, 6, DU16, BH, Id,Value
FMT, 22, 8, D32, Bi, Id,Value
FMT, 23, 8, DU32, BI, Id,Value
FMT, 24, 8, DFLT, Bf, Id,Value
FMT, 14, 28, PID, Biiiiif, Id,Error,P,I,D,Out,Gain
FMT, 18, 25, CAM, ILLeccC, GPSTime,Lat,Lng,Alt,Roll,Pitch,Yaw
FMT, 19, 5, ERR, BB, Subsys,ECode
D32, 9, 4547
CMD, 1, 0, 16, 0, 0, 0.00, -33.7840716, 151.0682378
EV, 10
DU32, 7, 8793
DU32, 7, 8793
DU32, 7, 8793
DU32, 7, 8793
DU32, 7, 8793
DU32, 7, 8793
DU32, 7, 8793
DU32, 7, 8793
PM, 0, 0, 51, 3, 1000, 7331956, 17, 4
DU32, 7, 8793
DU32, 7, 8793
DU32, 7, 8793
DU32, 7, 8793
DU32, 7, 8793
DU32, 7, 8793
DU32, 7, 8793
DU32, 7, 8793
DU32, 7, 8793
DU32, 7, 8793
PM, 0, 0, 50, 1, 1002, 10536, 10, 4
DU32, 7, 8793
DU32, 7, 8793
DU32, 7, 8793
EV, 28
DU32, 7, 8281
DU32, 7, 8281
EV, 18
EV, 28
DU32, 7, 8281
DU32, 7, 8281
EV, 18
DU32, 7, 8793
DU32, 7, 8793
DU32, 7, 8793
D32, 9, 5046
CMD, 1, 0, 16, 0, 0, 0.00, -33.7840582, 151.0682258
EV, 10
GPS, 3, 458246800, 10, 1.52, -33.7840586, 151.0682261, -0.04, 93.84, 0.14, 320.19
CTUN, 0, 0.00, 0.00, 0.000000, 0.00, 0, -5, 0, 0
ATT, 0.00, 1.07, 0.00, 2.12, 0.00, 50.48, 50.48
CTUN, 0, 0.00, 0.04, 0.000000, 0.00, 0, -5, 0, 0
ATT, 0.00, 1.12, 0.00, 2.29, 0.00, 50.46, 50.46
GPS, 3, 458249000, 10, 1.52, -33.7840595, 151.0682194, -0.04, 93.93, 0.01, 320.19
CTUN, 0, 0.00, 0.06, 0.000000, 0.00, 0, -5, 0, 0
ATT, 0.00, 1.13, 0.00, 2.41, 0.00, 50.47, 50.47
CTUN, 0, 0.00, -0.03, 0.000000, 0.00, 0, -5, 0, 0
ATT, 0.00, 1.08, 0.00, 2.38, 0.00, 50.47, 50.47
GPS, 3, 458249200, 10, 1.52, -33.7840608, 151.0682199, -0.05, 93.91, 0.01, 320.19
CTUN, 0, 0.00, 0.00, 0.000000, 0.00, 0, -5, 0, 0
ATT, 0.00, 1.06, 0.00, 2.38, 0.00, 50.49, 50.49
CTUN, 0, 0.00, -0.15, 0.000000, 0.00, 0, -5, 0, 0
ATT, 0.00, 1.06, 0.00, 2.37, 0.00, 50.50, 50.50
PM, 0, 0, 50, 2, 1000, 2067428, 12, 4
GPS, 3, 458249400, 10, 1.52, -33.7840626, 151.0682204, -0.06, 93.88, 0.01, 320.19
CTUN, 0, 0.00, -0.12, 0.000000, 0.00, 0, -5, 0, 0
ATT, 0.00, 1.06, 0.00, 2.37, 0.00, 50.52, 50.52
DU32, 7, 8793
CURR, 0, 0, 1231, 87, 4772, 0.284048
CTUN, 0, 0.00, -0.16, 0.000000, 0.00, 0, -5, 0, 0
ATT, 0.00, 1.05, 0.00, 2.37, 0.00, 50.53, 50.53
GPS, 3, 458249600, 10, 1.52, -33.7840649, 151.0682205, -0.08, 93.87, 0.03, 320.19
CTUN, 0, 0.00, -0.18, 0.000000, 0.00, 0, -5, 0, 0
ATT, 0.00, 1.05, 0.00, 2.36, 0.00, 50.55, 50.55
CTUN, 0, 0.00, -0.08, 0.000000, 0.00, 0, -5, 0, 0
ATT, 0.00, 1.04, 0.00, 2.35, 0.00, 50.55, 50.55
GPS, 3, 458249800, 10, 1.52, -33.7840657, 151.0682212, -0.09, 93.88, 0.02, 320.19
CTUN, 0, 0.00, -0.11, 0.000000, 0.00, 0, -5, 0, 0
ATT, 0.00, 1.04, 0.00, 2.35, 0.00, 50.57, 50.57
CTUN, 0, 0.00, -0.22, 0.000000, 0.00, 0, -5, 0, 0
ATT, 0.00, 1.05, 0.00, 2.34, 0.00, 50.58, 50.58
GPS, 3, 458250000, 10, 1.52, -33.7840666, 151.0682213, -0.11, 93.91, 0.04, 320.19
CTUN, 0, 0.00, -0.14, 0.000000, 0.00, 0, -5, 0, 0
ATT, 0.00, 1.05, 0.00, 2.34, 0.00, 50.60, 50.60
CTUN, 0, 0.00, -0.18, 0.000000, 0.00, 0, -5, 0, 0
ATT, 0.00, 1.03, 0.00, 2.32, 0.00, 50.61, 50.61
GPS, 3, 458250200, 10, 1.52, -33.7840664, 151.0682212, -0.13, 93.93, 0.06, 320.19
CTUN, 0, 0.00, -0.17, 0.000000, 0.00, 0, -5, 0, 0
ATT, 0.00, 1.02, 0.00, 2.30, 0.00, 50.63, 50.63
CTUN, 0, 0.00, -0.26, 0.000000, 0.00, 0, -5, 0, 0
ATT, 0.00, 1.02, 0.00, 2.29, 0.00, 50.64, 50.64
GPS, 3, 458250400, 10, 1.52, -33.7840661, 151.0682209, -0.15, 93.91, 0.17, 320.19
CTUN, 0, 0.00, -0.32, 0.000000, 0.00, 0, -5, 0, 0
ATT, 0.00, 0.99, 0.00, 2.28, 0.00, 50.67, 50.67
DU32, 7, 8793
CURR, 0, 0, 1231, 65, 4772, 0.484326
CTUN, 0, 0.00, -0.21, 0.000000, 0.00, 0, -5, 0, 0
ATT, 0.00, 0.94, 0.00, 2.27, 0.00, 50.68, 50.68
GPS, 3, 458250600, 10, 1.52, -33.7840661, 151.0682203, -0.17, 93.92, 0.21, 320.19
CTUN, 0, 0.00, -0.22, 0.000000, 0.00, 0, -5, 0, 0
ATT, 0.00, 0.92, 0.00, 2.26, 0.00, 50.69, 50.69
CTUN, 0, 0.00, -0.20, 0.000000, 0.00, 0, -5, 0, 0
ATT, 0.00, 0.91, 0.00, 2.25, 0.00, 50.72, 50.72
GPS, 3, 458250800, 10, 1.52, -33.7840660, 151.0682199, -0.19, 93.84, 0.06, 320.19
CTUN, 0, 0.00, -0.16, 0.000000, 0.00, 0, -5, 0, 0
ATT, 0.00, 0.93, 0.00, 2.26, 0.00, 50.74, 50.74
CTUN, 0, 0.00, -0.19, 0.000000, 0.00, 0, -5, 0, 0
ATT, 0.00, 0.96, 0.00, 2.28, 0.00, 50.74, 50.74
GPS, 3, 458251000, 10, 1.52, -33.7840658, 151.0682193, -0.20, 93.83, 0.02, 320.19
CTUN, 0, 0.00, -0.26, 0.000000, 0.00, 0, -5, 0, 0
ATT, 0.00, 0.98, 0.00, 2.27, 0.00, 50.76, 50.76
CTUN, 0, 0.00, -0.26, 0.000000, 0.00, 0, -5, 0, 0
ATT, 0.00, 0.99, 0.00, 2.29, 0.00, 50.78, 50.78
GPS, 3, 458251200, 10, 1.52, -33.7840657, 151.0682194, -0.21, 93.83, 0.05, 320.19
CTUN, 0, 0.00, -0.22, 0.000000, 0.00, 0, -5, 0, 0
ATT, 0.00, 0.99, 0.00, 2.29, 0.00, 50.79, 50.79
CTUN, 0, 0.00, -0.16, 0.000000, 0.00, 0, -5, 0, 0
ATT, 0.00, 0.97, 0.00, 2.27, 0.00, 50.81, 50.81
GPS, 3, 458251400, 9, 1.61, -33.7840660, 151.0682193, -0.22, 93.76, 0.02, 320.19
CTUN, 0, 0.00, -0.12, 0.000000, 0.00, 0, -5, 0, 0
ATT, 0.00, 0.97, 0.00, 2.26, 0.00, 50.81, 50.81
DU32, 7, 8793
CURR, 0, 0, 1226, 64, 4712, 0.688082
CTUN, 0, 0.00, -0.12, 0.000000, 0.00, 0, -5, 0, 0
ATT, 0.00, 0.98, 0.00, 2.26, 0.00, 50.83, 50.83
GPS, 3, 458251600, 9, 1.61, -33.7840661, 151.0682189, -0.22, 93.72, 0.10, 320.19
CTUN, 0, 0.00, -0.22, 0.000000, 0.00, 0, -5, 0, 0
ATT, 0.00, 0.97, 0.00, 2.25, 0.00, 50.85, 50.85
CTUN, 0, 0.00, -0.29, 0.000000, 0.00, 0, -5, 0, 0
ATT, 0.00, 0.94, 0.00, 2.24, 0.00, 50.86, 50.86
GPS, 3, 458251800, 9, 1.61, -33.7840665, 151.0682185, -0.24, 93.62, 0.04, 320.19
CTUN, 0, 0.00, -0.29, 0.000000, 0.00, 0, -5, 0, 0
ATT, 0.00, 0.94, 0.00, 2.25, 0.00, 50.88, 50.88
CTUN, 0, 0.00, -0.17, 0.000000, 0.00, 0, -5, 0, 0
ATT, 0.00, 0.98, 0.00, 2.25, 0.00, 50.89, 50.89
GPS, 3, 458252000, 9, 1.61, -33.7840666, 151.0682182, -0.25, 93.53, 0.03, 320.19
CTUN, 0, 0.00, -0.25, 0.000000, 0.00, 0, -5, 0, 0
ATT, 0.00, 0.99, 0.00, 2.26, 0.00, 50.91, 50.91
CTUN, 0, 0.00, -0.19, 0.000000, 0.00, 0, -5, 0, 0
ATT, 0.00, 0.98, 0.00, 2.26, 0.00, 50.93, 50.93
GPS, 3, 458252200, 10, 1.52, -33.7840666, 151.0682178, -0.26, 93.47, 0.03, 320.19
CTUN, 0, 0.00, -0.25, 0.000000, 0.00, 0, -5, 0, 0
ATT, 0.00, 0.97, 0.00, 2.25, 0.00, 50.95, 50.95
CTUN, 0, 0.00, -0.26, 0.000000, 0.00, 0, -5, 0, 0
ATT, 0.00, 0.98, 0.00, 2.24, 0.00, 50.96, 50.96
GPS, 3, 458252400, 10, 1.52, -33.7840668, 151.0682176, -0.27, 93.38, 0.06, 320.19
CTUN, 0, 0.00, -0.25, 0.000000, 0.00, 0, -5, 0, 0
ATT, 0.00, 0.99, 0.00, 2.23, 0.00, 50.97, 50.97
DU32, 7, 8793
CURR, 0, 0, 1226, 78, 4793, 0.887330
CTUN, 0, 0.00, -0.29, 0.000000, 0.00, 0, -5, 0, 0
ATT, 0.00, 0.99, 0.00, 2.23, 0.00, 50.98, 50.98
GPS, 3, 458252600, 10, 1.52, -33.7840670, 151.0682172, -0.28, 93.33, 0.05, 320.19
CTUN, 0, 0.00, -0.20, 0.000000, 0.00, 0, -5, 0, 0
ATT, 0.00, 0.99, 0.00, 2.23, 0.00, 50.99, 50.99
CTUN, 0, 0.00, -0.21, 0.000000, 0.00, 0, -5, 0, 0
ATT, 0.00, 0.99, 0.00, 2.23, 0.00, 51.01, 51.01
GPS, 3, 458252800, 10, 1.52, -33.7840669, 151.0682166, -0.28, 93.32, 0.01, 320.19
CTUN, 0, 0.00, -0.33, 0.000000, 0.00, 0, -5, 0, 0
ATT, 0.00, 0.97, 0.00, 2.22, 0.00, 51.02, 51.02
CTUN, 0, 0.00, -0.27, 0.000000, 0.00, 0, -5, 0, 0
ATT, 0.00, 0.95, 0.00, 2.23, 0.00, 51.04, 51.04
GPS, 3, 458253000, 10, 1.52, -33.7840670, 151.0682160, -0.29, 93.32, 0.04, 320.19
CTUN, 0, 0.00, -0.35, 0.000000, 0.00, 0, -5, 0, 0
ATT, 0.00, 0.95, 0.00, 2.21, 0.00, 51.05, 51.05
CTUN, 0, 0.00, -0.28, 0.000000, 0.00, 0, -5, 0, 0
ATT, 0.00, 0.96, 0.00, 2.20, 0.00, 51.07, 51.07
GPS, 3, 458253200, 10, 1.52, -33.7840671, 151.0682154, -0.31, 93.30, 0.01, 320.19
CTUN, 0, 0.00, -0.29, 0.000000, 0.00, 0, -5, 0, 0
ATT, 0.00, 0.95, 0.00, 2.20, 0.00, 51.09, 51.09
CTUN, 0, 0.00, -0.36, 0.000000, 0.00, 0, -5, 0, 0
ATT, 0.00, 0.94, 0.00, 2.19, 0.00, 51.10, 51.10
GPS, 3, 458253400, 10, 1.52, -33.7840673, 151.0682149, -0.32, 93.31, 0.01, 320.19
CTUN, 0, 0.00, -0.30, 0.000000, 0.00, 0, -5, 0, 0
ATT, 0.00, 0.94, 0.00, 2.20, 0.00, 51.10, 51.10
DU32, 7, 8793
CURR, 0, 0, 1228, 60, 4752, 1.083907
CTUN, 0, 0.00, -0.41, 0.000000, 0.00, 0, -5, 0, 0
ATT, 0.00, 0.93, 0.00, 2.19, 0.00, 51.12, 51.12
GPS, 3, 458253600, 10, 1.52, -33.7840675, 151.0682144, -0.33, 93.33, 0.02, 320.19
CTUN, 0, 0.00, -0.27, 0.000000, 0.00, 0, -5, 0, 0
EV, 15
ATT, 0.00, 0.93, 0.00, 2.18, 0.00, 51.12, 51.12
CTUN, 142, 0.00, -0.30, 0.000000, 0.00, 0, -5, 135, 0
ATT, 0.00, 0.93, 0.00, 2.19, 0.00, 51.12, 51.12
GPS, 3, 458253800, 10, 1.52, -33.7840678, 151.0682140, -0.34, 93.35, 0.01, 320.19
CTUN, 156, 0.00, -0.46, 0.000000, 0.00, 0, -5, 143, 0
EV, 28
ATT, 0.00, 0.96, 0.00, 2.20, 0.00, 51.12, 51.13
CTUN, 161, 0.00, -0.58, 0.000000, 0.00, 0, -5, 161, 0
ATT, 0.00, 0.94, 0.00, 2.17, 0.00, 51.14, 51.13
GPS, 3, 458254000, 10, 1.52, -33.7840679, 151.0682136, -0.36, 93.40, 0.03, 320.19
CTUN, 147, 0.00, -0.64, 0.000000, 0.00, 0, -5, 163, 0
ATT, 0.00, 0.96, 0.00, 2.17, 0.00, 51.14, 51.13
CTUN, 132, 0.00, -0.68, 0.000000, 0.00, 0, -6, 134, 0
GPS, 3, 458254200, 10, 1.52, -33.7840678, 151.0682131, -0.41, 93.45, 0.02, 320.19
ATT, 0.00, 0.93, 0.00, 2.18, 0.00, 51.15, 51.15
CTUN, 0, 0.00, -0.73, 0.000000, 0.00, 0, -6, 0, 0
ATT, 0.00, 0.92, 0.00, 2.18, 0.00, 51.19, 51.19
CTUN, 0, 0.00, -0.61, 0.000000, 0.00, 0, -6, 0, 0
GPS, 3, 458254400, 10, 1.52, -33.7840680, 151.0682127, -0.45, 93.46, 0.03, 320.19
ATT, 0.00, 0.93, 0.00, 2.17, 0.00, 51.21, 51.21
CTUN, 0, 0.00, -0.44, 0.000000, 0.00, 0, -6, 0, 0
DU32, 7, 8281
CURR, 0, 734, 1229, 56, 4732, 1.521072
ATT, 0.00, 0.93, 0.00, 2.17, 0.00, 51.22, 51.22
CTUN, 0, 0.00, -0.47, 0.000000, 0.00, 0, -6, 0, 0
GPS, 3, 458254600, 10, 1.52, -33.7840681, 151.0682123, -0.47, 93.49, 0.02, 320.19
ATT, 0.00, 0.94, 0.00, 2.16, 0.00, 51.23, 51.23
CTUN, 0, 0.00, -0.37, 0.000000, 0.00, 0, -6, 0, 0
ATT, 0.00, 0.93, 0.00, 2.15, 0.00, 51.26, 51.26
CTUN, 0, 0.00, -0.41, 0.000000, 0.00, 0, -6, 0, 0
GPS, 3, 458254800, 10, 1.52, -33.7840681, 151.0682117, -0.47, 93.54, 0.02, 320.19
ATT, 0.00, 0.93, 0.00, 2.15, 0.00, 51.27, 51.27
CTUN, 0, 0.00, -0.41, 0.000000, 0.00, 0, -6, 0, 0
ATT, 0.00, 0.91, 0.00, 2.15, 0.00, 51.28, 51.28
CTUN, 0, 0.00, -0.39, 0.000000, 0.00, 0, -6, 0, 0
GPS, 3, 458255000, 10, 1.52, -33.7840680, 151.0682112, -0.48, 93.64, 0.03, 320.19
ATT, 0.00, 0.89, 0.00, 2.16, 0.00, 51.29, 51.29
CTUN, 0, 0.00, -0.37, 0.000000, 0.00, 0, -6, 0, 0
ATT, 0.00, 0.89, 0.00, 2.14, 0.00, 51.30, 51.30
CTUN, 0, 0.00, -0.37, 0.000000, 0.00, 0, -6, 0, 0
EV, 18
GPS, 3, 458255200, 10, 1.52, -33.7840679, 151.0682107, -0.48, 93.72, 0.04, 320.19
ATT, 0.00, 0.88, 0.00, 2.14, 0.00, 51.32, 51.32
CTUN, 0, 0.00, -0.40, 0.000000, 0.00, 0, -6, 0, 0
ATT, 0.00, 0.88, 0.00, 2.13, 0.00, 51.34, 51.34
CTUN, 0, 0.00, -0.36, 0.000000, 0.00, 0, -6, 0, 0
GPS, 3, 458255400, 10, 1.52, -33.7840678, 151.0682102, -0.48, 93.82, 0.02, 320.19
ATT, 0.00, 0.86, 0.00, 2.12, 0.00, 51.35, 51.35
CTUN, 0, 0.00, -0.39, 0.000000, 0.00, 0, -5, 0, 0
ATT, 0.00, 0.87, 0.00, 2.12, 0.00, 51.36, 51.36
DU32, 7, 8793
CURR, 0, 734, 1228, 66, 4732, 1.722278
CTUN, 0, 0.00, -0.38, 0.000000, 0.00, 0, -5, 0, 0
GPS, 3, 458255600, 10, 1.52, -33.7840678, 151.0682098, -0.48, 93.91, 0.01, 320.19
ATT, 0.00, 0.87, 0.00, 2.13, 0.00, 51.37, 51.37
CTUN, 0, 0.00, -0.33, 0.000000, 0.00, 0, -5, 0, 0
ATT, 0.00, 0.87, 0.00, 2.12, 0.00, 51.39, 51.39
CTUN, 0, 0.00, -0.45, 0.000000, 0.00, 0, -5, 0, 0
GPS, 3, 458255800, 10, 1.52, -33.7840679, 151.0682094, -0.48, 93.91, 0.01, 320.19
ATT, 0.00, 0.89, 0.00, 2.11, 0.00, 51.39, 51.39
CTUN, 0, 0.00, -0.41, 0.000000, 0.00, 0, -5, 0, 0
ATT, 0.00, 0.88, 0.00, 2.11, 0.00, 51.41, 51.41
CTUN, 0, 0.00, -0.44, 0.000000, 0.00, 0, -5, 0, 0
GPS, 3, 458256000, 10, 1.52, -33.7840678, 151.0682089, -0.48, 93.92, 0.02, 320.19
ATT, 0.00, 0.88, 0.00, 2.09, 0.00, 51.42, 51.42
CTUN, 0, 0.00, -0.52, 0.000000, 0.00, 0, -5, 0, 0
ATT, 0.00, 0.86, 0.00, 2.10, 0.00, 51.43, 51.43
CTUN, 0, 0.00, -0.42, 0.000000, 0.00, 0, -5, 0, 0
GPS, 3, 458256200, 10, 1.52, -33.7840675, 151.0682083, -0.49, 94.01, 0.02, 320.19
ATT, 0.00, 0.86, 0.00, 2.10, 0.00, 51.43, 51.43
CTUN, 0, 0.00, -0.40, 0.000000, 0.00, 0, -5, 0, 0
ATT, 0.00, 0.86, 0.00, 2.09, 0.00, 51.46, 51.46
CTUN, 0, 0.00, -0.49, 0.000000, 0.00, 0, -5, 0, 0
GPS, 3, 458256400, 10, 1.52, -33.7840674, 151.0682079, -0.50, 94.04, 0.01, 320.19
ATT, 0.00, 0.86, 0.00, 2.09, 0.00, 51.47, 51.47
CTUN, 0, 0.00, -0.44, 0.000000, 0.00, 0, -5, 0, 0
ATT, 0.00, 0.86, 0.00, 2.09, 0.00, 51.47, 51.47
DU32, 7, 8793
CURR, 0, 734, 1228, 82, 4732, 1.928911
CTUN, 0, 0.00, -0.52, 0.000000, 0.00, 0, -4, 0, 0
GPS, 3, 458256600, 10, 1.52, -33.7840674, 151.0682075, -0.50, 94.06, 0.01, 320.19
ATT, 0.00, 0.85, 0.00, 2.08, 0.00, 51.49, 51.49
CTUN, 0, 0.00, -0.52, 0.000000, 0.00, 0, -5, 0, 0
ATT, 0.00, 0.86, 0.00, 2.07, 0.00, 51.49, 51.49
CTUN, 0, 0.00, -0.51, 0.000000, 0.00, 0, -5, 0, 0
GPS, 3, 458256800, 10, 1.52, -33.7840673, 151.0682071, -0.51, 94.06, 0.00, 320.19
ATT, 0.00, 0.86, 0.00, 2.07, 0.00, 51.50, 51.50
CTUN, 0, 0.00, -0.49, 0.000000, 0.00, 0, -5, 0, 0
ATT, 0.00, 0.86, 0.00, 2.07, 0.00, 51.52, 51.52
CTUN, 0, 0.00, -0.54, 0.000000, 0.00, 0, -4, 0, 0
GPS, 3, 458257000, 10, 1.52, -33.7840673, 151.0682068, -0.52, 94.08, 0.02, 320.19
ATT, 0.00, 0.85, 0.00, 2.06, 0.00, 51.53, 51.53
CTUN, 0, 0.00, -0.50, 0.000000, 0.00, 0, -5, 0, 0
ATT, 0.00, 0.85, 0.00, 2.06, 0.00, 51.54, 51.54
CTUN, 0, 0.00, -0.39, 0.000000, 0.00, 0, -5, 0, 0
ATT, 0.00, 0.86, 0.00, 2.05, 0.00, 51.55, 51.55
GPS, 3, 458257200, 10, 1.52, -33.7840673, 151.0682064, -0.53, 94.07, 0.02, 320.19
CTUN, 0, 0.00, -0.42, 0.000000, 0.00, 0, -4, 0, 0
ATT, 0.00, 0.85, 0.00, 2.05, 0.00, 51.56, 51.56
CTUN, 0, 0.00, -0.41, 0.000000, 0.00, 0, -4, 0, 0
GPS, 3, 458257400, 10, 1.52, -33.7840673, 151.0682062, -0.52, 94.05, 0.05, 320.19
ATT, 0.00, 0.84, 0.00, 2.06, 0.00, 51.56, 51.56
CTUN, 0, 0.00, -0.45, 0.000000, 0.00, 0, -4, 0, 0
ATT, 0.00, 0.85, 0.00, 2.04, 0.00, 51.58, 51.58
DU32, 7, 8793
CURR, 0, 734, 1228, 65, 4772, 2.129004
CTUN, 0, 0.00, -0.48, 0.000000, 0.00, 0, -4, 0, 0
GPS, 3, 458257600, 10, 1.52, -33.7840675, 151.0682060, -0.52, 94.04, 0.02, 320.19
ATT, 0.00, 0.87, 0.00, 2.03, 0.00, 51.58, 51.58
CTUN, 0, 0.00, -0.53, 0.000000, 0.00, 0, -4, 0, 0
ATT, 0.00, 0.85, 0.00, 2.04, 0.00, 51.60, 51.60
CTUN, 0, 0.00, -0.54, 0.000000, 0.00, 0, -4, 0, 0
GPS, 3, 458257800, 10, 1.52, -33.7840678, 151.0682060, -0.53, 94.00, 0.03, 320.19
ATT, 0.00, 0.84, 0.00, 2.02, 0.00, 51.61, 51.61
CTUN, 0, 0.00, -0.47, 0.000000, 0.00, 0, -4, 0, 0
ATT, 0.00, 0.85, 0.00, 2.02, 0.00, 51.63, 51.63
CTUN, 0, 0.00, -0.40, 0.000000, 0.00, 0, -4, 0, 0
GPS, 3, 458258000, 10, 1.52, -33.7840680, 151.0682057, -0.53, 94.00, 0.07, 320.19
ATT, 0.00, 0.85, 0.00, 2.03, 0.00, 51.64, 51.64
CTUN, 0, 0.00, -0.48, 0.000000, 0.00, 0, -4, 0, 0
ATT, 0.00, 0.85, 0.00, 2.03, 0.00, 51.64, 51.64
CTUN, 0, 0.00, -0.44, 0.000000, 0.00, 0, -4, 0, 0
GPS, 3, 458258200, 10, 1.52, -33.7840679, 151.0682055, -0.53, 94.05, 0.03, 320.19
ATT, 0.00, 0.86, 0.00, 2.04, 0.00, 51.66, 51.66
CTUN, 0, 0.00, -0.47, 0.000000, 0.00, 0, -3, 0, 0
ATT, 0.00, 0.83, 0.00, 2.03, 0.00, 51.68, 51.68
CTUN, 0, 0.00, -0.40, 0.000000, 0.00, 0, -3, 0, 0
GPS, 3, 458258400, 10, 1.52, -33.7840681, 151.0682055, -0.53, 94.03, 0.09, 320.19
ATT, 0.00, 0.80, 0.00, 2.01, 0.00, 51.69, 51.69
CTUN, 0, 0.00, -0.43, 0.000000, 0.00, 0, -3, 0, 0
ATT, 0.00, 0.83, 0.00, 2.01, 0.00, 51.69, 51.69
DU32, 7, 8793
CURR, 0, 734, 1224, 78, 4732, 2.332062
CTUN, 0, 0.00, -0.43, 0.000000, 0.00, 0, -3, 0, 0
GPS, 3, 458258600, 9, 1.92, -33.7840680, 151.0682053, -0.52, 94.03, 0.01, 320.19
ATT, 0.00, 0.87, 0.00, 2.01, 0.00, 51.71, 51.71
CTUN, 0, 0.00, -0.61, 0.000000, 0.00, 0, -3, 0, 0
ATT, 0.00, 0.83, 0.00, 2.00, 0.00, 51.72, 51.72
CTUN, 0, 0.00, -0.56, 0.000000, 0.00, 0, -3, 0, 0
GPS, 3, 458258800, 10, 1.68, -33.7840679, 151.0682051, -0.53, 94.01, 0.02, 320.19
ATT, 0.00, 0.81, 0.00, 1.99, 0.00, 51.72, 51.72
CTUN, 0, 0.00, -0.48, 0.000000, 0.00, 0, -3, 0, 0
ATT, 0.00, 0.82, 0.00, 1.99, 0.00, 51.74, 51.74
CTUN, 0, 0.00, -0.56, 0.000000, 0.00, 0, -3, 0, 0
GPS, 3, 458259000, 10, 1.68, -33.7840678, 151.0682049, -0.54, 94.00, 0.02, 320.19
ATT, 0.00, 0.82, 0.00, 1.98, 0.00, 51.75, 51.75
CTUN, 0, 0.00, -0.54, 0.000000, 0.00, 0, -3, 0, 0
ATT, 0.00, 0.82, 0.00, 1.98, 0.00, 51.76, 51.76
CTUN, 0, 0.00, -0.57, 0.000000, 0.00, 0, -3, 0, 0
GPS, 3, 458259200, 10, 1.68, -33.7840676, 151.0682047, -0.55, 93.96, 0.03, 320.19
ATT, 0.00, 0.82, 0.00, 1.98, 0.00, 51.77, 51.77
CTUN, 0, 0.00, -0.57, 0.000000, 0.00, 0, -3, 0, 0
ATT, 0.00, 0.81, 0.00, 1.97, 0.00, 51.78, 51.78
CTUN, 0, 0.00, -0.52, 0.000000, 0.00, 0, -3, 0, 0
PM, 0, 0, 50, 0, 1000, 10420, 10, 4
GPS, 3, 458259400, 10, 1.68, -33.7840675, 151.0682046, -0.56, 93.97, 0.04, 320.19
ATT, 0.00, 0.81, 0.00, 1.95, 0.00, 51.78, 51.78
CTUN, 0, 0.00, -0.56, 0.000000, 0.00, 0, -3, 0, 0
ATT, 0.00, 0.81, 0.00, 1.94, 0.00, 51.79, 51.79
DU32, 7, 8793
CURR, 0, 734, 1227, 71, 4732, 2.534676
CTUN, 0, 0.00, -0.55, 0.000000, 0.00, 0, -3, 0, 0
GPS, 3, 458259600, 10, 1.68, -33.7840671, 151.0682043, -0.56, 93.98, 0.03, 320.19
ATT, 0.00, 0.82, 0.00, 1.94, 0.00, 51.80, 51.80
CTUN, 0, 0.00, -0.50, 0.000000, 0.00, 0, -3, 0, 0
ATT, 0.00, 0.80, 0.00, 1.95, 0.00, 51.81, 51.81
CTUN, 0, 0.00, -0.54, 0.000000, 0.00, 0, -3, 0, 0
GPS, 3, 458259800, 10, 1.68, -33.7840670, 151.0682040, -0.56, 93.99, 0.03, 320.19
ATT, 0.00, 0.79, 0.00, 1.93, 0.00, 51.82, 51.82
CTUN, 0, 0.00, -0.53, 0.000000, 0.00, 0, -3, 0, 0
ATT, 0.00, 0.80, 0.00, 1.94, 0.00, 51.83, 51.83
CTUN, 0, 0.00, -0.52, 0.000000, 0.00, 0, -3, 0, 0
GPS, 3, 458260000, 10, 1.68, -33.7840667, 151.0682038, -0.57, 94.04, 0.02, 320.19
ATT, 0.00, 0.78, 0.00, 1.97, 0.00, 51.83, 51.83
CTUN, 0, 0.00, -0.58, 0.000000, 0.00, 0, -2, 0, 0
ATT, 0.00, 0.79, 0.00, 1.96, 0.00, 51.84, 51.84
CTUN, 0, 0.00, -0.55, 0.000000, 0.00, 0, -2, 0, 0
GPS, 3, 458260200, 10, 1.68, -33.7840667, 151.0682036, -0.57, 94.07, 0.04, 320.19
ATT, 0.00, 0.80, 0.00, 1.94, 0.00, 51.86, 51.86
CTUN, 0, 0.00, -0.54, 0.000000, 0.00, 0, -3, 0, 0
ATT, 0.00, 0.80, 0.00, 1.96, 0.00, 51.86, 51.86
CTUN, 0, 0.00, -0.57, 0.000000, 0.00, 0, -2, 0, 0
GPS, 3, 458260400, 10, 1.68, -33.7840667, 151.0682036, -0.57, 94.02, 0.02, 320.19
ATT, 0.00, 0.79, 0.00, 1.97, 0.00, 51.87, 51.87
CTUN, 0, 0.00, -0.51, 0.000000, 0.00, 0, -2, 0, 0
ATT, 0.00, 0.79, 0.00, 1.94, 0.00, 51.87, 51.87
DU32, 7, 8793
CURR, 0, 734, 1229, 78, 4732, 2.730989
CTUN, 0, 0.00, -0.56, 0.000000, 0.00, 0, -2, 0, 0
GPS, 3, 458260600, 11, 1.30, -33.7840666, 151.0682035, -0.57, 94.01, 0.03, 320.19
ATT, 0.00, 0.78, 0.00, 1.93, 0.00, 51.89, 51.89
CTUN, 0, 0.00, -0.46, 0.000000, 0.00, 0, -2, 0, 0
ATT, 0.00, 0.77, 0.00, 1.93, 0.00, 51.89, 51.89
CTUN, 0, 0.00, -0.55, 0.000000, 0.00, 0, -2, 0, 0
GPS, 3, 458260800, 10, 1.68, -33.7840666, 151.0682036, -0.57, 93.99, 0.06, 320.19
ATT, 0.00, 0.76, 0.00, 1.93, 0.00, 51.90, 51.90
CTUN, 0, 0.00, -0.54, 0.000000, 0.00, 0, -2, 0, 0
ATT, 0.00, 0.78, 0.00, 1.93, 0.00, 51.92, 51.92
CTUN, 0, 0.00, -0.54, 0.000000, 0.00, 0, -2, 0, 0
GPS, 3, 458261000, 11, 1.30, -33.7840664, 151.0682036, -0.57, 93.94, 0.02, 320.19
ATT, 0.00, 0.81, 0.00, 1.93, 0.00, 51.92, 51.92
CTUN, 0, 0.00, -0.53, 0.000000, 0.00, 0, -2, 0, 0
ATT, 0.00, 0.78, 0.00, 1.93, 0.00, 51.93, 51.93
CTUN, 0, 0.00, -0.53, 0.000000, 0.00, 0, -2, 0, 0
GPS, 3, 458261200, 11, 1.30, -33.7840662, 151.0682035, -0.57, 93.91, 0.01, 320.19
ATT, 0.00, 0.77, 0.00, 1.92, 0.00, 51.94, 51.94
CTUN, 0, 0.00, -0.61, 0.000000, 0.00, 0, -2, 0, 0
ATT, 0.00, 0.78, 0.00, 1.91, 0.00, 51.94, 51.94
CTUN, 0, 0.00, -0.57, 0.000000, 0.00, 0, -2, 0, 0
GPS, 3, 458261400, 11, 1.30, -33.7840659, 151.0682034, -0.58, 93.91, 0.01, 320.19
ATT, 0.00, 0.78, 0.00, 1.92, 0.00, 51.95, 51.95
CTUN, 0, 0.00, -0.57, 0.000000, 0.00, 0, -2, 0, 0
ATT, 0.00, 0.77, 0.00, 1.92, 0.00, 51.96, 51.96
DU32, 7, 8793
CURR, 0, 734, 1227, 74, 4772, 2.932006
CTUN, 0, 0.00, -0.56, 0.000000, 0.00, 0, -2, 0, 0
GPS, 3, 458261600, 11, 1.30, -33.7840655, 151.0682033, -0.58, 93.93, 0.02, 320.19
ATT, 0.00, 0.77, 0.00, 1.90, 0.00, 51.96, 51.96
CTUN, 0, 0.00, -0.54, 0.000000, 0.00, 0, -2, 0, 0
ATT, 0.00, 0.76, 0.00, 1.91, 0.00, 51.97, 51.97
CTUN, 0, 0.00, -0.60, 0.000000, 0.00, 0, -2, 0, 0
GPS, 3, 458261800, 10, 1.41, -33.7840653, 151.0682032, -0.58, 93.91, 0.02, 320.19
ATT, 0.00, 0.75, 0.00, 1.89, 0.00, 51.98, 51.98
CTUN, 0, 0.00, -0.57, 0.000000, 0.00, 0, -1, 0, 0
ATT, 0.00, 0.76, 0.00, 1.90, 0.00, 51.99, 51.99
CTUN, 0, 0.00, -0.56, 0.000000, 0.00, 0, -1, 0, 0
GPS, 3, 458262000, 10, 1.41, -33.7840652, 151.0682032, -0.59, 93.87, 0.03, 320.19
ATT, 0.00, 0.75, 0.00, 1.90, 0.00, 52.00, 52.00
CTUN, 0, 0.00, -0.52, 0.000000, 0.00, 0, -2, 0, 0
ATT, 0.00, 0.76, 0.00, 1.90, 0.00, 52.01, 52.01
CTUN, 0, 0.00, -0.53, 0.000000, 0.00, 0, -1, 0, 0
GPS, 3, 458262200, 10, 1.41, -33.7840650, 151.0682032, -0.58, 93.86, 0.03, 320.19
ATT, 0.00, 0.78, 0.00, 1.91, 0.00, 52.01, 52.01
CTUN, 0, 0.00, -0.56, 0.000000, 0.00, 0, -1, 0, 0
ATT, 0.00, 0.76, 0.00, 1.91, 0.00, 52.02, 52.02
CTUN, 0, 0.00, -0.57, 0.000000, 0.00, 0, -1, 0, 0
GPS, 3, 458262400, 10, 1.41, -33.7840649, 151.0682033, -0.58, 93.83, 0.03, 320.19
ATT, 0.00, 0.76, 0.00, 1.88, 0.00, 52.02, 52.02
CTUN, 0, 0.00, -0.53, 0.000000, 0.00, 0, -1, 0, 0
ATT, 0.00, 0.77, 0.00, 1.89, 0.00, 52.03, 52.03
DU32, 7, 8793
CURR, 0, 734, 1226, 67, 4732, 3.139093
CTUN, 0, 0.00, -0.56, 0.000000, 0.00, 0, -1, 0, 0
GPS, 3, 458262600, 10, 1.41, -33.7840649, 151.0682034, -0.58, 93.80, 0.07, 320.19
ATT, 0.00, 0.76, 0.00, 1.91, 0.00, 52.05, 52.05
CTUN, 0, 0.00, -0.40, 0.000000, 0.00, 0, -1, 0, 0
ATT, 0.00, 0.77, 0.00, 1.90, 0.00, 52.05, 52.05
CTUN, 0, 0.00, -0.46, 0.000000, 0.00, 0, -1, 0, 0
GPS, 3, 458262800, 10, 1.41, -33.7840650, 151.0682036, -0.57, 93.77, 0.08, 320.19
ATT, 0.00, 0.79, 0.00, 1.89, 0.00, 52.06, 52.06
CTUN, 0, 0.00, -0.49, 0.000000, 0.00, 0, -1, 0, 0
ATT, 0.00, 0.79, 0.00, 1.90, 0.00, 52.07, 52.07
CTUN, 0, 0.00, -0.57, 0.000000, 0.00, 0, -1, 0, 0
GPS, 3, 458263000, 11, 1.30, -33.7840649, 151.0682037, -0.57, 93.76, 0.01, 320.19
ATT, 0.00, 0.79, 0.00, 1.92, 0.00, 52.08, 52.08
CTUN, 0, 0.00, -0.52, 0.000000, 0.00, 0, -1, 0, 0
ATT, 0.00, 0.77, 0.00, 1.91, 0.00, 52.08, 52.08
CTUN, 0, 0.00, -0.53, 0.000000, 0.00, 0, -1, 0, 0
GPS, 3, 458263200, 11, 1.30, -33.7840647, 151.0682037, -0.57, 93.76, 0.01, 320.19
ATT, 0.00, 0.74, 0.00, 1.89, 0.00, 52.10, 52.10
CTUN, 0, 0.00, -0.52, 0.000000, 0.00, 0, -1, 0, 0
ATT, 0.00, 0.75, 0.00, 1.89, 0.00, 52.10, 52.10
CTUN, 0, 0.00, -0.48, 0.000000, 0.00, 0, -1, 0, 0
GPS, 3, 458263400, 11, 1.30, -33.7840646, 151.0682039, -0.56, 93.75, 0.06, 320.19
ATT, 0.00, 0.75, 0.00, 1.90, 0.00, 52.10, 52.10
CTUN, 0, 0.00, -0.44, 0.000000, 0.00, 0, -1, 0, 0
ATT, 0.00, 0.77, 0.00, 1.89, 0.00, 52.11, 52.11
DU32, 7, 8793
CURR, 0, 734, 1226, 75, 4732, 3.346529
CTUN, 0, 0.00, -0.49, 0.000000, 0.00, 0, -1, 0, 0
GPS, 3, 458263600, 11, 1.30, -33.7840647, 151.0682040, -0.55, 93.71, 0.06, 320.19
ATT, 0.00, 0.78, 0.00, 1.88, 0.00, 52.12, 52.12
CTUN, 0, 0.00, -0.51, 0.000000, 0.00, 0, -1, 0, 0
ATT, 0.00, 0.78, 0.00, 1.90, 0.00, 52.13, 52.13
CTUN, 0, 0.00, -0.43, 0.000000, 0.00, 0, -1, 0, 0
GPS, 3, 458263800, 11, 1.30, -33.7840644, 151.0682041, -0.55, 93.74, 0.03, 320.19
ATT, 0.00, 0.78, 0.00, 1.91, 0.00, 52.13, 52.13
CTUN, 0, 0.00, -0.48, 0.000000, 0.00, 0, 0, 0, 0
ATT, 0.00, 0.77, 0.00, 1.89, 0.00, 52.13, 52.13
CTUN, 0, 0.00, -0.52, 0.000000, 0.00, 0, 0, 0, 0
GPS, 3, 458264000, 11, 1.30, -33.7840643, 151.0682042, -0.54, 93.76, 0.04, 320.19
ATT, 0.00, 0.75, 0.00, 1.88, 0.00, 52.14, 52.14
CTUN, 0, 0.00, -0.50, 0.000000, 0.00, 0, 0, 0, 0
ATT, 0.00, 0.76, 0.00, 1.87, 0.00, 52.14, 52.14
CTUN, 0, 0.00, -0.51, 0.000000, 0.00, 0, 0, 0, 0
GPS, 3, 458264200, 11, 1.30, -33.7840641, 151.0682044, -0.54, 93.78, 0.03, 320.19
ATT, 0.00, 0.77, 0.00, 1.89, 0.00, 52.15, 52.15
CTUN, 0, 0.00, -0.46, 0.000000, 0.00, 0, 0, 0, 0
ATT, 0.00, 0.75, 0.00, 1.88, 0.00, 52.16, 52.16
CTUN, 0, 0.00, -0.62, 0.000000, 0.00, 0, 0, 0, 0
GPS, 3, 458264400, 11, 1.30, -33.7840640, 151.0682045, -0.53, 93.82, 0.05, 320.19
ATT, 0.00, 0.76, 0.00, 1.87, 0.00, 52.17, 52.17
CTUN, 0, 0.00, -0.52, 0.000000, 0.00, 0, 0, 0, 0
ATT, 0.00, 0.76, 0.00, 1.88, 0.00, 52.17, 52.17
DU32, 7, 8793
CURR, 0, 734, 1224, 78, 4732, 3.552606
CTUN, 0, 0.00, -0.47, 0.000000, 0.00, 0, 0, 0, 0
GPS, 3, 458264600, 11, 1.30, -33.7840637, 151.0682045, -0.54, 93.87, 0.01, 320.19
ATT, 0.00, 0.76, 0.00, 1.89, 0.00, 52.19, 52.19
CTUN, 0, 0.00, -0.51, 0.000000, 0.00, 0, 0, 0, 0
ATT, 0.00, 0.75, 0.00, 1.88, 0.00, 52.19, 52.19
CTUN, 0, 0.00, -0.49, 0.000000, 0.00, 0, 0, 0, 0
GPS, 3, 458264800, 11, 1.30, -33.7840636, 151.0682045, -0.53, 93.91, 0.02, 320.19
ATT, 0.00, 0.74, 0.00, 1.88, 0.00, 52.20, 52.20
CTUN, 0, 0.00, -0.45, 0.000000, 0.00, 0, 0, 0, 0
ATT, 0.00, 0.73, 0.00, 1.89, 0.00, 52.21, 52.21
CTUN, 0, 0.00, -0.45, 0.000000, 0.00, 0, 0, 0, 0
ATT, 0.00, 0.72, 0.00, 1.88, 0.00, 52.20, 52.20
GPS, 3, 458265000, 11, 1.30, -33.7840634, 151.0682045, -0.52, 93.94, 0.01, 320.19
CTUN, 0, 0.00, -0.49, 0.000000, 0.00, 0, 0, 0, 0
ATT, 0.00, 0.73, 0.00, 1.88, 0.00, 52.21, 52.21
CTUN, 0, 0.00, -0.39, 0.000000, 0.00, 0, 0, 0, 0
GPS, 3, 458265200, 10, 1.52, -33.7840633, 151.0682046, -0.52, 94.00, 0.01, 320.19
ATT, 0.00, 0.73, 0.00, 1.88, 0.00, 52.23, 52.23
CTUN, 0, 0.00, -0.41, 0.000000, 0.00, 0, 0, 0, 0
ATT, 0.00, 0.73, 0.00, 1.88, 0.00, 52.23, 52.23
CTUN, 0, 0.00, -0.52, 0.000000, 0.00, 0, 0, 0, 0
GPS, 3, 458265400, 10, 1.52, -33.7840632, 151.0682047, -0.51, 94.03, 0.02, 320.19
ATT, 0.00, 0.72, 0.00, 1.88, 0.00, 52.25, 52.25
CTUN, 0, 0.00, -0.52, 0.000000, 0.00, 0, 0, 0, 0
ATT, 0.00, 0.74, 0.00, 1.88, 0.00, 52.26, 52.26
DU32, 7, 8793
CURR, 0, 734, 1227, 66, 4752, 3.753447
CTUN, 0, 0.00, -0.53, 0.000000, 0.00, 0, 0, 0, 0
GPS, 3, 458265600, 10, 1.52, -33.7840631, 151.0682047, -0.51, 94.06, 0.03, 320.19
ATT, 0.00, 0.75, 0.00, 1.88, 0.00, 52.25, 52.25
CTUN, 0, 0.00, -0.58, 0.000000, 0.00, 0, 0, 0, 0
ATT, 0.00, 0.74, 0.00, 1.89, 0.00, 52.27, 52.27
CTUN, 0, 0.00, -0.53, 0.000000, 0.00, 0, 0, 0, 0
GPS, 3, 458265800, 10, 1.52, -33.7840629, 151.0682048, -0.51, 94.13, 0.02, 320.19
ATT, 0.00, 0.74, 0.00, 1.89, 0.00, 52.27, 52.27
CTUN, 0, 0.00, -0.56, 0.000000, 0.00, 0, 0, 0, 0
ATT, 0.00, 0.73, 0.00, 1.88, 0.00, 52.27, 52.27
CTUN, 0, 0.00, -0.48, 0.000000, 0.00, 0, 0, 0, 0
GPS, 3, 458266000, 10, 1.52, -33.7840627, 151.0682048, -0.51, 94.17, 0.02, 320.19
ATT, 0.00, 0.71, 0.00, 1.88, 0.00, 52.27, 52.27
CTUN, 0, 0.00, -0.50, 0.000000, 0.00, 0, 0, 0, 0
ATT, 0.00, 0.73, 0.00, 1.88, 0.00, 52.28, 52.28
CTUN, 0, 0.00, -0.43, 0.000000, 0.00, 0, 0, 0, 0
GPS, 3, 458266200, 10, 1.52, -33.7840623, 151.0682047, -0.51, 94.26, 0.03, 320.19
ATT, 0.00, 0.73, 0.00, 1.88, 0.00, 52.28, 52.28
CTUN, 0, 0.00, -0.47, 0.000000, 0.00, 0, 0, 0, 0
ATT, 0.00, 0.72, 0.00, 1.88, 0.00, 52.28, 52.28
CTUN, 0, 0.00, -0.42, 0.000000, 0.00, 0, 0, 0, 0
GPS, 3, 458266400, 10, 1.52, -33.7840620, 151.0682047, -0.50, 94.34, 0.01, 320.19
ATT, 0.00, 0.70, 0.00, 1.88, 0.00, 52.30, 52.30
CTUN, 0, 0.00, -0.44, 0.000000, 0.00, 0, 0, 0, 0
ATT, 0.00, 0.72, 0.00, 1.87, 0.00, 52.29, 52.29
DU32, 7, 8793
CURR, 0, 734, 1222, 81, 4712, 3.956204
CTUN, 0, 0.00, -0.63, 0.000000, 0.00, 0, 0, 0, 0
GPS, 3, 458266600, 10, 1.52, -33.7840617, 151.0682047, -0.50, 94.38, 0.05, 320.19
ATT, 0.00, 0.72, 0.00, 1.87, 0.00, 52.30, 52.30
CTUN, 0, 0.00, -0.56, 0.000000, 0.00, 0, 0, 0, 0
ATT, 0.00, 0.71, 0.00, 1.86, 0.00, 52.31, 52.31
CTUN, 0, 0.00, -0.50, 0.000000, 0.00, 0, 0, 0, 0
GPS, 3, 458266800, 10, 1.52, -33.7840615, 151.0682048, -0.50, 94.42, 0.02, 320.19
ATT, 0.00, 0.70, 0.00, 1.86, 0.00, 52.30, 52.30
CTUN, 0, 0.00, -0.44, 0.000000, 0.00, 0, 0, 0, 0
ATT, 0.00, 0.72, 0.00, 1.87, 0.00, 52.32, 52.32
CTUN, 0, 0.00, -0.31, 0.000000, 0.00, 0, 0, 0, 0
GPS, 3, 458267000, 10, 1.52, -33.7840611, 151.0682048, -0.49, 94.47, 0.01, 320.19
ATT, 0.00, 0.74, 0.00, 1.87, 0.00, 52.33, 52.33
CTUN, 0, 0.00, -0.37, 0.000000, 0.00, 0, 0, 0, 0
ATT, 0.00, 0.74, 0.00, 1.88, 0.00, 52.33, 52.33
CTUN, 0, 0.00, -0.39, 0.000000, 0.00, 0, 0, 0, 0
GPS, 3, 458267200, 10, 1.52, -33.7840609, 151.0682048, -0.48, 94.48, 0.02, 320.19
ATT, 0.00, 0.74, 0.00, 1.88, 0.00, 52.33, 52.33
CTUN, 0, 0.00, -0.51, 0.000000, 0.00, 0, 0, 0, 0
EV, 15
ATT, 0.00, 0.74, 0.00, 1.88, 0.00, 52.35, 52.35
CTUN, 139, 0.00, -0.43, 0.000000, 0.00, 0, 1, 139, 0
GPS, 3, 458267400, 10, 1.52, -33.7840606, 151.0682048, -0.47, 94.52, 0.03, 320.19
ATT, 0.00, 0.75, 0.00, 1.89, 0.00, 52.33, 52.33
CTUN, 155, 0.00, -0.40, 0.000000, 0.00, 0, 1, 155, 0
EV, 28
DU32, 7, 8313
CURR, 181, 1035, 1212, 226, 4732, 4.234815
ATT, 0.00, 0.77, 0.00, 1.90, 0.00, 52.33, 52.33
CTUN, 183, 0.00, -0.43, 0.000000, 0.00, 0, 1, 181, 0
GPS, 3, 458267600, 9, 1.55, -33.7840605, 151.0682049, -0.46, 94.49, 0.07, 320.19
CTUN, 212, 0.00, -0.50, 0.000000, 0.00, 0, 1, 212, 0
ATT, 0.00, 0.83, 0.00, 1.91, 0.00, 52.29, 52.33
CTUN, 213, 0.00, -0.72, 0.000000, 0.00, 0, 1, 213, 0
ATT, 0.00, 0.83, 0.00, 1.91, 0.00, 52.29, 52.33
GPS, 3, 458267800, 9, 1.55, -33.7840605, 151.0682050, -0.47, 94.45, 0.08, 320.19
CTUN, 215, 0.00, -1.01, 0.000000, 0.00, 0, 1, 215, 0
ATT, 0.00, 0.86, 0.00, 1.93, 0.00, 52.30, 52.33
CTUN, 213, 0.00, -0.98, 0.000000, 0.00, 0, 0, 215, 0
ATT, 0.00, 0.85, 0.00, 1.94, 0.00, 52.30, 52.33
GPS, 3, 458268000, 9, 1.55, -33.7840604, 151.0682051, -0.53, 94.45, 0.10, 320.19
CTUN, 273, 0.00, -0.93, 0.000000, 0.00, 0, 0, 215, 0
ATT, 0.00, 0.87, 0.00, 1.94, 0.00, 52.29, 52.33
CTUN, 301, 0.00, -1.02, 0.000000, 0.00, 0, 0, 301, 0
ATT, 0.00, 0.86, 0.00, 1.90, 0.00, 52.30, 52.33
GPS, 3, 458268200, 8, 1.94, -33.7840602, 151.0682053, -0.58, 94.45, 0.05, 320.19
CTUN, 304, 0.00, -0.93, 0.000000, 0.00, 0, -1, 304, 0
ATT, 0.00, 0.82, 0.00, 1.83, 0.00, 52.28, 52.33
CTUN, 324, 0.00, -1.26, 0.000000, 0.00, 0, 0, 322, 0
GPS, 3, 458268400, 8, 1.94, -33.7840601, 151.0682053, -0.63, 94.45, 0.09, 320.19
ATT, 0.00, 0.82, 0.00, 1.82, 0.00, 52.26, 52.33
CTUN, 369, 0.00, -1.05, 0.000000, 0.00, 0, -1, 369, 0
DU32, 7, 8313
CURR, 373, 3392, 1183, 663, 4732, 5.419856
ATT, 0.00, 0.86, 0.00, 1.83, 0.00, 52.22, 52.33
CTUN, 373, 0.00, -1.26, 0.000000, 0.00, 0, -1, 373, 0
GPS, 3, 458268600, 8, 1.94, -33.7840600, 151.0682055, -0.70, 94.45, 0.09, 320.19
CTUN, 417, 0.00, -1.46, 0.000000, 0.00, 0, -1, 417, 0
ATT, 0.00, 0.90, 0.00, 1.87, 0.00, 52.23, 52.33
EV, 16
CTUN, 450, 0.00, -1.66, 0.000000, 0.00, 0, -2, 443, 0
ATT, 0.00, 0.99, 0.00, 1.97, 0.00, 52.25, 52.33
GPS, 3, 458268800, 8, 1.94, -33.7840603, 151.0682062, -0.78, 94.32, 0.32, 320.19
CTUN, 474, 0.00, -1.37, 0.000000, 0.00, 0, -3, 474, 0
ATT, 0.00, 1.03, 0.00, 1.92, 0.00, 52.24, 52.33
CTUN, 478, 0.00, -1.37, 0.000000, 0.00, 0, -5, 474, 0
ATT, 0.00, 0.60, 0.00, 1.46, 0.00, 52.06, 52.33
GPS, 3, 458269000, 8, 1.94, -33.7840602, 151.0682065, -0.88, 94.24, 0.18, 320.19
CTUN, 491, 0.00, -1.17, 0.000000, 0.00, 0, -4, 485, 0
ATT, 0.00, 0.31, -1.09, 1.32, 0.00, 51.29, 52.33
CTUN, 507, 0.00, -2.08, 0.000000, 0.00, 0, -4, 502, 0
ATT, 0.00, -0.53, -1.94, 0.89, 0.00, 50.18, 52.33
GPS, 3, 458269200, 9, 1.92, -33.7840599, 151.0682065, -0.96, 94.23, 0.07, 320.19
CTUN, 531, 0.00, -2.30, 0.000000, 0.00, 0, -5, 522, 0
ATT, 0.00, -0.40, -1.81, 0.70, 0.00, 48.41, 52.33
CTUN, 559, 0.00, -1.85, 0.000000, 0.00, 0, -1, 556, 0
PM, 0, 0, 50, 0, 1000, 10464, 10, 4
GPS, 3, 458269400, 9, 1.92, -33.7840590, 151.0682059, -1.09, 94.29, 0.25, 320.19
ATT, 0.00, -0.43, -0.72, 1.00, 0.00, 46.28, 52.33
CTUN, 567, 0.00, -1.40, 0.000000, 0.00, 0, 12, 562, 0
DU32, 7, 8569
CURR, 578, 7782, 1141, 1284, 4712, 8.187345
ATT, 0.00, 0.07, -0.36, 1.59, 0.00, 44.42, 52.33
CTUN, 578, 0.00, -1.13, 0.000000, 0.00, 0, 22, 578, 0
GPS, 3, 458269600, 9, 1.92, -33.7840589, 151.0682059, -1.09, 94.24, 0.02, 320.19
CTUN, 594, 0.00, -0.81, 0.000000, 0.00, 0, 35, 594, 0
ATT, 0.00, 0.03, -1.57, 1.85, 0.00, 42.47, 52.33
CTUN, 594, 0.00, -0.42, 0.000000, 0.00, 0, 46, 594, 0
ATT, 0.00, 0.19, -1.69, 0.93, 0.00, 41.09, 51.09
GPS, 3, 458269800, 9, 1.92, -33.7840589, 151.0682058, -0.97, 94.18, 0.06, 320.19
CTUN, 594, 0.00, -0.25, 0.000000, 0.00, 0, 57, 594, 0
ATT, 0.00, -0.40, -3.27, -0.37, 0.00, 39.81, 49.81
CTUN, 594, 0.00, -0.06, 0.000000, 0.00, 0, 64, 594, 0
ATT, 0.00, 0.00, -6.30, -1.70, 0.00, 38.70, 48.70
GPS, 3, 458270000, 9, 1.92, -33.7840591, 151.0682049, -0.76, 94.22, 0.38, 320.19
CTUN, 590, 0.00, 0.00, 0.000000, 0.00, 0, 69, 594, 0
ATT, 0.00, 0.32, -9.94, -4.63, 0.00, 37.37, 47.37
CTUN, 570, 0.00, 0.00, 0.000000, 0.00, 1, 75, 571, 0
ATT, 0.00, 0.72, -11.03, -7.27, 0.00, 36.11, 46.11
GPS, 3, 458270200, 8, 1.94, -33.7840592, 151.0682047, -0.53, 94.26, 0.32, 320.19
CTUN, 570, 0.00, 0.17, 0.000000, 0.00, 4, 77, 574, 0
ATT, 0.00, 1.67, -10.91, -8.83, 0.00, 34.75, 44.75
CTUN, 570, 0.00, 0.24, 0.000000, 0.00, 5, 78, 574, 0
GPS, 3, 458270400, 7, 2.56, -33.7840592, 151.0682051, -0.30, 94.33, 0.28, 320.19
ATT, 0.00, 2.38, -10.18, -8.81, 0.00, 33.17, 43.17
CTUN, 570, 0.00, 0.34, 0.000000, 0.00, 5, 79, 577, 0
DU32, 7, 8569
CURR, 570, 13036, 1131, 1346, 4752, 11.96535
ATT, 0.00, 2.76, -8.12, -7.93, 3.96, 31.85, 41.85
CTUN, 569, 0.00, 0.34, 0.000000, 0.00, 4, 80, 574, 0
GPS, 3, 458270600, 8, 2.33, -33.7840582, 151.0682053, -0.07, 94.86, 0.17, 320.19
CTUN, 570, 0.00, 0.42, 0.000000, 0.00, 3, 83, 573, 0
ATT, 0.00, 2.02, -3.39, -6.09, 4.92, 30.83, 40.83
CTUN, 570, 0.00, 0.50, 0.000000, 0.00, 1, 85, 571, 0
ATT, 0.00, 1.76, 0.00, -2.82, 6.00, 30.87, 40.87
GPS, 3, 458270800, 7, 2.56, -33.7840572, 151.0682061, 0.15, 94.96, 0.51, 21.81
CTUN, 571, 0.00, 0.75, 0.000000, 0.00, 0, 87, 571, 0
ATT, 0.00, 1.81, 0.00, 0.76, 5.76, 31.62, 41.62
CTUN, 571, 0.00, 0.93, 0.000000, 0.00, 0, 89, 571, 0
ATT, 0.00, 1.25, -0.72, 1.86, 4.56, 32.69, 42.69
GPS, 3, 458271000, 8, 2.33, -33.7840563, 151.0682067, 0.39, 95.19, 0.45, 45.74
CTUN, 571, 0.00, 0.91, 0.000000, 0.00, 0, 88, 571, 0
ATT, 0.00, 0.47, -1.45, 1.65, 1.68, 34.02, 43.96
CTUN, 571, 0.00, 0.99, 0.000000, 0.00, 0, 90, 571, 0
ATT, 0.00, -0.85, -6.18, 0.50, 0.00, 35.04, 44.16
GPS, 3, 458271200, 8, 2.33, -33.7840553, 151.0682077, 0.63, 95.53, 0.55, 60.38
CTUN, 571, 0.00, 1.07, 0.000000, 0.00, 0, 88, 571, 0
ATT, 0.00, -1.23, -7.03, -2.31, 0.00, 35.45, 44.16
CTUN, 571, 0.00, 1.18, 0.000000, 0.00, 0, 90, 571, 0
GPS, 3, 458271400, 8, 2.33, -33.7840548, 151.0682086, 0.85, 95.71, 0.53, 80.48
ATT, 0.00, -1.16, -6.30, -4.51, 0.00, 35.61, 44.16
CTUN, 571, 0.00, 1.22, 0.000000, 0.00, 1, 90, 571, 0
DU32, 7, 8569
CURR, 571, 18182, 1131, 1301, 4693, 15.63381
ATT, 0.00, -0.83, -6.18, -5.06, 0.00, 35.47, 44.16
CTUN, 571, 0.00, 1.30, 0.000000, 0.00, 1, 90, 572, 0
GPS, 3, 458271600, 8, 2.33, -33.7840539, 151.0682089, 1.07, 95.95, 0.37, 80.48
CTUN, 570, 0.00, 1.40, 0.000000, 0.00, 1, 92, 571, 0
ATT, 0.00, -0.26, -3.39, -5.09, 0.00, 35.15, 44.16
CTUN, 571, 0.00, 1.49, 0.000000, 0.00, 1, 94, 571, 0
ATT, 0.00, -0.28, -1.69, -4.33, 0.00, 34.87, 44.16
GPS, 3, 458271800, 10, 1.41, -33.7840534, 151.0682097, 1.32, 96.09, 0.47, 80.48
CTUN, 570, 0.00, 1.66, 0.000000, 0.00, 0, 96, 569, 0
ATT, 0.00, -0.13, -1.69, -2.61, 0.00, 34.71, 44.16
CTUN, 570, 0.00, 1.78, 0.000000, 0.00, 0, 94, 570, 0
ATT, 0.00, -0.18, -1.69, -1.65, 0.00, 34.90, 44.16
GPS, 3, 458272000, 9, 1.61, -33.7840527, 151.0682104, 1.52, 96.15, 0.51, 80.48
CTUN, 570, 0.00, 1.90, 0.000000, 0.00, 0, 92, 570, 0
ATT, 0.00, -0.38, -0.36, -1.14, 0.00, 35.29, 44.16
CTUN, 522, 0.00, 1.79, 0.000000, 0.00, 0, 91, 522, 0
ATT, -1.04, -0.64, 0.00, -0.75, 0.00, 35.77, 44.16
GPS, 3, 458272200, 10, 1.41, -33.7840521, 151.0682115, 1.73, 96.30, 0.63, 78.41
CTUN, 520, 0.00, 1.87, 0.000000, 0.00, 0, 89, 522, 0
ATT, -1.51, -0.75, 0.00, -0.23, 0.00, 36.16, 44.16
CTUN, 520, 0.00, 2.04, 0.000000, 0.00, 0, 77, 520, 0
ATT, -1.27, -1.15, 0.00, -0.33, 0.00, 36.58, 44.16
GPS, 3, 458272400, 10, 1.41, -33.7840511, 151.0682123, 1.90, 96.46, 0.58, 69.92
CTUN, 520, 0.00, 2.13, 0.000000, 0.00, 0, 71, 520, 0
ATT, -1.51, -1.35, 0.00, -0.56, 0.00, 36.90, 44.16
DU32, 7, 8569
CURR, 517, 23648, 1138, 1110, 4732, 19.21075
CTUN, 517, 0.00, 2.19, 0.000000, 0.00, 0, 57, 517, 0
ATT, -1.16, -1.03, -0.36, -0.51, 0.00, 36.97, 44.16
GPS, 3, 458272600, 11, 1.30, -33.7840503, 151.0682132, 2.05, 96.57, 0.60, 63.31
CTUN, 517, 0.00, 2.32, 0.000000, 0.00, 0, 52, 518, 0
ATT, -1.16, -0.73, -1.94, -0.50, 0.00, 36.78, 44.16
CTUN, 519, 0.00, 2.40, 0.000000, 0.00, 0, 39, 519, 0
ATT, -2.55, -0.91, -5.57, -1.25, 0.00, 36.58, 44.16
GPS, 3, 458272800, 9, 1.61, -33.7840496, 151.0682140, 2.18, 96.60, 0.55, 57.27
CTUN, 518, 0.00, 2.32, 0.000000, 0.00, 0, 32, 517, 0
ATT, -2.79, -1.91, -5.21, -3.42, 0.00, 36.54, 44.16
CTUN, 517, 0.00, 2.35, 0.000000, 0.00, 1, 25, 518, 0
ATT, -1.97, -2.84, -5.09, -4.72, 0.00, 36.55, 44.16
GPS, 3, 458273000, 9, 1.61, -33.7840489, 151.0682149, 2.24, 96.57, 0.58, 56.06
CTUN, 520, 0.00, 2.38, 0.000000, 0.00, 1, 17, 518, 0
ATT, -0.58, -1.59, -4.97, -4.59, 0.00, 36.40, 44.16
CTUN, 526, 0.00, 2.43, 0.000000, 0.00, 1, 8, 523, 0
ATT, 0.00, -0.27, -2.42, -4.11, 0.00, 36.35, 44.16
GPS, 3, 458273200, 10, 1.52, -33.7840481, 151.0682158, 2.28, 96.57, 0.64, 50.63
CTUN, 540, 0.00, 2.32, 0.000000, 0.00, 0, 2, 540, 0
ATT, 0.00, 0.54, -1.81, -2.77, 0.00, 36.45, 44.16
CTUN, 540, 0.00, 2.36, 0.000000, 0.00, 0, -2, 540, 0
GPS, 3, 458273400, 10, 1.52, -33.7840468, 151.0682167, 2.29, 96.52, 0.77, 41.23
ATT, 0.00, 1.33, 0.00, -0.97, 0.00, 36.60, 44.16
CTUN, 538, 0.00, 2.34, 0.000000, 0.00, 0, -3, 538, 0
DU32, 7, 8569
CURR, 540, 28377, 1137, 1181, 4693, 22.28715
ATT, 0.00, 1.44, 0.00, 0.52, 0.00, 36.71, 44.16
CTUN, 537, 0.00, 2.45, 0.000000, 0.00, 0, -8, 540, 0
GPS, 3, 458273600, 10, 1.41, -33.7840461, 151.0682176, 2.28, 96.41, 0.71, 40.04
ATT, 0.00, 1.35, 0.00, 1.28, 0.00, 36.81, 44.16
CTUN, 538, 0.00, 2.39, 0.000000, 0.00, 0, -11, 538, 0
ATT, 0.00, 1.00, 0.00, 1.64, 0.00, 36.88, 44.16
CTUN, 552, 0.00, 2.23, 0.000000, 0.00, 0, -13, 546, 0
GPS, 3, 458273800, 10, 1.41, -33.7840455, 151.0682186, 2.27, 96.29, 0.61, 45.98
CTUN, 558, 0.00, 2.33, 0.000000, 0.00, 0, -14, 558, 0
ATT, 0.00, 0.64, 0.00, 1.73, 0.00, 36.99, 44.16
CTUN, 558, 0.00, 2.39, 0.000000, 0.00, 0, -16, 556, 0
ATT, 0.00, 0.41, 0.00, 1.58, 0.00, 37.07, 44.16
GPS, 3, 458274000, 9, 1.61, -33.7840451, 151.0682195, 2.24, 96.18, 0.56, 45.98
CTUN, 556, 0.00, 2.29, 0.000000, 0.00, 0, -16, 556, 0
ATT, 0.00, 0.23, 0.00, 1.31, 0.00, 37.19, 44.16
CTUN, 556, 0.00, 2.18, 0.000000, 0.00, 0, -13, 556, 0
ATT, 0.00, 0.06, 0.00, 1.20, 0.00, 37.31, 44.16
GPS, 3, 458274200, 9, 1.61, -33.7840446, 151.0682204, 2.22, 96.08, 0.50, 45.98
CTUN, 556, 0.00, 2.09, 0.000000, 0.00, 0, -11, 556, 0
ATT, 0.00, 0.23, 0.00, 1.04, 0.00, 37.44, 44.16
CTUN, 558, 0.00, 2.13, 0.000000, 0.00, 0, -13, 556, 0
ATT, 0.00, 0.12, 0.00, 0.89, 0.00, 37.60, 44.16
GPS, 3, 458274400, 9, 1.61, -33.7840442, 151.0682209, 2.18, 96.06, 0.34, 45.98
CTUN, 556, 0.00, 2.28, 0.000000, 0.00, 0, -13, 556, 0
ATT, 0.00, 0.17, 0.00, 0.84, 0.00, 37.77, 44.16
DU32, 7, 8569
CURR, 556, 33347, 1130, 1233, 4712, 25.57455
CTUN, 555, 0.00, 2.09, 0.000000, 0.00, 0, -11, 555, 0
ATT, 0.00, 0.15, 0.00, 0.76, 0.00, 37.94, 44.16
GPS, 3, 458274600, 10, 1.41, -33.7840444, 151.0682218, 2.16, 96.01, 0.34, 45.98
CTUN, 556, 0.00, 2.23, 0.000000, 0.00, 0, -12, 556, 0
ATT, 0.00, 0.25, 0.00, 0.62, 0.00, 38.17, 44.16
CTUN, 558, 0.00, 2.10, 0.000000, 0.00, 0, -13, 556, 0
GPS, 3, 458274800, 10, 1.41, -33.7840445, 151.0682224, 2.14, 95.93, 0.26, 45.98
ATT, 0.00, 0.27, 0.00, 0.43, 0.00, 38.41, 44.16
CTUN, 556, 0.00, 2.06, 0.000000, 0.00, 0, -12, 556, 0
ATT, 0.00, 0.12, 0.00, 0.29, 0.00, 38.60, 44.16
CTUN, 557, 0.00, 2.16, 0.000000, 0.00, 0, -12, 558, 0
GPS, 3, 458275000, 9, 1.61, -33.7840445, 151.0682230, 2.11, 95.89, 0.24, 45.98
ATT, 0.00, -0.06, 0.00, -0.02, 0.00, 38.79, 44.16
CTUN, 559, 0.00, 2.13, 0.000000, 0.00, 0, -12, 556, 0
ATT, 0.00, -0.02, 0.00, -0.16, 0.00, 38.85, 44.16
CTUN, 557, 0.00, 2.04, 0.000000, 0.00, 0, -11, 557, 0
GPS, 3, 458275200, 9, 1.61, -33.7840445, 151.0682233, 2.09, 95.85, 0.23, 45.98
CTUN, 558, 0.00, 2.11, 0.000000, 0.00, 0, -13, 556, 0
ATT, 0.00, -0.06, 0.00, -0.26, 0.00, 38.87, 44.16
CTUN, 558, 0.00, 2.09, 0.000000, 0.00, 0, -14, 558, 0
ATT, 0.00, 0.04, 0.00, -0.29, 0.00, 38.84, 44.16
GPS, 3, 458275400, 9, 1.61, -33.7840445, 151.0682233, 2.06, 95.84, 0.15, 45.98
CTUN, 568, 0.00, 1.93, 0.000000, 0.00, 0, -12, 562, 0
ATT, 0.00, 0.14, 0.00, -0.28, 0.00, 38.82, 44.16
DU32, 7, 8569
CURR, 568, 38359, 1127, 1238, 4732, 28.94844
CTUN, 568, 0.00, 1.92, 0.000000, 0.00, 0, -11, 568, 0
GPS, 3, 458275600, 9, 1.61, -33.7840451, 151.0682238, 2.03, 95.73, 0.28, 45.98
ATT, 0.00, -0.03, 0.00, -0.49, 0.00, 38.83, 44.16
CTUN, 567, 0.00, 1.91, 0.000000, 0.00, 0, -10, 568, 0
ATT, 0.00, 0.00, 0.00, -0.48, 0.00, 38.77, 44.16
CTUN, 568, 0.00, 1.88, 0.000000, 0.00, 0, -10, 568, 0
GPS, 3, 458275800, 9, 1.61, -33.7840451, 151.0682240, 1.99, 95.68, 0.19, 45.98
ATT, 0.00, -0.02, 0.00, -0.45, 0.00, 38.69, 44.16
CTUN, 568, 0.00, 1.98, 0.000000, 0.00, 0, -10, 568, 0
ATT, 0.00, -0.16, 0.00, -0.37, 0.00, 38.65, 44.16
CTUN, 568, 0.00, 1.99, 0.000000, 0.00, 0, -10, 568, 0
GPS, 3, 458276000, 9, 1.62, -33.7840451, 151.0682239, 1.97, 95.70, 0.17, 45.98
ATT, 0.00, -0.24, 0.00, -0.19, 0.00, 38.67, 44.16
CTUN, 571, 0.00, 1.88, 0.000000, 0.00, 0, -10, 571, 0
ATT, 0.00, -0.41, 0.00, -0.28, 0.00, 38.74, 44.16
CTUN, 594, 0.00, 1.97, 0.000000, 0.00, 0, -10, 585, 0
GPS, 3, 458276200, 9, 1.62, -33.7840453, 151.0682242, 1.94, 95.63, 0.21, 45.98
CTUN, 612, 0.00, 1.97, 0.000000, 0.00, 0, -7, 609, 0
ATT, 0.00, -0.62, 0.00, -0.38, 0.00, 38.89, 44.16
CTUN, 615, 0.00, 1.81, 0.000000, 0.00, 0, 0, 615, 0
ATT, -3.72, -0.67, 0.00, -0.35, 0.00, 38.97, 44.16
GPS, 3, 458276400, 9, 1.62, -33.7840453, 151.0682241, 1.93, 95.64, 0.06, 45.98
CTUN, 615, 0.00, 2.02, 0.000000, 0.00, 0, 7, 615, 0
ATT, -2.09, -2.35, 0.00, -0.18, 0.00, 38.98, 44.16
DU32, 7, 8569
CURR, 615, 43602, 1115, 1440, 4712, 32.59567
CTUN, 615, 0.00, 1.85, 0.000000, 0.00, 0, 18, 615, 0
GPS, 3, 458276600, 8, 3.13, -33.7840454, 151.0682242, 1.96, 95.63, 0.06, 45.98
ATT, -6.97, -2.12, 0.00, -0.35, 0.00, 38.84, 44.16
CTUN, 615, 0.00, 1.95, 0.000000, 0.00, 0, 26, 615, 0
ATT, -5.23, -4.11, 0.00, 0.00, 0.00, 38.79, 44.16
CTUN, 615, 0.00, 2.03, 0.000000, 0.00, 1, 35, 616, 0
GPS, 3, 458276800, 9, 1.62, -33.7840458, 151.0682242, 2.02, 95.62, 0.13, 45.98
ATT, -3.95, -4.08, 0.00, -0.79, 0.00, 38.74, 44.16
CTUN, 615, 0.00, 2.03, 0.000000, 0.00, 1, 44, 616, 0
ATT, -3.83, -3.50, 0.00, -0.67, 0.00, 38.63, 44.16
CTUN, 615, 0.00, 1.97, 0.000000, 0.00, 0, 51, 615, 0
GPS, 3, 458277000, 9, 1.62, -33.7840458, 151.0682239, 2.11, 95.70, 0.06, 45.98
ATT, -4.53, -3.31, 0.00, -0.42, 0.00, 38.61, 44.16
CTUN, 615, 0.00, 2.03, 0.000000, 0.00, 0, 59, 615, 0
ATT, -3.83, -3.10, 0.00, -0.40, 0.00, 38.63, 44.16
CTUN, 610, 0.00, 2.15, 0.000000, 0.00, 0, 65, 611, 0
GPS, 3, 458277200, 9, 1.62, -33.7840450, 151.0682232, 2.21, 95.86, 0.29, 45.98
CTUN, 595, 0.00, 2.29, 0.000000, 0.00, 0, 71, 595, 0
ATT, -4.88, -3.12, 0.00, -0.73, 0.00, 38.73, 44.16
CTUN, 595, 0.00, 2.28, 0.000000, 0.00, 0, 75, 595, 0
ATT, -5.11, -3.54, 0.00, -0.82, 0.00, 38.79, 44.16
GPS, 3, 458277400, 9, 1.62, -33.7840445, 151.0682225, 2.37, 95.99, 0.33, 25.33
CTUN, 584, 0.00, 2.28, 0.000000, 0.00, 0, 78, 584, 0
ATT, -5.58, -3.92, 0.00, -0.96, 0.00, 38.87, 44.16
DU32, 7, 8569
CURR, 560, 49086, 1117, 1337, 4712, 36.52212
CTUN, 540, 0.00, 2.42, 0.000000, 0.00, 1, 77, 541, 0
ATT, -6.62, -4.29, 0.00, -1.12, 0.00, 38.97, 44.16
GPS, 3, 458277600, 10, 1.41, -33.7840444, 151.0682220, 2.52, 96.07, 0.38, 25.33
CTUN, 532, 0.00, 2.45, 0.000000, 0.00, 1, 73, 532, 0
ATT, -5.11, -4.57, 0.00, -0.99, 0.00, 39.00, 44.16
CTUN, 531, 0.00, 2.59, 0.000000, 0.00, 1, 64, 533, 0
GPS, 3, 458277800, 10, 1.41, -33.7840444, 151.0682217, 2.64, 96.13, 0.32, 25.33
ATT, -3.60, -4.00, 0.00, -1.14, 0.00, 39.17, 44.16
CTUN, 531, 0.00, 2.56, 0.000000, 0.00, 1, 53, 532, 0
ATT, -0.93, -3.01, 0.00, -1.46, 0.00, 39.25, 44.16
CTUN, 531, 0.00, 2.82, 0.000000, 0.00, 0, 45, 530, 0
GPS, 3, 458278000, 9, 1.62, -33.7840440, 151.0682213, 2.73, 96.30, 0.37, 356.28
ATT, -1.16, -1.48, 0.00, -1.43, 0.00, 39.23, 44.16
CTUN, 531, 0.00, 2.81, 0.000000, 0.00, 0, 36, 531, 0
ATT, -1.16, -0.80, 0.00, -0.98, 0.00, 39.30, 44.16
CTUN, 531, 0.00, 2.83, 0.000000, 0.00, 0, 30, 531, 0
GPS, 3, 458278200, 9, 1.62, -33.7840434, 151.0682204, 2.81, 96.39, 0.48, 335.27
ATT, 0.00, -0.56, 0.00, -0.75, 0.00, 39.49, 44.16
CTUN, 531, 0.00, 2.88, 0.000000, 0.00, 0, 21, 531, 0
ATT, 0.00, -0.16, 0.00, -0.39, 0.00, 39.73, 44.16
CTUN, 562, 0.00, 2.87, 0.000000, 0.00, 0, 13, 552, 0
GPS, 3, 458278400, 9, 1.62, -33.7840420, 151.0682194, 2.85, 96.50, 0.69, 333.97
ATT, 0.00, 0.06, 0.00, -0.05, 0.00, 39.97, 44.16
CTUN, 590, 0.00, 2.90, 0.000000, 0.00, 0, 8, 582, 0
DU32, 7, 8569
CURR, 589, 54520, 1114, 1311, 4712, 39.93705
ATT, 0.00, -0.10, 0.00, -0.43, 0.00, 40.14, 44.16
CTUN, 589, 0.00, 3.06, 0.000000, 0.00, 0, 7, 589, 0
GPS, 3, 458278600, 9, 1.62, -33.7840414, 151.0682188, 2.87, 96.48, 0.64, 331.88
ATT, 0.00, 0.30, 0.00, -0.43, 0.00, 40.15, 44.16
CTUN, 592, 0.00, 2.97, 0.000000, 0.00, 0, 11, 592, 0
ATT, 0.00, 0.62, 0.00, -0.09, 0.00, 40.12, 44.16
CTUN, 594, 0.00, 3.09, 0.000000, 0.00, 0, 14, 594, 0
GPS, 3, 458278800, 9, 1.62, -33.7840408, 151.0682184, 2.91, 96.38, 0.69, 333.96
CTUN, 594, 0.00, 2.99, 0.000000, 0.00, 0, 19, 594, 0
ATT, 0.00, 0.38, 0.00, -0.17, 0.00, 40.12, 44.16
CTUN, 594, 0.00, 2.99, 0.000000, 0.00, 0, 23, 594, 0
ATT, 0.00, 0.07, 0.00, -0.28, 0.00, 40.11, 44.16
GPS, 3, 458279000, 9, 1.62, -33.7840402, 151.0682181, 2.97, 96.38, 0.55, 337.58
CTUN, 595, 0.00, 3.04, 0.000000, 0.00, 0, 27, 595, 0
ATT, 0.00, 0.14, 0.00, -0.27, 0.00, 40.08, 44.16
CTUN, 594, 0.00, 3.07, 0.000000, 0.00, 0, 32, 594, 0
ATT, 0.00, 0.27, 0.00, -0.35, 0.00, 39.97, 44.16
GPS, 3, 458279200, 9, 1.62, -33.7840397, 151.0682176, 3.04, 96.33, 0.51, 335.00
CTUN, 595, 0.00, 3.19, 0.000000, 0.00, 0, 34, 594, 0
ATT, 0.00, 0.35, 0.00, -0.29, 0.00, 39.73, 44.16
CTUN, 594, 0.00, 3.26, 0.000000, 0.00, 0, 39, 594, 0
PM, 0, 0, 50, 0, 1001, 10456, 10, 4
GPS, 3, 458279400, 9, 1.62, -33.7840381, 151.0682166, 3.12, 96.42, 0.75, 334.75
ATT, 0.00, 0.40, 0.00, -0.22, 0.00, 39.41, 44.16
CTUN, 594, 0.00, 3.24, 0.000000, 0.00, 0, 43, 594, 0
DU32, 7, 8569
CURR, 594, 59858, 1111, 1343, 4712, 43.61444
ATT, 3.11, 0.29, 0.00, -0.30, 0.00, 39.25, 44.16
CTUN, 594, 0.00, 3.16, 0.000000, 0.00, 0, 47, 594, 0
GPS, 3, 458279600, 10, 1.52, -33.7840371, 151.0682165, 3.23, 96.53, 0.54, 342.22
ATT, 9.00, 1.75, 0.00, -0.36, 0.00, 39.10, 44.16
CTUN, 594, 0.00, 3.29, 0.000000, 0.00, 0, 51, 594, 0
ATT, 9.11, 4.68, 0.00, -0.41, 0.00, 38.96, 44.16
CTUN, 595, 0.00, 3.35, 0.000000, 0.00, 1, 54, 596, 0
GPS, 3, 458279800, 11, 1.30, -33.7840365, 151.0682163, 3.32, 96.54, 0.40, 342.17
CTUN, 582, 0.00, 3.42, 0.000000, 0.00, 2, 59, 584, 0
ATT, 5.76, 6.16, 0.00, 0.49, 0.00, 38.93, 44.16
CTUN, 580, 0.00, 3.56, 0.000000, 0.00, 2, 60, 582, 0
ATT, 3.80, 5.24, 0.00, 0.95, 0.00, 39.03, 44.16
GPS, 3, 458280000, 11, 1.30, -33.7840361, 151.0682163, 3.46, 96.61, 0.35, 347.23
CTUN, 580, 0.00, 3.60, 0.000000, 0.00, 1, 61, 581, 0
ATT, 0.00, 3.48, 0.00, 1.24, 1.08, 39.15, 44.22
CTUN, 580, 0.00, 3.63, 0.000000, 0.00, 0, 61, 578, 0
ATT, 0.00, 0.61, 0.00, 1.29, 4.92, 39.51, 45.51
GPS, 3, 458280200, 9, 1.62, -33.7840359, 151.0682166, 3.59, 96.69, 0.28, 347.23
CTUN, 562, 0.00, 3.61, 0.000000, 0.00, 0, 63, 566, 0
ATT, 0.00, -0.09, 0.00, 1.55, 12.48, 40.97, 50.68
CTUN, 562, 0.00, 3.79, 0.000000, 0.00, 0, 68, 562, 0
GPS, 3, 458280400, 9, 1.62, -33.7840364, 151.0682169, 3.73, 96.78, 0.17, 347.23
ATT, 0.00, 0.79, 0.00, 2.46, 5.40, 44.87, 54.45
CTUN, 562, 0.00, 3.82, 0.000000, 0.00, 0, 69, 562, 0
DU32, 7, 8569
CURR, 560, 65067, 1114, 1268, 4752, 47.33611
ATT, 0.00, -0.05, 0.00, 1.97, 3.96, 48.28, 56.71
CTUN, 530, 0.00, 3.88, 0.000000, 0.00, 0, 65, 553, 0
GPS, 3, 458280600, 9, 1.62, -33.7840368, 151.0682173, 3.87, 96.96, 0.21, 347.23
ATT, 0.00, -1.27, 0.00, 0.57, 0.00, 51.79, 56.91
CTUN, 507, 0.00, 3.91, 0.000000, 0.00, 0, 56, 507, 0
ATT, 0.00, -1.16, 0.00, 0.10, 0.00, 53.66, 56.91
CTUN, 505, 0.00, 3.97, 0.000000, 0.00, 0, 43, 505, 0
GPS, 3, 458280800, 10, 1.41, -33.7840375, 151.0682172, 3.96, 97.06, 0.25, 347.23
CTUN, 507, 0.00, 4.09, 0.000000, 0.00, 0, 27, 507, 0
ATT, 0.00, -0.96, 0.00, -0.03, 0.00, 55.20, 56.91
CTUN, 505, 0.00, 4.03, 0.000000, 0.00, 0, 14, 507, 0
ATT, 0.00, -1.03, 0.00, -0.48, 0.00, 55.96, 56.91
GPS, 3, 458281000, 10, 1.41, -33.7840379, 151.0682172, 4.02, 97.13, 0.28, 289.53
CTUN, 505, 0.00, 4.08, 0.000000, 0.00, 0, 0, 505, 0
ATT, 0.00, -1.10, 0.00, -0.75, 0.00, 56.39, 56.91
CTUN, 505, 0.00, 4.10, 0.000000, 0.00, 0, -12, 505, 0
ATT, 0.00, -1.12, 0.00, -0.94, 0.00, 56.41, 56.91
GPS, 3, 458281200, 10, 1.41, -33.7840380, 151.0682171, 4.01, 97.11, 0.09, 289.53
CTUN, 507, 0.00, 4.09, 0.000000, 0.00, 0, -25, 507, 0
ATT, 0.00, -1.23, 0.00, -0.88, 0.00, 56.30, 56.91
CTUN, 505, 0.00, 4.07, 0.000000, 0.00, 0, -37, 505, 0
ATT, 0.00, -1.23, 0.00, -0.78, 0.00, 56.15, 56.91
GPS, 3, 458281400, 11, 1.30, -33.7840378, 151.0682170, 3.96, 97.03, 0.02, 289.53
CTUN, 505, 0.00, 4.08, 0.000000, 0.00, 0, -46, 505, 0
ATT, 0.00, -1.01, 0.00, -0.60, 0.00, 56.03, 56.91
DU32, 7, 8569
CURR, 505, 69640, 1131, 1057, 4732, 50.20157
CTUN, 505, 0.00, 3.95, 0.000000, 0.00, 0, -58, 505, 0
GPS, 3, 458281600, 11, 1.30, -33.7840376, 151.0682169, 3.86, 96.89, 0.09, 289.53
ATT, 0.00, -0.85, 0.00, -0.48, 0.00, 55.94, 56.91
CTUN, 505, 0.00, 3.79, 0.000000, 0.00, 0, -69, 503, 0
ATT, 0.00, -0.84, 0.00, -0.45, 0.00, 55.84, 56.91
CTUN, 504, 0.00, 3.73, 0.000000, 0.00, 0, -82, 504, 0
GPS, 3, 458281800, 11, 1.30, -33.7840375, 151.0682168, 3.71, 96.72, 0.03, 289.53
ATT, 0.00, -0.52, 0.00, -0.48, 0.00, 55.75, 56.91
CTUN, 504, 0.00, 3.70, 0.000000, 0.00, 0, -93, 504, 0
ATT, 0.00, -0.18, 0.00, -0.64, 0.00, 55.68, 56.91
CTUN, 546, 0.00, 3.58, 0.000000, 0.00, 0, -103, 546, 0
GPS, 3, 458282000, 11, 1.30, -33.7840374, 151.0682166, 3.53, 96.46, 0.08, 289.53
ATT, 0.00, -0.10, 0.00, -0.77, 0.00, 55.66, 56.91
CTUN, 619, 0.00, 3.52, 0.000000, 0.00, 0, -110, 616, 0
ATT, 0.00, -0.19, 0.00, -0.89, 0.00, 55.62, 56.91
CTUN, 640, 0.00, 3.35, 0.000000, 0.00, 0, -101, 640, 0
GPS, 3, 458282200, 10, 1.41, -33.7840369, 151.0682163, 3.32, 96.19, 0.28, 323.93
ATT, 0.00, -0.02, 0.00, -0.66, 0.00, 55.25, 56.91
CTUN, 641, 0.00, 3.25, 0.000000, 0.00, 0, -91, 643, 0
ATT, 0.00, 0.40, 0.00, -0.37, 0.00, 54.72, 56.91
CTUN, 643, 0.00, 3.20, 0.000000, 0.00, 0, -74, 643, 0
GPS, 3, 458282400, 10, 1.41, -33.7840368, 151.0682165, 3.15, 95.98, 0.17, 323.93
ATT, 0.00, 0.66, 0.00, -0.32, 0.00, 54.05, 56.91
CTUN, 643, 0.00, 3.07, 0.000000, 0.00, 0, -57, 641, 0
DU32, 7, 8569
CURR, 642, 75320, 1098, 1510, 4693, 53.80664
ATT, 0.00, 0.71, 0.00, -0.14, 0.00, 53.53, 56.91
CTUN, 632, 0.00, 2.95, 0.000000, 0.00, 0, -42, 642, 0
GPS, 3, 458282600, 10, 1.41, -33.7840361, 151.0682161, 3.06, 95.75, 0.46, 334.07
ATT, 0.00, 0.66, 0.00, -0.08, 0.00, 53.02, 56.91
CTUN, 614, 0.00, 2.86, 0.000000, 0.00, 0, -26, 614, 0
ATT, 0.00, 0.59, 0.00, 0.07, 0.00, 52.68, 56.91
CTUN, 614, 0.00, 2.97, 0.000000, 0.00, 0, -17, 614, 0
GPS, 3, 458282800, 10, 1.41, -33.7840351, 151.0682161, 2.98, 95.66, 0.60, 345.50
CTUN, 613, 0.00, 2.89, 0.000000, 0.00, 0, -8, 614, 0
ATT, 0.00, 0.37, 0.00, 0.06, 0.00, 52.52, 56.91
CTUN, 614, 0.00, 2.83, 0.000000, 0.00, 0, 0, 614, 0
ATT, 0.46, 0.14, 0.00, -0.13, 0.00, 52.57, 56.91
GPS, 3, 458283000, 9, 1.62, -33.7840348, 151.0682163, 2.97, 95.62, 0.35, 348.93
CTUN, 614, 0.00, 2.89, 0.000000, 0.00, 0, 8, 614, 0
ATT, 3.46, 0.47, 0.00, -0.26, 0.00, 52.73, 56.91
CTUN, 614, 0.00, 2.81, 0.000000, 0.00, 0, 16, 614, 0
GPS, 3, 458283200, 9, 1.62, -33.7840347, 151.0682164, 2.98, 95.66, 0.20, 348.93
ATT, 7.26, 2.11, 0.11, -0.31, 0.00, 52.97, 56.91
CTUN, 615, 0.00, 2.94, 0.000000, 0.00, 0, 22, 614, 0
ATT, 6.57, 4.40, 0.11, -0.26, 0.00, 53.19, 56.91
CTUN, 613, 0.00, 3.01, 0.000000, 0.00, 1, 30, 615, 0
GPS, 3, 458283400, 9, 1.62, -33.7840345, 151.0682165, 3.02, 95.67, 0.21, 348.93
ATT, 8.88, 5.44, 0.00, 0.04, 0.00, 53.57, 56.91
CTUN, 614, 0.00, 2.94, 0.000000, 0.00, 2, 37, 616, 0
DU32, 7, 8569
CURR, 615, 80867, 1105, 1402, 4673, 57.75189
ATT, 8.30, 6.87, 0.00, 0.01, 0.00, 53.85, 56.91
CTUN, 607, 0.00, 2.98, 0.000000, 0.00, 3, 42, 617, 0
GPS, 3, 458283600, 9, 1.62, -33.7840346, 151.0682168, 3.08, 95.64, 0.15, 348.93
ATT, 6.57, 7.28, 0.00, 0.27, 0.00, 54.30, 56.91
CTUN, 605, 0.00, 3.01, 0.000000, 0.00, 3, 48, 608, 0
ATT, 0.00, 6.26, 0.00, 0.51, 0.00, 54.67, 56.91
CTUN, 605, 0.00, 3.12, 0.000000, 0.00, 3, 52, 607, 0
GPS, 3, 458283800, 9, 1.62, -33.7840347, 151.0682175, 3.18, 95.73, 0.34, 348.93
ATT, 0.00, 2.85, 0.00, 0.52, 0.00, 55.05, 56.91
CTUN, 605, 0.00, 3.11, 0.000000, 0.00, 0, 57, 604, 0
ATT, 0.00, 1.55, 0.00, 0.42, 0.00, 55.26, 56.91
CTUN, 605, 0.00, 3.25, 0.000000, 0.00, 0, 61, 605, 0
GPS, 3, 458284000, 9, 1.62, -33.7840350, 151.0682182, 3.28, 95.75, 0.52, 75.64
CTUN, 605, 0.00, 3.29, 0.000000, 0.00, 0, 63, 605, 0
ATT, 0.00, 0.60, 0.00, 0.57, 0.00, 55.46, 56.91
CTUN, 605, 0.00, 3.35, 0.000000, 0.00, 0, 66, 605, 0
ATT, 0.00, 0.00, 0.00, 0.45, 0.00, 55.59, 56.91
GPS, 3, 458284200, 9, 1.62, -33.7840359, 151.0682194, 3.41, 95.85, 0.81, 116.49
CTUN, 605, 0.00, 3.34, 0.000000, 0.00, 0, 69, 605, 0
ATT, 0.00, -0.31, 0.00, 0.06, 0.00, 55.65, 56.91
CTUN, 605, 0.00, 3.42, 0.000000, 0.00, 0, 74, 605, 0
GPS, 3, 458284400, 9, 1.62, -33.7840361, 151.0682202, 3.54, 95.91, 0.48, 117.80
ATT, 0.00, -0.27, 0.00, -0.26, 0.00, 55.55, 56.91
CTUN, 605, 0.00, 3.61, 0.000000, 0.00, 0, 77, 604, 0
ATT, 0.00, -0.30, 0.00, -0.13, 0.00, 55.33, 56.91
DU32, 7, 8569
CURR, 605, 86319, 1105, 1378, 4712, 61.48333
CTUN, 605, 0.00, 3.53, 0.000000, 0.00, 0, 79, 605, 0
GPS, 3, 458284600, 9, 1.62, -33.7840365, 151.0682212, 3.69, 96.08, 0.62, 123.82
ATT, 0.00, -0.59, 0.00, 0.14, 0.00, 54.91, 56.91
CTUN, 605, 0.00, 3.58, 0.000000, 0.00, 0, 84, 605, 0
ATT, 0.00, -0.62, 0.00, 0.36, 0.00, 54.49, 56.91
CTUN, 604, 0.00, 3.69, 0.000000, 0.00, 0, 87, 604, 0
GPS, 3, 458284800, 9, 1.62, -33.7840371, 151.0682220, 3.84, 96.17, 0.53, 125.15
ATT, 0.00, -1.04, -0.36, 0.49, 0.00, 53.96, 56.91
CTUN, 604, 0.00, 3.78, 0.000000, 0.00, 0, 89, 603, 0
ATT, 0.00, -1.09, 0.00, 0.44, 0.00, 53.50, 56.91
CTUN, 604, 0.00, 3.81, 0.000000, 0.00, 0, 92, 604, 0
GPS, 3, 458285000, 9, 1.62, -33.7840382, 151.0682231, 4.01, 96.34, 0.68, 127.93
CTUN, 606, 0.00, 4.03, 0.000000, 0.00, 0, 94, 604, 0
ATT, 0.00, -1.01, 0.00, 0.57, 0.00, 53.07, 56.91
CTUN, 604, 0.00, 4.08, 0.000000, 0.00, 0, 97, 604, 0
ATT, -0.69, -1.07, 0.00, 0.69, 0.00, 52.79, 56.91
GPS, 3, 458285200, 10, 1.41, -33.7840384, 151.0682237, 4.19, 96.49, 0.33, 127.93
CTUN, 604, 0.00, 4.14, 0.000000, 0.00, 0, 99, 605, 0
ATT, 0.00, -1.49, -0.72, 0.85, 0.00, 52.69, 56.91
CTUN, 604, 0.00, 4.25, 0.000000, 0.00, 0, 101, 604, 0
GPS, 3, 458285400, 10, 1.41, -33.7840388, 151.0682241, 4.37, 96.64, 0.29, 127.93
ATT, 0.00, -1.50, -1.81, 0.05, 0.00, 52.83, 56.91
CTUN, 604, 0.00, 4.31, 0.000000, 0.00, 0, 104, 604, 0
ATT, 0.00, -1.48, -0.72, -0.71, 0.00, 53.08, 56.91
DU32, 7, 8569
CURR, 604, 91757, 1101, 1379, 4712, 65.30811
CTUN, 606, 0.00, 4.63, 0.000000, 0.00, 0, 104, 604, 0
GPS, 3, 458285600, 10, 1.41, -33.7840393, 151.0682247, 4.56, 96.85, 0.32, 127.93
ATT, 0.00, -1.10, -0.72, -0.41, 0.00, 53.38, 56.91
CTUN, 604, 0.00, 4.56, 0.000000, 0.00, 0, 107, 604, 0
ATT, 0.00, -0.80, -0.72, -0.18, 0.00, 53.67, 56.91
CTUN, 607, 0.00, 4.58, 0.000000, 0.00, 0, 109, 607, 0
GPS, 3, 458285800, 11, 1.30, -33.7840393, 151.0682251, 4.76, 97.02, 0.23, 127.93
ATT, 0.00, -0.76, -2.66, -0.18, 0.00, 53.97, 56.91
CTUN, 607, 0.00, 4.81, 0.000000, 0.00, 0, 112, 607, 0
ATT, 0.00, -0.73, -3.39, -1.23, 0.00, 54.23, 56.91
CTUN, 604, 0.00, 4.87, 0.000000, 0.00, 0, 113, 604, 0
GPS, 3, 458286000, 11, 1.30, -33.7840389, 151.0682251, 4.98, 97.18, 0.20, 127.93
ATT, 0.00, -0.78, -3.88, -2.36, 0.00, 54.33, 56.91
CTUN, 603, 0.00, 5.08, 0.000000, 0.00, 0, 114, 604, 0
ATT, 0.00, -0.72, -3.63, -2.94, 0.00, 54.21, 56.91
CTUN, 607, 0.00, 5.22, 0.000000, 0.00, 0, 115, 604, 0
GPS, 3, 458286200, 11, 1.30, -33.7840387, 151.0682251, 5.22, 97.38, 0.15, 127.93
CTUN, 604, 0.00, 5.29, 0.000000, 0.00, 0, 116, 604, 0
ATT, 0.00, -0.40, -2.42, -3.07, 0.00, 53.92, 56.91
CTUN, 604, 0.00, 5.41, 0.000000, 0.00, 0, 119, 603, 0
ATT, 0.00, 0.04, -0.12, -2.24, 0.00, 53.64, 56.91
GPS, 3, 458286400, 11, 1.30, -33.7840387, 151.0682255, 5.45, 97.57, 0.22, 127.93
CTUN, 604, 0.00, 5.52, 0.000000, 0.00, 0, 120, 604, 0
ATT, 0.00, 0.72, -2.54, -0.61, 0.00, 53.31, 56.91
DU32, 7, 8569
CURR, 605, 97803, 1104, 1380, 4732, 69.42376
CTUN, 605, 0.00, 5.70, 0.000000, 0.00, 0, 120, 605, 0
GPS, 3, 458286600, 11, 1.30, -33.7840383, 151.0682261, 5.69, 97.80, 0.34, 127.93
ATT, 0.00, 0.60, -3.39, -1.34, 0.00, 53.14, 56.91
CTUN, 601, 0.00, 5.71, 0.000000, 0.00, 0, 122, 601, 0
ATT, 0.00, 0.45, -3.15, -2.17, 0.00, 53.05, 56.91
CTUN, 599, 0.00, 5.90, 0.000000, 0.00, 0, 123, 601, 0
GPS, 3, 458286800, 11, 1.30, -33.7840378, 151.0682263, 5.92, 98.03, 0.26, 127.93
ATT, 0.00, 0.65, -3.27, -2.22, 0.00, 52.98, 56.91
CTUN, 599, 0.00, 6.04, 0.000000, 0.00, 0, 124, 599, 0
ATT, 0.00, 0.51, -4.60, -2.45, 0.00, 53.00, 56.91
CTUN, 600, 0.00, 6.09, 0.000000, 0.00, 0, 127, 601, 0
GPS, 3, 458287000, 11, 1.30, -33.7840373, 151.0682269, 6.16, 98.29, 0.39, 127.93
ATT, 0.00, 0.52, -4.97, -3.40, 0.00, 53.23, 56.91
CTUN, 600, 0.00, 6.25, 0.000000, 0.00, 0, 128, 600, 0
ATT, 0.00, 0.55, -4.12, -4.03, 0.00, 53.60, 56.91
CTUN, 601, 0.00, 6.33, 0.000000, 0.00, 1, 127, 602, 0
GPS, 3, 458287200, 11, 1.30, -33.7840368, 151.0682277, 6.43, 98.54, 0.48, 105.23
CTUN, 599, 0.00, 6.47, 0.000000, 0.00, 1, 126, 600, 0
ATT, 0.00, 0.51, -1.94, -3.47, 0.00, 54.19, 56.91
CTUN, 601, 0.00, 6.68, 0.000000, 0.00, 0, 124, 601, 0
ATT, 0.00, 0.93, 0.00, -2.45, 0.00, 54.73, 56.91
GPS, 3, 458287400, 11, 1.30, -33.7840363, 151.0682287, 6.68, 98.75, 0.61, 76.28
CTUN, 601, 0.00, 6.82, 0.000000, 0.00, 0, 123, 601, 0
ATT, 0.00, 1.39, 0.00, -0.56, 0.00, 55.38, 56.91
CTUN, 601, 0.00, 6.88, 0.000000, 0.00, 0, 122, 601, 0
GPS, 3, 458287600, 11, 1.30, -33.7840356, 151.0682295, 6.93, 98.97, 0.56, 63.11
ATT, 0.00, 1.98, 0.00, 0.68, 0.00, 55.87, 56.91
DU32, 7, 8569
CURR, 601, 103208, 1101, 1334, 4732, 73.19254
CTUN, 601, 0.00, 7.02, 0.000000, 0.00, 0, 123, 601, 0
ATT, 0.46, 2.03, -0.24, 0.98, 0.00, 56.17, 56.91
CTUN, 600, 0.00, 7.09, 0.000000, 0.00, 0, 122, 600, 0
GPS, 3, 458287800, 11, 1.30, -33.7840352, 151.0682307, 7.16, 99.20, 0.64, 67.49
ATT, 0.00, 1.86, 0.00, 0.92, 0.00, 56.35, 56.91
CTUN, 600, 0.00, 7.37, 0.000000, 0.00, 0, 121, 600, 0
ATT, 0.69, 1.45, 0.00, 0.67, 0.00, 56.37, 56.91
CTUN, 599, 0.00, 7.51, 0.000000, 0.00, 0, 122, 599, 0
