dump 38

ArduCopter V3.1-rc5.1
Free RAM: 873
APM 2
FMT, 128, 89, FMT, BBnNZ, Type,Length,Name,Format
FMT, 129, 23, PARM, Nf, Name,Value
FMT, 130, 35, GPS, BIBcLLeeEe, Status,Time,NSats,HDop,Lat,Lng,RelAlt,Alt,Spd,GCrs
FMT, 131, 27, IMU, ffffff, GyrX,GyrY,GyrZ,AccX,AccY,AccZ
FMT, 132, 67, MSG, Z, Message
FMT, 25, 25, ATUN, BBfffff, Axis,TuneStep,RateMin,RateMax,RPGain,RDGain,SPGain
FMT, 26, 9, ATDE, cf, Angle,Rate
FMT, 9, 19, CURR, hIhhhf, Thr,ThrInt,Volt,Curr,Vcc,CurrTot
FMT, 11, 11, MOT, hhhh, Mot1,Mot2,Mot3,Mot4
FMT, 12, 28, OF, hhBccffee, Dx,Dy,SQual,X,Y,Lat,Lng,Roll,Pitch
FMT, 5, 49, NTUN, Ecffffffffee, WPDst,WPBrg,PErX,PErY,DVelX,DVelY,VelX,VelY,DAcX,DAcY,DRol,DPit
FMT, 4, 25, CTUN, hcefchhhh, ThrIn,SonAlt,BarAlt,WPAlt,DesSonAlt,AngBst,CRate,ThrOut,DCRate
FMT, 15, 21, MAG, hhhhhhhhh, MagX,MagY,MagZ,OfsX,OfsY,OfsZ,MOfsX,MOfsY,MOfsZ
FMT, 6, 17, PM, BBBHHIhB, RenCnt,RenBlw,FixCnt,NLon,NLoop,MaxT,PMT,I2CErr
FMT, 8, 20, CMD, BBBBBeLL, CTot,CNum,CId,COpt,Prm1,Alt,Lat,Lng
FMT, 1, 17, ATT, cccccCC, RollIn,Roll,PitchIn,Pitch,YawIn,Yaw,NavYaw
FMT, 17, 37, INAV, cccfffiiff, BAlt,IAlt,IClb,ACorrX,ACorrY,ACorrZ,GLat,GLng,ILat,ILng
FMT, 3, 6, MODE, Mh, Mode,ThrCrs
FMT, 10, 3, STRT, , 
FMT, 13, 4, EV, B, Id
FMT, 20, 6, D16, Bh, Id,Value
FMT, 21, 6, DU16, BH, Id,Value
FMT, 22, 8, D32, Bi, Id,Value
FMT, 23, 8, DU32, BI, Id,Value
FMT, 24, 8, DFLT, Bf, Id,Value
FMT, 14, 28, PID, Biiiiif, Id,Error,P,I,D,Out,Gain
FMT, 18, 25, CAM, ILLeccC, GPSTime,Lat,Lng,Alt,Roll,Pitch,Yaw
FMT, 19, 5, ERR, BB, Subsys,ECode
D32, 9, 13200
CMD, 1, 0, 16, 0, 0, 0.00, -33.7851339, 151.0661760
EV, 10
GPS, 3, 353560600, 12, 1.74, -33.7851338, 151.0661760, 1.41, 82.54, 0.01, 0.00
CTUN, 0, 0.00, -0.03, 0.000000, 0.00, 0, 2, 0, 0
ATT, 0.00, -3.13, 0.00, -4.94, 0.00, 132.00, 132.00
GPS, 3, 353568000, 12, 1.75, -33.7851312, 151.0661774, 1.42, 83.17, 0.01, 0.00
CTUN, 0, 0.00, 0.00, 0.000000, 0.00, 0, 2, 0, 0
ATT, 0.00, -3.21, 0.00, -4.88, 0.00, 132.04, 132.04
CTUN, 0, 0.00, -0.08, 0.000000, 0.00, 0, 0, 0, 0
ATT, 0.00, -3.19, 0.00, -4.90, 0.00, 131.92, 131.92
GPS, 3, 353568200, 12, 1.75, -33.7851312, 151.0661775, 1.26, 83.18, 0.01, 0.00
CTUN, 0, 0.00, 0.00, 0.000000, 0.00, 0, -1, 0, 0
ATT, 0.00, -3.19, 0.00, -4.91, 0.00, 131.99, 131.99
DU32, 7, 8793
CURR, 0, 0, 1224, 68, 4772, 0.043753
CTUN, 0, 0.00, -0.16, 0.000000, 0.00, 0, -2, 0, 0
ATT, 0.00, -3.20, 0.00, -4.90, 0.00, 132.02, 132.02
GPS, 3, 353568400, 12, 1.75, -33.7851311, 151.0661776, 1.10, 83.21, 0.01, 0.00
CTUN, 0, 0.00, -0.07, 0.000000, 0.00, 0, -4, 0, 0
ATT, 0.00, -3.20, 0.00, -4.92, 0.00, 132.04, 132.04
CTUN, 0, 0.00, -0.13, 0.000000, 0.00, 0, -5, 0, 0
ATT, 0.00, -3.19, 0.00, -4.92, 0.00, 132.04, 132.04
GPS, 3, 353568600, 12, 1.75, -33.7851310, 151.0661777, 0.95, 83.23, 0.01, 0.00
CTUN, 0, 0.00, -0.20, 0.000000, 0.00, 0, -7, 0, 0
ATT, 0.00, -3.21, 0.00, -4.90, 0.00, 132.02, 132.02
CTUN, 0, 0.00, -0.08, 0.000000, 0.00, 0, -8, 0, 0
ATT, 0.00, -3.22, 0.00, -4.93, 0.00, 132.02, 132.02
GPS, 3, 353568800, 13, 1.70, -33.7851309, 151.0661778, 0.81, 83.25, 0.01, 0.00
CTUN, 0, 0.00, -0.13, 0.000000, 0.00, 0, -9, 0, 0
ATT, 0.00, -3.22, 0.00, -4.91, 0.00, 132.01, 132.01
CTUN, 0, 0.00, -0.08, 0.000000, 0.00, 0, -10, 0, 0
ATT, 0.00, -3.23, 0.00, -4.94, 0.00, 132.01, 132.01
GPS, 3, 353569000, 13, 1.70, -33.7851309, 151.0661779, 0.68, 83.26, 0.01, 0.00
CTUN, 0, 0.00, -0.06, 0.000000, 0.00, 0, -12, 0, 0
ATT, 0.00, -3.22, 0.00, -4.94, 0.00, 132.03, 132.03
CTUN, 0, 0.00, -0.14, 0.000000, 0.00, 0, -12, 0, 0
ATT, 0.00, -3.23, 0.00, -4.96, 0.00, 132.02, 132.02
CTUN, 0, 0.00, -0.11, 0.000000, 0.00, 0, -13, 0, 0
ATT, 0.00, -3.21, 0.00, -4.98, 0.00, 132.02, 132.02
GPS, 3, 353569200, 13, 1.70, -33.7851308, 151.0661780, 0.55, 83.28, 0.01, 0.00
DU32, 7, 8793
CURR, 0, 0, 1223, 53, 4712, 0.203801
CTUN, 0, 0.00, -0.11, 0.000000, 0.00, 0, -14, 0, 0
ATT, 0.00, -3.21, 0.00, -4.97, 0.00, 132.02, 132.02
GPS, 3, 353569400, 13, 1.70, -33.7851308, 151.0661780, 0.45, 83.30, 0.02, 0.00
CTUN, 0, 0.00, -0.13, 0.000000, 0.00, 0, -15, 0, 0
ATT, 0.00, -3.22, 0.00, -4.98, 0.00, 132.02, 132.02
CTUN, 0, 0.00, -0.16, 0.000000, 0.00, 0, -16, 0, 0
ATT, 0.00, -3.21, 0.00, -4.97, 0.00, 132.02, 132.02
GPS, 3, 353569600, 13, 1.70, -33.7851307, 151.0661781, 0.35, 83.32, 0.01, 0.00
CTUN, 0, 0.00, -0.09, 0.000000, 0.00, 0, -17, 0, 0
ATT, 0.00, -3.21, 0.00, -4.98, 0.00, 132.03, 132.03
CTUN, 0, 0.00, -0.04, 0.000000, 0.00, 0, -17, 0, 0
ATT, 0.00, -3.23, 0.00, -4.99, 0.00, 132.03, 132.03
GPS, 3, 353569800, 13, 1.70, -33.7851306, 151.0661781, 0.27, 83.35, 0.01, 0.00
CTUN, 0, 0.00, -0.13, 0.000000, 0.00, 0, -18, 0, 0
ATT, 0.00, -3.21, 0.00, -4.99, 0.00, 132.04, 132.04
CTUN, 0, 0.00, -0.11, 0.000000, 0.00, 0, -18, 0, 0
ATT, 0.00, -3.23, 0.00, -4.99, 0.00, 132.04, 132.04
GPS, 3, 353570000, 13, 1.70, -33.7851305, 151.0661782, 0.19, 83.37, 0.00, 0.00
CTUN, 0, 0.00, -0.08, 0.000000, 0.00, 0, -19, 0, 0
ATT, 0.00, -3.23, 0.00, -5.01, 0.00, 132.04, 132.04
EV, 28
CTUN, 0, 0.00, -0.18, 0.000000, 0.00, 0, -20, 0, 0
ATT, 0.00, -3.23, 0.00, -5.00, 0.00, 132.05, 132.05
GPS, 3, 353570200, 13, 1.70, -33.7851304, 151.0661782, 0.11, 83.38, 0.01, 0.00
CTUN, 0, 0.00, -0.14, 0.000000, 0.00, 0, -20, 0, 0
ATT, 0.00, -3.23, 0.00, -5.01, 0.00, 132.04, 132.04
DU32, 7, 8281
CURR, 0, 0, 1231, 58, 4752, 0.356088
CTUN, 0, 0.00, -0.22, 0.000000, 0.00, 0, -20, 0, 0
ATT, 0.00, -3.23, 0.00, -5.02, 0.00, 132.03, 132.03
GPS, 3, 353570400, 13, 1.70, -33.7851303, 151.0661782, 0.03, 83.40, 0.00, 0.00
CTUN, 0, 0.00, -0.15, 0.000000, 0.00, 0, -21, 0, 0
ATT, 0.00, -3.22, 0.00, -5.02, 0.00, 132.05, 132.05
CTUN, 0, 0.00, -0.10, 0.000000, 0.00, 0, -22, 0, 0
ATT, 0.00, -3.23, 0.00, -5.00, 0.00, 132.06, 132.06
GPS, 3, 353570600, 13, 1.70, -33.7851302, 151.0661782, -0.02, 83.43, 0.02, 0.00
CTUN, 0, 0.00, -0.13, 0.000000, 0.00, 0, -22, 0, 0
ATT, 0.00, -3.24, 0.00, -5.02, 0.00, 132.04, 132.04
CTUN, 0, 0.00, -0.23, 0.000000, 0.00, 0, -22, 0, 0
ATT, 0.00, -3.23, 0.00, -5.04, 0.00, 132.03, 132.03
GPS, 3, 353570800, 13, 1.70, -33.7851301, 151.0661783, -0.08, 83.44, 0.00, 0.00
CTUN, 0, 0.00, -0.05, 0.000000, 0.00, 0, -23, 0, 0
ATT, 0.00, -3.24, 0.00, -5.02, 0.00, 132.04, 132.04
CTUN, 0, 0.00, -0.14, 0.000000, 0.00, 0, -22, 0, 0
ATT, 0.00, -3.25, 0.00, -5.03, 0.00, 132.04, 132.04
GPS, 3, 353571000, 13, 1.70, -33.7851300, 151.0661783, -0.13, 83.47, 0.01, 0.00
CTUN, 0, 0.00, -0.22, 0.000000, 0.00, 0, -23, 0, 0
ATT, 0.00, -3.25, 0.00, -5.03, 0.00, 132.05, 132.05
CTUN, 0, 0.00, -0.17, 0.000000, 0.00, 0, -23, 0, 0
ATT, 0.00, -3.25, 0.00, -5.03, 0.00, 132.05, 132.05
GPS, 3, 353571200, 13, 1.70, -33.7851299, 151.0661783, -0.18, 83.48, 0.00, 0.00
CTUN, 0, 0.00, 0.00, 0.000000, 0.00, 0, -23, 0, 0
ATT, 0.00, -3.24, 0.00, -5.03, 0.00, 132.04, 132.04
DU32, 7, 8281
CURR, 0, 0, 1226, 56, 4732, 0.509713
CTUN, 0, 0.00, -0.19, 0.000000, 0.00, 0, -23, 0, 0
ATT, 0.00, -3.24, 0.00, -5.04, 0.00, 132.04, 132.04
GPS, 3, 353571400, 13, 1.70, -33.7851298, 151.0661783, -0.22, 83.49, 0.01, 0.00
CTUN, 0, 0.00, -0.08, 0.000000, 0.00, 0, -24, 0, 0
ATT, 0.00, -3.26, 0.00, -5.03, 0.00, 132.05, 132.05
CTUN, 0, 0.00, -0.04, 0.000000, 0.00, 0, -23, 0, 0
ATT, 0.00, -3.26, 0.00, -5.02, 0.00, 132.06, 132.06
GPS, 3, 353571600, 13, 1.70, -33.7851297, 151.0661783, -0.24, 83.52, 0.01, 0.00
CTUN, 0, 0.00, -0.26, 0.000000, 0.00, 0, -23, 0, 0
ATT, 0.00, -3.25, 0.00, -5.03, 0.00, 132.07, 132.07
CTUN, 0, 0.00, -0.10, 0.000000, 0.00, 0, -24, 0, 0
ATT, 0.00, -3.26, 0.00, -5.04, 0.00, 132.06, 132.06
GPS, 3, 353571800, 13, 1.70, -33.7851296, 151.0661783, -0.28, 83.54, 0.00, 0.00
CTUN, 0, 0.00, -0.01, 0.000000, 0.00, 0, -23, 0, 0
ATT, 0.00, -3.27, 0.00, -5.04, 0.00, 132.06, 132.06
CTUN, 0, 0.00, -0.06, 0.000000, 0.00, 0, -23, 0, 0
ATT, 0.00, -3.26, 0.00, -5.04, 0.00, 132.06, 132.06
GPS, 3, 353572000, 13, 1.70, -33.7851296, 151.0661783, -0.30, 83.56, 0.01, 0.00
CTUN, 0, 0.00, -0.02, 0.000000, 0.00, 0, -24, 0, 0
ATT, 0.00, -3.26, 0.00, -5.05, 0.00, 132.07, 132.07
CTUN, 0, 0.00, 0.11, 0.000000, 0.00, 0, -23, 0, 0
ATT, 0.00, -3.26, 0.00, -5.04, 0.00, 132.07, 132.07
GPS, 3, 353572200, 13, 1.70, -33.7851295, 151.0661783, -0.30, 83.58, 0.01, 0.00
CTUN, 0, 0.00, 0.14, 0.000000, 0.00, 0, -22, 0, 0
ATT, 0.00, -3.26, 0.00, -5.07, 0.00, 132.08, 132.08
DU32, 7, 8281
CURR, 0, 0, 1230, 63, 4752, 0.663444
CTUN, 0, 0.00, 0.08, 0.000000, 0.00, 0, -23, 0, 0
ATT, 0.00, -3.27, 0.00, -5.06, 0.00, 132.08, 132.08
GPS, 3, 353572400, 13, 1.70, -33.7851294, 151.0661783, -0.30, 83.59, 0.01, 0.00
CTUN, 0, 0.00, 0.05, 0.000000, 0.00, 0, -22, 0, 0
ATT, 0.00, -3.26, 0.00, -5.05, 0.00, 132.08, 132.08
CTUN, 0, 0.00, 0.05, 0.000000, 0.00, 0, -21, 0, 0
ATT, 0.00, -3.28, 0.00, -5.06, 0.00, 132.09, 132.09
GPS, 3, 353572600, 13, 1.70, -33.7851293, 151.0661783, -0.30, 83.60, 0.01, 0.00
CTUN, 0, 0.00, 0.11, 0.000000, 0.00, 0, -22, 0, 0
ATT, 0.00, -3.27, 0.00, -5.06, 0.00, 132.10, 132.10
CTUN, 0, 0.00, 0.06, 0.000000, 0.00, 0, -21, 0, 0
ATT, 0.00, -3.27, 0.00, -5.05, 0.00, 132.11, 132.11
GPS, 3, 353572800, 13, 1.70, -33.7851293, 151.0661783, -0.30, 83.62, 0.01, 0.00
CTUN, 0, 0.00, -0.03, 0.000000, 0.00, 0, -20, 0, 0
ATT, 0.00, -3.26, 0.00, -5.07, 0.00, 132.12, 132.12
CTUN, 0, 0.00, 0.03, 0.000000, 0.00, 0, -20, 0, 0
ATT, 0.00, -3.26, 0.00, -5.07, 0.00, 132.12, 132.12
GPS, 3, 353573000, 13, 1.70, -33.7851292, 151.0661783, -0.30, 83.63, 0.02, 0.00
CTUN, 0, 0.00, 0.05, 0.000000, 0.00, 0, -20, 0, 0
ATT, 0.00, -3.27, 0.00, -5.07, 0.00, 132.11, 132.11
CTUN, 0, 0.00, 0.00, 0.000000, 0.00, 0, -20, 0, 0
ATT, 0.00, -3.26, 0.00, -5.07, 0.00, 132.11, 132.11
GPS, 3, 353573200, 13, 1.70, -33.7851289, 151.0661782, -0.30, 83.66, 0.07, 0.00
CTUN, 0, 0.00, 0.04, 0.000000, 0.00, 0, -20, 0, 0
ATT, 0.00, -3.28, 0.00, -5.06, 0.00, 132.12, 132.12
DU32, 7, 8281
CURR, 0, 0, 1228, 55, 4732, 0.811346
CTUN, 0, 0.00, -0.08, 0.000000, 0.00, 0, -19, 0, 0
ATT, 0.00, -3.28, 0.00, -5.05, 0.00, 132.11, 132.11
CTUN, 0, 0.00, 0.11, 0.000000, 0.00, 0, -19, 0, 0
ATT, 0.00, -3.30, 0.00, -5.05, 0.00, 132.11, 132.11
GPS, 3, 353573400, 13, 1.70, -33.7851289, 151.0661782, -0.31, 83.68, 0.02, 0.00
CTUN, 0, 0.00, 0.04, 0.000000, 0.00, 0, -19, 0, 0
ATT, 0.00, -3.31, 0.00, -5.04, 0.00, 132.11, 132.11
CTUN, 0, 0.00, -0.15, 0.000000, 0.00, 0, -18, 0, 0
ATT, 0.00, -3.29, 0.00, -5.09, 0.00, 132.11, 132.11
GPS, 3, 353573600, 13, 1.70, -33.7851288, 151.0661782, -0.30, 83.69, 0.01, 0.00
CTUN, 0, 0.00, -0.15, 0.000000, 0.00, 0, -18, 0, 0
ATT, 0.00, -3.28, 0.00, -5.08, 0.00, 132.12, 132.12
CTUN, 0, 0.00, 0.00, 0.000000, 0.00, 0, -18, 0, 0
ATT, 0.00, -3.28, 0.00, -5.07, 0.00, 132.12, 132.12
GPS, 3, 353573800, 13, 1.70, -33.7851287, 151.0661782, -0.32, 83.71, 0.00, 0.00
CTUN, 0, 0.00, -0.12, 0.000000, 0.00, 0, -18, 0, 0
ATT, 0.00, -3.28, 0.00, -5.07, 0.00, 132.13, 132.13
CTUN, 0, 0.00, 0.04, 0.000000, 0.00, 0, -18, 0, 0
ATT, 0.00, -3.27, 0.00, -5.05, 0.00, 132.13, 132.13
GPS, 3, 353574000, 13, 1.70, -33.7851287, 151.0661781, -0.32, 83.71, 0.00, 0.00
CTUN, 0, 0.00, 0.01, 0.000000, 0.00, 0, -17, 0, 0
ATT, 0.00, -3.28, 0.00, -5.09, 0.00, 132.13, 132.13
CTUN, 0, 0.00, -0.10, 0.000000, 0.00, 0, -17, 0, 0
ATT, 0.00, -3.28, 0.00, -5.07, 0.00, 132.13, 132.13
EV, 18
GPS, 3, 353574200, 13, 1.70, -33.7851286, 151.0661781, -0.32, 83.73, 0.01, 0.00
DU32, 7, 8793
CURR, 0, 0, 1227, 56, 4752, 0.963428
CTUN, 0, 0.00, 0.00, 0.000000, 0.00, 0, -17, 0, 0
ATT, 0.00, -3.28, 0.00, -5.06, 0.00, 132.13, 132.13
CTUN, 0, 0.00, -0.06, 0.000000, 0.00, 0, -17, 0, 0
ATT, 0.00, -3.28, 0.00, -5.07, 0.00, 132.14, 132.14
GPS, 3, 353574400, 13, 1.70, -33.7851285, 151.0661781, -0.32, 83.75, 0.00, 0.00
CTUN, 0, 0.00, 0.00, 0.000000, 0.00, 0, -17, 0, 0
ATT, 0.00, -3.28, 0.00, -5.07, 0.00, 132.13, 132.13
CTUN, 0, 0.00, -0.07, 0.000000, 0.00, 0, -16, 0, 0
ATT, 0.00, -3.28, 0.00, -5.07, 0.00, 132.13, 132.13
GPS, 3, 353574600, 13, 1.70, -33.7851284, 151.0661781, -0.32, 83.76, 0.01, 0.00
CTUN, 0, 0.00, 0.05, 0.000000, 0.00, 0, -16, 0, 0
ATT, 0.00, -3.28, 0.00, -5.08, 0.00, 132.14, 132.14
CTUN, 0, 0.00, -0.14, 0.000000, 0.00, 0, -16, 0, 0
ATT, 0.00, -3.29, 0.00, -5.08, 0.00, 132.14, 132.14
GPS, 3, 353574800, 13, 1.70, -33.7851283, 151.0661781, -0.31, 83.78, 0.01, 0.00
CTUN, 0, 0.00, 0.00, 0.000000, 0.00, 0, -16, 0, 0
ATT, 0.00, -3.28, 0.00, -5.09, 0.00, 132.14, 132.14
CTUN, 0, 0.00, 0.00, 0.000000, 0.00, 0, -15, 0, 0
ATT, 0.00, -3.28, 0.00, -5.09, 0.00, 132.16, 132.16
GPS, 3, 353575000, 13, 1.70, -33.7851282, 151.0661781, -0.31, 83.80, 0.02, 0.00
CTUN, 0, 0.00, -0.11, 0.000000, 0.00, 0, -15, 0, 0
ATT, 0.00, -3.29, 0.00, -5.09, 0.00, 132.15, 132.15
EV, 15
CTUN, 132, 0.00, -0.12, 0.000000, 0.00, 0, -15, 132, 0
ATT, 0.00, -3.29, 0.00, -5.07, 0.00, 132.15, 132.15
GPS, 3, 353575200, 15, 1.35, -33.7851288, 151.0661782, -0.31, 83.74, 0.35, 160.07
DU32, 7, 8825
CURR, 132, 132, 1219, 170, 4732, 1.150152
PM, 0, 0, 51, 1, 1000, 7348751, 17, 0
CTUN, 132, 0.00, -0.08, 0.000000, 0.00, 0, -14, 132, 0
ATT, 0.00, -3.24, 0.00, -5.14, 0.00, 132.13, 132.13
CTUN, 132, 0.00, -0.48, 0.000000, 0.00, 0, -16, 132, 0
ATT, 0.00, -3.14, 0.00, -5.23, 0.00, 132.13, 132.13
GPS, 3, 353575400, 15, 1.35, -33.7851287, 151.0661782, -0.32, 83.76, 0.03, 160.07
CTUN, 132, 0.00, -0.35, 0.000000, 0.00, 0, -16, 132, 0
ATT, 0.00, -3.19, 0.00, -5.26, 0.00, 132.39, 132.39
CTUN, 163, 0.00, -0.35, 0.000000, 0.00, 0, -16, 170, 0
ATT, 0.00, -3.25, 0.00, -5.14, 0.00, 132.40, 132.40
GPS, 3, 353575600, 15, 1.35, -33.7851286, 151.0661782, -0.36, 83.78, 0.03, 160.07
EV, 28
CTUN, 194, 0.00, -0.75, 0.000000, 0.00, 0, -16, 207, 0
ATT, 0.00, -3.24, 0.00, -5.12, 0.00, 132.46, 132.46
CTUN, 240, 0.00, -0.51, 0.000000, 0.00, 0, -16, 263, 0
ATT, 0.00, -3.27, 0.00, -5.09, 0.00, 132.43, 132.46
GPS, 3, 353575800, 15, 1.35, -33.7851285, 151.0661781, -0.42, 83.77, 0.02, 160.07
CTUN, 271, 0.00, -0.73, 0.000000, 0.00, 0, -17, 301, 0
ATT, 0.00, -3.21, 0.00, -5.11, 0.00, 132.45, 132.46
CTUN, 313, 0.00, -0.66, 0.000000, 0.00, 0, -16, 352, 0
ATT, 0.00, -3.20, 0.00, -5.04, 0.00, 132.35, 132.46
GPS, 3, 353576000, 15, 1.35, -33.7851284, 151.0661781, -0.48, 83.79, 0.01, 160.07
CTUN, 358, 0.00, -0.67, 0.000000, 0.00, 0, -16, 407, 0
ATT, 0.00, -3.18, 0.00, -4.92, 0.00, 132.19, 132.46
CTUN, 379, 0.00, -0.86, 0.000000, 0.00, 0, -16, 432, 0
ATT, 0.00, -2.84, 0.00, -4.63, 0.00, 131.92, 132.46
GPS, 3, 353576200, 15, 1.35, -33.7851283, 151.0661781, -0.53, 83.81, 0.01, 160.07
DU32, 7, 8313
CURR, 394, 2603, 1188, 850, 4752, 2.397255
CTUN, 396, 0.00, -0.75, 0.000000, 0.00, 0, -15, 453, 0
ATT, 0.00, -2.62, 0.00, -4.11, 0.00, 131.75, 132.46
CTUN, 395, 0.00, -0.70, 0.000000, 0.00, 0, -14, 452, 0
ATT, 0.00, -2.34, 0.00, -2.77, 0.00, 131.73, 132.46
GPS, 3, 353576400, 15, 1.35, -33.7851282, 151.0661781, -0.59, 83.82, 0.01, 160.07
CTUN, 392, 0.00, -0.67, 0.000000, 0.00, 0, -15, 448, 0
ATT, 0.00, -2.46, 0.00, -1.63, 0.00, 131.75, 132.46
CTUN, 503, 0.00, -0.56, 0.000000, 0.00, 0, -13, 582, 0
ATT, 0.00, -2.24, 0.00, -1.06, 0.00, 131.56, 132.46
GPS, 3, 353576600, 15, 1.35, -33.7851280, 151.0661780, -0.63, 83.86, 0.04, 160.07
EV, 16
CTUN, 549, 0.00, -0.78, 0.000000, 0.00, 0, 1, 621, 0
ATT, 0.00, -1.03, 0.00, 2.25, 0.00, 130.81, 132.46
CTUN, 571, 0.00, -0.64, 0.000000, 0.00, 0, 16, 639, 0
ATT, 0.00, 3.50, 0.00, 8.26, 0.00, 130.04, 132.46
GPS, 3, 353576800, 15, 1.35, -33.7851279, 151.0661779, -0.63, 83.88, 0.03, 160.07
CTUN, 590, 0.00, -0.42, 0.000000, 0.00, 0, 39, 655, 0
ATT, 0.00, 5.78, 0.00, 10.60, 0.00, 129.86, 132.46
CTUN, 590, 0.00, -0.25, 0.000000, 0.00, 0, 62, 655, 0
ATT, 0.00, 5.93, 0.00, 10.81, 0.00, 129.92, 132.46
GPS, 3, 353577000, 15, 1.35, -33.7851277, 151.0661776, -0.52, 83.96, 0.19, 160.07
CTUN, 592, 0.00, 0.08, 0.000000, 0.00, 0, 73, 657, 0
ATT, 0.00, 5.45, -0.73, 9.55, 0.00, 130.05, 132.46
CTUN, 592, 0.00, 0.46, 0.000000, 0.00, 0, 94, 657, 0
ATT, 0.00, 6.10, -4.53, 6.47, 0.00, 130.28, 132.46
GPS, 3, 353577200, 15, 1.35, -33.7851272, 151.0661764, -0.31, 84.13, 0.62, 236.85
DU32, 7, 8569
CURR, 587, 8396, 1153, 1674, 4752, 6.168480
CTUN, 584, 0.00, 0.41, 0.000000, 0.00, 0, 105, 650, 0
ATT, -2.10, 4.82, -6.13, 1.81, 0.00, 130.41, 132.46
CTUN, 560, 0.00, 0.62, 0.000000, 0.00, 0, 124, 630, 0
ATT, -7.85, 2.32, -5.76, -0.95, 0.00, 130.54, 132.46
GPS, 3, 353577400, 15, 1.35, -33.7851264, 151.0661742, -0.01, 84.37, 1.08, 273.80
CTUN, 558, 0.00, 0.71, 0.000000, 0.00, 0, 128, 628, 0
ATT, -10.19, -2.74, -6.00, -1.39, 0.00, 130.78, 132.46
CTUN, 549, 0.00, 0.56, 0.000000, 0.00, 0, 135, 621, 0
ATT, -12.53, -6.20, -6.62, -2.24, 0.00, 131.41, 132.46
GPS, 3, 353577600, 15, 1.35, -33.7851258, 151.0661714, 0.31, 84.64, 1.34, 277.17
CTUN, 524, 0.00, 0.81, 0.000000, 0.00, 0, 139, 600, 0
ATT, -12.30, -8.61, -6.86, -3.18, 0.00, 131.92, 132.46
CTUN, 444, 0.00, 1.08, 0.000000, 0.00, 0, 136, 511, 0
ATT, -12.53, -9.86, -7.72, -3.15, 0.00, 131.90, 132.46
GPS, 3, 353577800, 15, 1.35, -33.7851254, 151.0661687, 0.63, 84.94, 1.27, 277.55
CTUN, 441, 0.00, 1.09, 0.000000, 0.00, 0, 125, 508, 0
ATT, -11.25, -10.08, -9.07, -3.55, 0.00, 131.69, 132.46
CTUN, 442, 0.00, 1.49, 0.000000, 0.00, 0, 111, 509, 0
ATT, -8.90, -8.83, -11.64, -3.16, 0.00, 131.28, 132.46
GPS, 3, 353578001, 15, 1.35, -33.7851249, 151.0661663, 0.93, 85.23, 1.15, 278.73
CTUN, 442, 0.00, 1.72, 0.000000, 0.00, 0, 104, 509, 0
ATT, -10.54, -6.06, -12.13, -4.14, 0.00, 131.18, 132.46
CTUN, 442, 0.00, 1.75, 0.000000, 0.00, 0, 93, 509, 0
ATT, -12.89, -7.07, -12.50, -5.30, 0.00, 131.58, 132.46
GPS, 3, 353578200, 15, 1.35, -33.7851243, 151.0661643, 1.20, 85.47, 0.94, 282.42
DU32, 7, 8569
CURR, 442, 14121, 1178, 1112, 4752, 9.938852
CTUN, 442, 0.00, 1.94, 0.000000, 0.00, 0, 82, 509, 0
ATT, -13.94, -9.97, -14.34, -5.68, 0.00, 131.77, 132.46
CTUN, 441, 0.00, 2.19, 0.000000, 0.00, 0, 69, 508, 0
ATT, -14.53, -10.86, -14.71, -7.84, 0.00, 131.59, 132.46
GPS, 3, 353578400, 15, 1.35, -33.7851235, 151.0661626, 1.44, 85.67, 0.90, 290.32
CTUN, 441, 0.00, 2.42, 0.000000, 0.00, 0, 58, 508, 0
ATT, -15.46, -12.73, -14.46, -9.52, 0.00, 131.08, 132.46
CTUN, 442, 0.00, 2.35, 0.000000, 0.00, 0, 48, 509, 0
ATT, -15.82, -13.37, -14.34, -9.78, 0.00, 130.20, 132.46
GPS, 3, 353578600, 15, 1.35, -33.7851227, 151.0661613, 1.65, 85.84, 0.71, 298.21
CTUN, 441, 0.00, 2.30, 0.000000, 0.00, 0, 36, 508, 0
ATT, -16.40, -13.94, -15.69, -9.52, 0.00, 129.24, 132.46
CTUN, 442, 0.00, 2.30, 0.000000, 0.00, 0, 23, 509, 0
ATT, -16.64, -14.85, -15.81, -10.61, 0.00, 128.73, 132.46
GPS, 3, 353578800, 15, 1.35, -33.7851218, 151.0661606, 1.79, 85.93, 0.55, 314.54
CTUN, 442, 0.00, 2.33, 0.000000, 0.00, 0, 8, 509, 0
ATT, -15.58, -15.68, -14.46, -11.85, 0.00, 128.45, 132.46
CTUN, 441, 0.00, 2.45, 0.000000, 0.00, 0, 0, 508, 0
ATT, -12.30, -14.53, -10.66, -10.41, 0.00, 127.80, 132.46
GPS, 3, 353579000, 15, 1.35, -33.7851208, 151.0661608, 1.87, 85.99, 0.58, 342.41
CTUN, 442, 0.00, 2.35, 0.000000, 0.00, 0, -10, 509, 0
ATT, -9.02, -11.89, -4.78, -6.79, 0.00, 127.15, 132.46
CTUN, 441, 0.00, 2.20, 0.000000, 0.00, 0, -16, 508, 0
ATT, -3.63, -8.87, 0.00, -0.99, 0.00, 127.02, 132.46
GPS, 3, 353579200, 15, 1.35, -33.7851197, 151.0661617, 1.90, 85.99, 0.76, 11.49
DU32, 7, 8569
CURR, 441, 19205, 1172, 1119, 4752, 12.99769
CTUN, 441, 0.00, 2.31, 0.000000, 0.00, 0, -22, 508, 0
ATT, 0.00, -4.16, 0.00, 4.76, 0.00, 127.48, 132.46
CTUN, 444, 0.00, 1.95, 0.000000, 0.00, 0, -25, 511, 0
ATT, 0.00, 0.22, 0.00, 7.29, 0.00, 128.92, 132.46
GPS, 3, 353579400, 15, 1.35, -33.7851184, 151.0661630, 1.89, 85.97, 0.96, 30.05
CTUN, 442, 0.00, 2.01, 0.000000, 0.00, 0, -29, 509, 0
ATT, 0.00, 1.33, 0.00, 7.78, 0.00, 130.54, 132.46
CTUN, 443, 0.00, 2.03, 0.000000, 0.00, 0, -36, 510, 0
ATT, 0.00, 1.08, -2.32, 6.73, 0.00, 132.26, 132.46
GPS, 3, 353579600, 15, 1.35, -33.7851167, 151.0661640, 1.84, 85.91, 1.05, 30.27
CTUN, 443, 0.00, 1.97, 0.000000, 0.00, 0, -47, 510, 0
ATT, 0.00, 1.54, -9.93, 2.94, 0.00, 133.41, 132.46
CTUN, 443, 0.00, 2.22, 0.000000, 0.00, 0, -62, 510, 0
ATT, 0.00, 2.06, -14.95, -4.14, 0.00, 134.04, 132.46
GPS, 3, 353579800, 15, 1.35, -33.7851146, 151.0661645, 1.76, 85.83, 1.19, 17.98
CTUN, 441, 0.00, 2.18, 0.000000, 0.00, 0, -75, 508, 0
ATT, -5.15, 0.38, -16.06, -9.08, 0.00, 134.28, 132.46
CTUN, 443, 0.00, 2.14, 0.000000, 0.00, 0, -88, 510, 0
ATT, -3.86, -3.59, -16.43, -11.94, 0.00, 134.41, 132.46
GPS, 3, 353580000, 14, 1.42, -33.7851123, 151.0661645, 1.65, 85.74, 1.22, 9.17
CTUN, 443, 0.00, 2.13, 0.000000, 0.00, 0, -102, 510, 0
ATT, -5.27, -5.14, -16.18, -11.85, 0.00, 133.94, 132.46
CTUN, 472, 0.00, 1.93, 0.000000, 0.00, 0, -114, 545, 0
ATT, -5.15, -5.18, -15.44, -11.58, 0.00, 133.23, 132.46
GPS, 3, 353580200, 14, 1.42, -33.7851104, 151.0661646, 1.50, 85.58, 1.09, 6.70
DU32, 7, 8569
CURR, 511, 24327, 1167, 1131, 4693, 16.09531
CTUN, 519, 0.00, 1.76, 0.000000, 0.00, 0, -121, 595, 0
ATT, -4.92, -5.39, -15.44, -10.46, 0.00, 132.56, 132.46
CTUN, 557, 0.00, 1.65, 0.000000, 0.00, 0, -118, 627, 0
ATT, -4.45, -5.11, -15.81, -9.27, 0.00, 132.04, 132.46
GPS, 3, 353580400, 14, 1.42, -33.7851087, 151.0661649, 1.32, 85.37, 0.90, 8.29
CTUN, 570, 0.00, 1.77, 0.000000, 0.00, 0, -106, 638, 0
ATT, -2.81, -4.48, -15.81, -8.58, 0.00, 131.54, 132.46
CTUN, 574, 0.00, 1.48, 0.000000, 0.00, 0, -89, 642, 0
ATT, -1.28, -3.33, -16.79, -7.63, 0.00, 131.26, 132.46
GPS, 3, 353580600, 14, 1.42, -33.7851074, 151.0661655, 1.16, 85.10, 0.82, 14.54
CTUN, 573, 0.00, 1.43, 0.000000, 0.00, 0, -71, 641, 0
ATT, -2.57, -1.92, -17.16, -8.16, 0.00, 131.18, 132.46
CTUN, 576, 0.00, 1.55, 0.000000, 0.00, 0, -51, 643, 0
ATT, -2.81, -2.40, -17.16, -8.43, 0.00, 131.02, 132.46
GPS, 3, 353580800, 14, 1.42, -33.7851064, 151.0661665, 1.07, 84.91, 0.72, 24.35
CTUN, 578, 0.00, 1.30, 0.000000, 0.00, 0, -33, 645, 0
ATT, -2.69, -2.52, -16.79, -8.46, 0.00, 130.94, 132.46
CTUN, 578, 0.00, 1.52, 0.000000, 0.00, 0, -21, 645, 0
ATT, -2.57, -1.91, -16.30, -8.41, 0.00, 130.91, 132.46
GPS, 3, 353581000, 14, 1.42, -33.7851056, 151.0661678, 1.05, 84.81, 0.70, 39.60
CTUN, 578, 0.00, 1.50, 0.000000, 0.00, 0, -4, 645, 0
ATT, -2.10, -1.91, -16.55, -8.34, 0.00, 130.69, 132.46
CTUN, 577, 0.00, 1.25, 0.000000, 0.00, 0, 11, 644, 0
ATT, -4.92, -1.73, -16.79, -8.72, 0.00, 130.60, 132.46
GPS, 3, 353581200, 14, 1.42, -33.7851052, 151.0661692, 1.10, 84.75, 0.65, 56.74
DU32, 7, 8569
CURR, 577, 30677, 1150, 1631, 4732, 20.46558
CTUN, 575, 0.00, 1.39, 0.000000, 0.00, 0, 25, 643, 0
ATT, -10.66, -3.87, -16.55, -9.43, 0.00, 130.56, 132.46
CTUN, 565, 0.00, 1.59, 0.000000, 0.00, 0, 40, 634, 0
ATT, -16.40, -7.96, -15.44, -9.80, 0.00, 130.51, 132.46
GPS, 3, 353581400, 14, 1.42, -33.7851051, 151.0661708, 1.20, 84.75, 0.72, 74.85
CTUN, 565, 0.00, 1.31, 0.000000, 0.00, 0, 49, 634, 0
ATT, -15.82, -13.06, -16.43, -9.98, 0.00, 130.34, 132.46
CTUN, 565, 0.00, 1.20, 0.000000, 0.00, 0, 58, 634, 0
ATT, -18.04, -15.61, -17.28, -11.05, 0.00, 129.93, 132.46
GPS, 3, 353581600, 14, 1.42, -33.7851052, 151.0661729, 1.31, 84.80, 0.96, 88.83
CTUN, 567, 0.00, 1.05, 0.000000, 0.00, 0, 63, 636, 0
ATT, -15.93, -17.48, -19.61, -12.56, 0.00, 129.40, 132.46
CTUN, 565, 0.00, 0.97, 0.000000, 0.00, 0, 64, 634, 0
ATT, -13.94, -16.77, -21.58, -14.38, 0.00, 128.73, 132.46
GPS, 3, 353581800, 15, 1.35, -33.7851054, 151.0661753, 1.42, 84.83, 1.12, 93.37
CTUN, 549, 0.00, 0.92, 0.000000, 0.00, 0, 67, 621, 0
ATT, -10.31, -14.19, -22.80, -16.50, 0.00, 128.09, 132.46
CTUN, 536, 0.00, 1.17, 0.000000, 0.00, 0, 70, 610, 0
ATT, -7.38, -10.54, -23.05, -18.02, 0.00, 127.53, 132.46
GPS, 3, 353582000, 15, 1.35, -33.7851054, 151.0661794, 1.50, 84.93, 1.84, 91.78
CTUN, 534, 0.00, 1.04, 0.000000, 0.00, 0, 70, 608, 0
ATT, -6.91, -7.19, -24.03, -18.52, 0.00, 127.13, 132.46
CTUN, 529, 0.00, 1.02, 0.000000, 0.00, 0, 72, 604, 0
ATT, -3.04, -5.06, -24.40, -18.88, 0.00, 127.34, 132.46
GPS, 3, 353582200, 15, 1.35, -33.7851054, 151.0661846, 1.59, 85.06, 2.37, 91.47
DU32, 7, 8569
CURR, 518, 36949, 1155, 1475, 4732, 24.78762
CTUN, 519, 0.00, 0.97, 0.000000, 0.00, 0, 76, 595, 0
ATT, 0.00, -1.62, -25.87, -18.57, 0.00, 127.64, 132.46
CTUN, 519, 0.00, 0.96, 0.000000, 0.00, 0, 76, 595, 0
ATT, 0.00, 0.86, -25.87, -19.15, 0.00, 128.22, 132.46
GPS, 3, 353582400, 15, 1.35, -33.7851061, 151.0661906, 1.67, 85.19, 2.79, 95.79
CTUN, 518, 0.00, 1.07, 0.000000, 0.00, 0, 75, 595, 0
ATT, 2.29, 1.57, -25.62, -19.69, 0.00, 128.90, 132.46
CTUN, 511, 0.00, 1.18, 0.000000, 0.00, 0, 72, 589, 0
ATT, 10.30, 2.73, -22.43, -19.56, 0.00, 129.61, 132.46
GPS, 3, 353582600, 15, 1.35, -33.7851075, 151.0661969, 1.74, 85.30, 3.03, 100.69
CTUN, 501, 0.00, 1.43, 0.000000, 0.00, 0, 73, 580, 0
ATT, 15.00, 7.97, -17.28, -17.27, 0.00, 130.27, 132.46
CTUN, 473, 0.00, 1.45, 0.000000, 0.00, 0, 76, 547, 0
ATT, 23.12, 13.74, -12.50, -11.78, 0.00, 131.71, 132.46
GPS, 3, 353582800, 15, 1.35, -33.7851096, 151.0662033, 1.84, 85.41, 3.19, 105.33
CTUN, 471, 0.00, 1.98, 0.000000, 0.00, 0, 76, 544, 0
ATT, 24.61, 20.93, -11.64, -5.23, 0.00, 133.74, 132.46
CTUN, 471, 0.00, 1.82, 0.000000, 0.00, 0, 76, 544, 0
ATT, 24.61, 23.76, -11.77, -1.26, 0.00, 135.86, 132.46
GPS, 3, 353583000, 15, 1.35, -33.7851127, 151.0662092, 1.98, 85.51, 3.25, 113.97
CTUN, 472, 0.00, 1.77, 0.000000, 0.00, 0, 69, 545, 0
ATT, 26.45, 23.95, -11.52, 0.13, 0.00, 136.96, 132.46
CTUN, 472, 0.00, 1.54, 0.000000, 0.00, 0, 62, 545, 0
ATT, 28.39, 23.68, -11.03, 0.19, 0.00, 137.14, 132.46
GPS, 3, 353583200, 15, 1.35, -33.7851163, 151.0662138, 2.08, 85.64, 2.96, 125.34
DU32, 7, 8569
CURR, 453, 42639, 1162, 1255, 4752, 28.54075
CTUN, 429, 0.00, 1.88, 0.000000, 0.00, 0, 53, 493, 0
ATT, 29.19, 24.79, -10.05, -0.13, 0.00, 136.84, 132.46
CTUN, 429, 0.00, 1.84, 0.000000, 0.00, 0, 39, 493, 0
ATT, 28.85, 26.64, -10.42, 0.57, 0.00, 136.49, 132.46
GPS, 3, 353583400, 15, 1.35, -33.7851206, 151.0662165, 2.14, 85.78, 2.68, 130.90
CTUN, 427, 0.00, 1.54, 0.000000, 0.00, 0, 22, 491, 0
ATT, 28.51, 26.93, -10.05, 0.48, 0.00, 136.18, 132.46
CTUN, 427, 0.00, 1.45, 0.000000, 0.00, 0, 4, 491, 0
ATT, 28.74, 24.92, -8.58, -0.09, 0.00, 135.81, 132.46
GPS, 3, 353583600, 15, 1.35, -33.7851252, 151.0662174, 2.11, 85.89, 2.57, 151.23
CTUN, 426, 0.00, 0.84, 0.000000, 0.00, 0, -12, 490, 0
ATT, 27.13, 22.29, -7.84, 0.17, 0.00, 135.56, 132.46
CTUN, 427, 0.00, 0.69, 0.000000, 0.00, 0, -27, 491, 0
ATT, 26.79, 20.19, -7.84, 1.35, 0.00, 135.48, 132.46
GPS, 3, 353583800, 15, 1.35, -33.7851299, 151.0662161, 1.94, 85.82, 2.65, 184.11
CTUN, 426, 0.00, 1.34, 0.000000, 0.00, 0, -40, 490, 0
ATT, 24.73, 19.28, -6.74, 1.88, 0.00, 135.15, 132.46
CTUN, 470, 0.00, 1.52, 0.000000, 0.00, 0, -52, 543, 0
ATT, 26.10, 18.10, -4.90, 2.27, 0.00, 134.65, 132.46
GPS, 3, 353584000, 15, 1.35, -33.7851345, 151.0662136, 1.77, 85.83, 2.79, 185.77
CTUN, 503, 0.00, 1.26, 0.000000, 0.00, 0, -56, 582, 0
ATT, 25.99, 18.09, 0.00, 3.32, 0.00, 134.29, 132.46
CTUN, 536, 0.00, 1.59, 0.000000, 0.00, 0, -55, 610, 0
ATT, 25.07, 18.09, 0.00, 6.62, 0.00, 134.55, 132.46
GPS, 3, 353584200, 15, 1.35, -33.7851387, 151.0662099, 1.62, 85.81, 2.88, 191.77
DU32, 7, 8569
CURR, 552, 47818, 1150, 1470, 4752, 31.71422
CTUN, 552, 0.00, 1.86, 0.000000, 0.00, 0, -48, 623, 0
ATT, 20.61, 18.69, 0.00, 9.17, 0.00, 134.70, 132.46
CTUN, 553, 0.00, 2.21, 0.000000, 0.00, 0, -36, 624, 0
ATT, 20.15, 15.66, 0.00, 9.49, 0.00, 134.74, 132.46
GPS, 3, 353584400, 15, 1.35, -33.7851311, 151.0662026, 1.56, 85.94, 3.47, 245.61
CTUN, 553, 0.00, 2.24, 0.000000, 0.00, 0, -27, 624, 0
ATT, 15.57, 13.78, 1.27, 9.45, 0.00, 134.13, 132.46
CTUN, 553, 0.00, 2.14, 0.000000, 0.00, 0, -15, 624, 0
ATT, 6.75, 9.02, 4.40, 10.32, 0.00, 133.59, 132.46
GPS, 3, 353584600, 15, 1.35, -33.7850985, 151.0661872, 1.59, 86.16, 12.63, 334.40
CTUN, 553, 0.00, 2.09, 0.000000, 0.00, 0, -1, 624, 0
ATT, 0.00, 1.96, 6.03, 12.09, 0.00, 132.83, 132.46
CTUN, 553, 0.00, 2.12, 0.000000, 0.00, 0, 7, 624, 0
ATT, 0.00, -4.48, 5.79, 13.32, 0.00, 131.29, 132.46
GPS, 3, 353584800, 13, 1.55, -33.7850415, 151.0661657, 1.65, 86.54, 23.74, 340.48
CTUN, 553, 0.00, 1.93, 0.000000, 0.00, 0, 12, 624, 0
ATT, 0.00, -5.68, 3.82, 13.28, 0.00, 129.70, 132.46
CTUN, 554, 0.00, 1.75, 0.000000, 0.00, 0, 20, 625, 0
ATT, 0.00, -5.51, 4.98, 11.39, 0.00, 128.16, 132.46
GPS, 3, 353585000, 11, 1.79, -33.7849776, 151.0661365, 1.72, 86.88, 31.25, 338.99
CTUN, 552, 0.00, 2.11, 0.000000, 0.00, 0, 25, 623, 0
ATT, 0.00, -4.86, 1.73, 9.99, 0.00, 127.01, 132.46
CTUN, 554, 0.00, 1.85, 0.000000, 0.00, 0, 29, 625, 0
ATT, -2.10, -4.37, 0.46, 7.20, 0.00, 126.37, 132.46
GPS, 3, 353585200, 9, 1.94, -33.7849132, 151.0661047, 1.79, 87.30, 35.11, 337.62
DU32, 7, 8569
CURR, 551, 54057, 1148, 1538, 4752, 36.01978
PM, 0, 0, 50, 0, 1000, 10292, 10, 0
CTUN, 551, 0.00, 1.60, 0.000000, 0.00, 0, 43, 622, 0
ATT, -7.03, -5.46, 0.00, 3.64, 0.00, 126.39, 132.46
CTUN, 551, 0.00, 1.63, 0.000000, 0.00, 0, 53, 622, 0
ATT, -14.76, -9.40, 0.00, 1.70, 0.00, 126.58, 132.46
GPS, 3, 353585400, 8, 2.21, -33.7848464, 151.0660774, 1.87, 88.49, 37.21, 339.49
CTUN, 551, 0.00, 1.92, 0.000000, 0.00, 0, 55, 622, 0
ATT, -22.03, -15.83, 0.00, 0.81, 0.00, 126.80, 132.46
CTUN, 551, 0.00, 1.82, 0.000000, 0.00, 0, 58, 622, 0
ATT, -25.89, -21.22, 0.00, 0.39, 0.00, 127.03, 132.46
GPS, 3, 353585600, 8, 2.21, -33.7847985, 151.0660574, 1.97, 90.64, 32.54, 339.48
CTUN, 553, 0.00, 1.95, 0.000000, 0.00, 0, 57, 624, 0
ATT, -27.77, -25.53, 0.00, -0.36, 0.00, 127.61, 132.46
CTUN, 552, 0.00, 1.85, 0.000000, 0.00, 0, 58, 623, 0
ATT, -30.23, -26.93, 0.00, -0.86, 0.00, 127.91, 132.46
GPS, 3, 353585800, 7, 2.90, -33.7847657, 151.0660425, 2.08, 92.66, 25.37, 338.64
CTUN, 551, 0.00, 1.70, 0.000000, 0.00, 0, 53, 622, 0
ATT, -30.70, -28.48, 0.00, -1.00, 0.00, 128.21, 132.46
CTUN, 551, 0.00, 1.88, 0.000000, 0.00, 0, 51, 622, 0
ATT, -31.99, -28.64, 0.00, -0.89, 0.00, 128.45, 132.46
GPS, 3, 353586000, 8, 2.61, -33.7847294, 151.0660315, 2.14, 95.16, 22.67, 342.73
CTUN, 551, 0.00, 1.80, 0.000000, 0.00, 0, 44, 622, 0
ATT, -34.57, -28.80, 0.34, -0.78, 0.00, 128.82, 132.46
CTUN, 551, 0.00, 1.95, 0.000000, 0.00, 0, 42, 622, 0
ATT, -35.39, -29.59, 0.00, -0.44, 0.00, 129.15, 132.46
GPS, 3, 353586200, 7, 2.90, -33.7846967, 151.0660209, 2.20, 96.50, 20.13, 344.18
DU32, 7, 8569
CURR, 551, 60282, 1148, 1517, 4712, 40.18362
CTUN, 551, 0.00, 1.84, 0.000000, 0.00, 0, 34, 622, 0
ATT, -36.21, -29.73, 0.00, -0.59, 0.00, 129.63, 132.46
CTUN, 551, 0.00, 1.82, 0.000000, 0.00, 0, 27, 622, 0
ATT, -37.73, -29.76, 0.00, -0.68, 0.00, 130.09, 132.46
GPS, 3, 353586400, 7, 2.90, -33.7846661, 151.0660126, 2.23, 97.78, 18.38, 346.44
CTUN, 551, 0.00, 2.10, 0.000000, 0.00, 0, 21, 622, 0
ATT, -38.43, -30.69, 0.00, -0.79, 0.00, 130.55, 132.46
CTUN, 551, 0.00, 2.01, 0.000000, 0.00, 0, 15, 622, 0
ATT, -37.38, -30.81, 0.00, -0.71, 0.00, 130.74, 132.46
GPS, 3, 353586600, 7, 2.90, -33.7846401, 151.0660076, 2.24, 98.90, 16.06, 349.57
CTUN, 551, 0.00, 2.22, 0.000000, 0.00, 0, 10, 622, 0
ATT, -31.52, -29.53, 0.00, -0.96, 0.00, 131.04, 132.46
MODE, RTL, 596
ERR, 9, 2
NTUN, 0.00, 0.00, 0.000000, 0.000000, 0.000000, 0.000000, 2116.257, -369.7184, 0.000000, 0.000000, -28.03, -1.13
CTUN, 546, 0.00, 2.45, 2.245280, 0.00, 54, 4, 678, 0
GPS, 3, 353586800, 7, 2.90, -33.7846220, 151.0660066, 2.24, 99.72, 12.37, 354.63
ATT, -24.02, -25.20, -2.32, -1.24, 0.00, 131.21, 132.46
NTUN, 0.47, 3.44, 136.7764, -25.77515, 131.2443, -24.73264, 2187.647, -351.0719, -966.0724, 164.6330, 32.23, -37.86
CTUN, 546, 0.00, 2.65, 2.302126, 0.00, 25, 4, 625, 0
ATT, -30.58, -16.56, -2.45, -5.03, 0.00, 131.11, 132.46
NTUN, 2.23, 1.74, -142.8955, 11.90698, -136.1960, 11.34874, 2228.525, -335.8345, -970.0508, 139.2897, 33.04, -37.23
CTUN, 546, 0.00, 2.85, 2.408972, 0.00, 23, 9, 625, 0
GPS, 3, 353587000, 7, 2.90, -33.7846068, 151.0660069, 2.29, 100.00, 9.82, 0.09
ATT, -32.46, 4.32, -2.94, -19.24, 0.00, 129.12, 132.46
NTUN, 4.93, 1.73, -409.9580, 43.62842, -267.6624, 28.48509, 2227.238, -325.1770, -970.5537, 135.7413, 32.63, -36.73
CTUN, 544, 0.00, 2.60, 2.565818, 0.00, 155, 2, 783, 0
ATT, -36.09, 29.56, -2.94, -31.41, 0.00, 122.64, 132.46
NTUN, 7.24, 1.74, -653.4463, 69.02271, -346.5207, 36.60254, 2174.063, -325.5469, -971.3887, 129.6307, 33.02, -33.45
CTUN, 544, 0.00, 2.29, 2.772664, 0.00, 227, 15, 855, 0
GPS, 3, 353587200, 7, 2.90, -33.7845878, 151.0660077, 2.36, 100.81, 10.24, 2.31
ATT, -35.85, 37.50, -3.18, -30.11, 0.00, 124.89, 132.30
NTUN, 9.47, 1.74, -876.7344, 90.65479, -405.6140, 41.94070, 2081.604, -337.5143, -970.7124, 134.6015, 32.70, -33.64
DU32, 7, 8569
CURR, 544, 66996, 1099, 2542, 4673, 44.81961
CTUN, 544, 0.00, 2.57, 3.020164, 0.00, 251, 7, 941, 0
ATT, -33.28, 38.12, -3.80, -28.51, 0.00, 129.90, 132.30
NTUN, 11.35, 1.74, -1074.900, 109.1675, -451.6436, 45.86918, 1993.341, -361.1522, -968.7755, 147.8989, 30.53, -36.54
CTUN, 487, 0.00, 2.68, 3.270164, 0.00, 215, 18, 881, 0
GPS, 3, 353587400, 7, 2.90, -33.7845688, 151.0660081, 2.40, 101.82, 10.34, 0.74
ATT, -18.16, 35.10, 0.00, -28.95, 0.00, 134.08, 132.30
NTUN, 13.11, 1.74, -1253.101, 127.1593, -489.3278, 49.65487, 1909.536, -385.7737, -965.4478, 168.2575, 27.81, -38.73
CTUN, 447, 0.00, 2.41, 3.520164, 0.00, 203, 36, 866, 0
ATT, -14.76, 31.55, 0.00, -31.33, 0.00, 135.84, 132.30
NTUN, 14.60, 1.74, -1410.301, 145.1183, -497.3738, 51.17917, 1810.776, -399.8779, -959.7664, 198.1127, 25.10, -40.07
CTUN, 396, 0.00, 2.35, 3.770164, 0.00, 204, 41, 893, 0
GPS, 3, 353587600, 7, 2.90, -33.7845533, 151.0660059, 2.48, 103.02, 9.18, 352.23
ATT, -13.71, 26.96, 0.00, -34.43, 0.00, 136.45, 132.30
NTUN, 15.99, 1.73, -1549.928, 163.2524, -497.2493, 52.37480, 1725.324, -403.1625, -954.7647, 220.9624, 23.10, -40.79
CTUN, 395, 0.00, 2.29, 4.020164, 0.00, 184, 62, 850, 0
ATT, -32.10, 22.66, 0.00, -35.57, 0.00, 136.35, 132.30
ERR, 9, 2
NTUN, 17.14, 1.73, -1671.350, 181.3020, -497.0839, 53.92188, 1628.722, -393.4433, -950.8573, 237.2140, 22.00, -41.10
CTUN, 395, 0.00, 2.34, 4.270164, 0.00, 186, 71, 892, 0
GPS, 3, 353587800, 8, 2.61, -33.7845498, 151.0660057, 2.58, 104.54, 5.03, 350.01
ATT, -45.00, 19.82, 0.00, -36.39, 0.00, 135.30, 132.30
NTUN, 18.18, 1.73, -1777.317, 198.3330, -496.9156, 55.45144, 1545.468, -374.6774, -947.6642, 249.6646, 21.59, -41.18
CTUN, 395, 0.00, 2.36, 4.520164, 0.00, 184, 73, 891, 0
ATT, -45.00, 18.79, 0.00, -37.11, 0.00, 133.42, 132.30
NTUN, 18.93, 1.73, -1860.752, 211.6228, -496.7974, 56.50064, 1472.807, -354.7554, -945.5318, 257.6230, 22.15, -40.84
CTUN, 345, 0.00, 2.33, 4.767664, 0.00, 169, 73, 840, 0
GPS, 3, 353588000, 8, 2.61, -33.7845451, 151.0660038, 2.70, 105.77, 3.83, 346.58
ATT, -43.82, 19.46, 0.00, -35.77, 0.00, 132.15, 132.30
NTUN, 19.57, 1.73, -1926.601, 221.2002, -496.7367, 57.03219, 1394.216, -333.7490, -944.0766, 262.9058, 23.02, -40.43
CTUN, 257, 0.00, 2.61, 5.017664, 0.00, 180, 76, 900, 0
ATT, -36.56, 21.60, 0.00, -34.67, 0.00, 130.92, 132.30
NTUN, 20.03, 1.73, -1977.884, 228.1848, -496.7054, 57.30399, 1321.860, -316.6037, -942.2990, 269.2076, 23.74, -40.22
CTUN, 252, 0.00, 2.78, 5.267663, 0.00, 179, 65, 906, 0
GPS, 3, 353588200, 7, 2.90, -33.7845313, 151.0659982, 2.82, 106.91, 6.91, 338.20
ATT, -35.39, 22.09, 1.15, -33.68, 0.00, 130.61, 132.30
NTUN, 20.40, 1.73, -2016.862, 233.0732, -496.6945, 57.39914, 1250.816, -305.2798, -939.4649, 278.9367, 24.26, -40.10
DU32, 7, 8569
CURR, 247, 75790, 1093, 2351, 4752, 51.98264
CTUN, 247, 0.00, 2.82, 5.515163, 0.00, 147, 67, 796, 0
ATT, -39.37, 21.54, 3.94, -32.74, 0.00, 130.84, 132.30
NTUN, 20.77, 1.73, -2052.864, 239.2910, -496.6374, 57.89027, 1175.759, -293.0951, -935.6536, 291.4659, 23.95, -40.41
CTUN, 247, 0.00, 2.88, 5.765163, 0.00, 138, 67, 773, 0
GPS, 3, 353588400, 7, 2.90, -33.7845124, 151.0659881, 2.95, 108.06, 9.97, 334.41
ATT, -44.64, 21.39, 11.48, -32.49, 0.00, 131.00, 132.30
NTUN, 21.06, 1.73, -2084.263, 246.0435, -496.5522, 58.61707, 1109.139, -283.5649, -931.5203, 304.4173, 23.42, -40.73
CTUN, 204, 0.00, 3.08, 6.015163, 0.00, 149, 63, 830, 0
ATT, -45.11, 20.91, 20.29, -32.95, 0.00, 131.11, 132.30
NTUN, 21.44, 1.72, -2117.898, 257.2147, -496.3529, 60.28113, 1044.637, -274.5742, -925.7342, 321.5836, 22.65, -41.10
CTUN, 0, 0.00, 2.87, 6.265163, 0.00, 144, 69, 805, 0
GPS, 3, 353588600, 7, 2.90, -33.7844756, 151.0659728, 3.08, 109.75, 17.33, 338.12
ATT, -45.11, 19.84, 22.96, -33.19, 0.00, 131.36, 132.30
NTUN, 21.77, 1.72, -2151.323, 271.1862, -496.0742, 62.53289, 992.0811, -269.0398, -919.8915, 337.9343, 21.89, -41.39
CTUN, 0, 0.00, 3.01, 6.515163, 0.00, 148, 68, 819, 0
ATT, -45.11, 19.07, 30.61, -33.66, -1.71, 131.41, 131.90
NTUN, 22.41, 1.72, -2202.427, 292.4098, -495.6506, 65.80610, 948.5513, -262.5941, -912.9993, 356.1351, 20.96, -41.73
CTUN, 0, 0.00, 3.24, 6.765163, 0.00, 165, 64, 906, 0
GPS, 3, 353588800, 7, 2.90, -33.7844220, 151.0659513, 3.19, 111.58, 25.67, 339.82
ATT, -45.11, 18.24, 33.05, -33.81, 0.00, 131.28, 131.90
NTUN, 23.05, 1.71, -2264.719, 318.4622, -495.1287, 69.62444, 920.8555, -259.8569, -906.8143, 371.6017, 20.31, -41.97
CTUN, 0, 0.00, 3.21, 7.015163, 0.00, 175, 53, 942, 0
ATT, -45.11, 17.61, 42.56, -34.34, 0.00, 131.17, 131.90
NTUN, 24.18, 1.71, -2356.519, 354.4756, -494.4374, 74.37497, 903.8463, -256.2411, -899.7441, 388.4076, 19.64, -42.18
CTUN, 0, 0.00, 3.29, 7.262663, 0.00, 175, 46, 954, 0
GPS, 3, 353589000, 7, 2.90, -33.7843467, 151.0659214, 3.29, 113.59, 35.77, 340.56
ATT, -44.29, 16.93, 44.18, -34.47, 0.00, 131.11, 131.90
NTUN, 25.35, 1.70, -2468.761, 397.3713, -493.6462, 79.45720, 904.7332, -258.0188, -897.0436, 394.6047, 19.29, -42.31
CTUN, 0, 0.00, 3.30, 7.512663, 0.00, 179, 39, 968, 0
ATT, -44.64, 16.39, 44.07, -34.86, 0.00, 130.83, 131.90
NTUN, 27.20, 1.69, -2623.914, 453.8655, -492.6839, 85.22086, 924.8659, -265.4482, -894.8278, 399.6038, 19.09, -42.34
CTUN, 0, 0.00, 3.39, 7.762663, 0.00, 168, 27, 1000, 0
GPS, 3, 353589200, 7, 2.90, -33.7842350, 151.0658806, 3.36, 115.99, 50.55, 341.79
ATT, -41.60, 15.79, 44.53, -34.91, -0.45, 130.55, 131.85
NTUN, 29.16, 1.69, -2809.927, 520.1128, -491.6487, 91.00335, 971.5269, -279.7129, -894.0649, 401.3077, 19.14, -42.31
DU32, 7, 8569
CURR, 0, 84685, 1100, 2277, 4693, 58.35953
CTUN, 0, 0.00, 3.25, 8.012664, 0.00, 164, 19, 1000, 0
ATT, -43.71, 15.51, 44.53, -34.80, 0.00, 130.18, 131.57
NTUN, 32.14, 1.68, -3061.812, 605.0007, -490.5158, 96.92381, 1042.016, -299.1997, -894.0599, 401.3190, 19.40, -42.23
CTUN, 0, 0.00, 3.55, 8.262664, 0.00, 105, 2, 1000, 0
GPS, 3, 353589400, 7, 2.90, -33.7841098, 151.0658365, 3.38, 118.69, 61.29, 342.49
ATT, -42.89, 15.72, 44.42, -34.72, 0.00, 129.57, 131.57
NTUN, 35.30, 1.68, -3362.169, 703.4377, -489.4032, 102.3936, 1133.800, -321.4368, -895.5966, 397.8777, 19.96, -42.02
CTUN, 0, 0.00, 3.25, 8.502314, 0.00, 0, -15, 1000, 0
ATT, -41.95, 16.63, 44.42, -34.95, 0.00, 128.98, 131.57
NTUN, 39.46, 1.67, -3728.885, 819.5129, -488.3454, 107.3258, 1246.870, -350.2152, -898.6219, 390.9969, 20.60, -41.78
CTUN, 0, 0.00, 3.35, 8.728503, 0.00, 0, -27, 1000, 0
GPS, 3, 353589600, 12, 1.63, -33.7840657, 151.0658424, 3.34, 131.81, 45.73, 345.35
ATT, -39.96, 17.48, 44.42, -34.25, 0.00, 128.89, 131.57
NTUN, 43.84, 1.66, -4144.571, 948.6553, -487.3954, 111.5604, 1350.832, -373.4977, -901.9919, 383.1586, 21.15, -41.57
CTUN, 0, 0.00, 3.37, 8.943384, 0.00, 0, -44, 1000, 0
ERR, 9, 2
ATT, -36.09, 19.19, 44.42, -35.05, 0.00, 128.58, 131.57
NTUN, 47.92, 1.66, -4548.914, 1058.626, -486.9866, 113.3318, 1450.583, -393.3082, -908.9661, 366.3068, 21.89, -41.23
CTUN, 0, 0.00, 3.22, 9.140966, 0.00, 0, -64, 1000, 0
GPS, 3, 353589800, 11, 2.14, -33.7840716, 151.0658427, 3.26, 137.57, 23.61, 343.61
ATT, -31.52, 20.52, 44.53, -35.20, 0.00, 128.53, 131.57
NTUN, 52.06, 1.66, -4948.237, 1155.896, -486.8921, 113.7368, 1531.138, -413.4674, -913.4116, 355.0763, 22.28, -40.97
CTUN, 0, 0.00, 3.21, 9.319274, 0.00, 0, -82, 1000, 0
ATT, -29.41, 21.36, 44.42, -34.63, 0.00, 128.83, 131.57
NTUN, 55.36, 1.66, -5295.956, 1241.406, -486.8048, 114.1101, 1592.472, -430.8397, -914.5150, 352.2252, 22.39, -40.95
CTUN, 0, 0.00, 3.46, 9.478231, 0.00, 0, -97, 1000, 0
GPS, 3, 353590000, 12, 1.62, -33.7840807, 151.0658393, 3.08, 140.91, 11.92, 337.65
ATT, -21.67, 21.56, 44.53, -34.08, 0.00, 129.33, 131.57
NTUN, 58.61, 1.66, -5610.293, 1319.523, -486.7191, 114.4748, 1635.761, -445.2322, -915.4410, 349.8110, 22.40, -41.01
CTUN, 0, 0.00, 3.15, 9.627220, 0.00, 0, -102, 1000, 0
ATT, -15.23, 21.39, 44.42, -33.64, 0.00, 129.87, 131.57
NTUN, 61.14, 1.66, -5878.646, 1390.460, -486.5745, 115.0881, 1661.069, -458.4123, -915.0990, 350.7048, 22.13, -41.18
CTUN, 0, 0.00, 3.17, 9.765265, 0.00, 0, -117, 1000, 0
GPS, 3, 353590200, 13, 1.47, -33.7841049, 151.0658370, 2.89, 142.68, 3.77, 337.65
ATT, -11.71, 20.92, 44.42, -33.75, 0.00, 130.30, 131.57
NTUN, 63.60, 1.66, -6115.225, 1456.693, -486.3908, 115.8620, 1671.113, -465.0180, -914.2551, 352.8988, 21.76, -41.40
DU32, 7, 8569
CURR, 0, 94685, 1112, 2091, 4693, 64.27285
CTUN, 0, 0.00, 3.10, 9.893837, 0.00, 0, -126, 1000, 0
ATT, -5.97, 20.59, 29.92, -33.85, 0.00, 130.58, 131.57
NTUN, 65.28, 1.66, -6300.916, 1516.290, -486.1223, 116.9834, 1663.116, -471.9121, -913.1387, 355.7777, 21.39, -41.53
CTUN, 0, 0.00, 2.82, 10.01233, 0.00, 0, -132, 1000, 0
GPS, 3, 353590400, 13, 1.47, -33.7841300, 151.0658343, 2.66, 143.85, 4.05, 337.65
ATT, 0.00, 20.44, 21.57, -33.68, -1.25, 130.76, 130.97
NTUN, 66.87, 1.66, -6451.114, 1571.360, -485.7963, 118.3300, 1646.262, -477.3688, -911.6564, 359.5589, 21.14, -41.64
CTUN, 0, 0.00, 2.53, 10.11918, 0.00, 0, -145, 1000, 0
ATT, 0.00, 20.40, 8.46, -33.76, -2.05, 130.58, 130.57
NTUN, 67.81, 1.66, -6558.423, 1620.829, -485.3965, 119.9594, 1613.991, -477.5112, -909.1724, 365.7943, 21.01, -41.70
CTUN, 0, 0.00, 2.53, 10.22197, 0.00, 0, -151, 1000, 0
GPS, 3, 353590600, 13, 1.47, -33.7841534, 151.0658318, 2.38, 145.48, 5.93, 204.74
ATT, 0.00, 19.50, 0.00, -33.57, -2.28, 130.17, 129.45
NTUN, 68.66, 1.65, -6634.956, 1666.608, -484.9356, 121.8091, 1573.871, -478.5182, -906.8157, 371.5983, 20.91, -41.77
CTUN, 0, 0.00, 2.41, 10.31517, 0.00, 0, -159, 1000, 0
ERR, 9, 2
ATT, 0.00, 18.64, 0.00, -33.48, -2.96, 129.25, 128.12
NTUN, 69.01, 1.65, -6677.802, 1707.665, -484.4120, 123.8751, 1522.799, -473.4370, -903.9779, 378.4494, 21.14, -41.66
CTUN, 0, 0.00, 2.15, 10.40489, 0.00, 0, -161, 1000, 0
GPS, 3, 353590800, 13, 1.47, -33.7841787, 151.0658291, 2.07, 147.15, 7.50, 198.94
ATT, 0.00, 18.29, 0.00, -32.80, -2.51, 127.96, 126.80
NTUN, 69.26, 1.65, -6695.669, 1745.187, -483.8353, 126.1088, 1471.368, -466.6397, -901.3140, 384.7508, 21.69, -41.47
CTUN, 0, 0.00, 2.09, 10.48762, 0.00, 0, -170, 1000, 0
ATT, 0.00, 18.53, 0.00, -32.37, 0.00, 126.49, 126.26
NTUN, 69.10, 1.65, -6684.804, 1778.428, -483.1927, 128.5488, 1414.992, -462.2367, -898.5179, 391.2359, 22.42, -41.20
CTUN, 0, 0.00, 1.74, 10.55958, 0.00, 0, -180, 1000, 0
GPS, 3, 353591000, 14, 1.42, -33.7842063, 151.0658272, 1.73, 148.83, 8.24, 196.23
ATT, 0.00, 19.62, 0.00, -31.67, 0.00, 125.54, 126.26
NTUN, 68.86, 1.64, -6652.673, 1808.582, -482.4883, 131.1683, 1342.880, -453.8727, -894.4147, 400.5276, 22.99, -41.00
CTUN, 0, 0.00, 1.61, 10.62652, 0.00, 0, -183, 1000, 0
ATT, 0.00, 19.66, 0.00, -31.42, 0.00, 124.80, 126.26
NTUN, 68.26, 1.64, -6595.565, 1835.085, -481.7027, 134.0242, 1270.809, -444.5173, -890.0412, 410.1542, 23.22, -40.94
CTUN, 0, 0.00, 1.62, 10.68458, 0.00, 0, -195, 1000, 0
GPS, 3, 353591200, 13, 1.47, -33.7842343, 151.0658251, 1.36, 150.26, 8.97, 194.12
ATT, 0.00, 19.95, 0.00, -31.31, 0.00, 124.27, 126.26
NTUN, 67.57, 1.63, -6518.861, 1858.450, -480.8414, 137.0822, 1195.002, -436.5288, -885.4380, 419.9993, 23.25, -40.92
DU32, 7, 8569
CURR, 0, 104685, 1114, 1960, 4752, 70.01849
CTUN, 0, 0.00, 1.56, 10.73323, 0.00, 0, -205, 1000, 0
ATT, 0.00, 20.41, 0.00, -31.02, 0.00, 123.96, 126.26
NTUN, 66.61, 1.63, -6422.233, 1878.887, -479.8846, 140.3949, 1108.494, -426.4735, -879.1161, 433.0760, 22.97, -41.11
CTUN, 0, 0.00, 1.38, 10.77610, 0.00, 0, -205, 1000, 0
GPS, 3, 353591400, 13, 1.47, -33.7842634, 151.0658237, 0.98, 151.56, 9.43, 192.49
ATT, 0.00, 20.35, 0.00, -30.45, 0.00, 123.91, 126.26
NTUN, 65.55, 1.63, -6308.983, 1897.008, -478.8229, 143.9742, 1011.262, -415.2703, -872.0198, 447.1927, 22.55, -41.32
CTUN, 0, 0.00, 1.15, 10.81897, 0.00, 0, -200, 1000, 0
ATT, 0.00, 20.01, 0.00, -29.97, 0.00, 123.56, 126.26
NTUN, 64.27, 1.62, -6178.046, 1912.125, -477.6457, 147.8329, 913.2502, -399.6401, -863.3384, 463.7314, 22.11, -41.57
CTUN, 0, 0.00, 0.60, 10.86184, 0.00, 0, -196, 1000, 0
GPS, 3, 353591600, 13, 1.47, -33.7842820, 151.0658212, 0.62, 153.69, 7.46, 198.50
ATT, 0.00, 18.71, 0.00, -30.21, 0.00, 123.39, 126.26
NTUN, 62.88, 1.62, -6031.688, 1924.667, -476.3374, 151.9958, 824.1044, -387.7814, -853.7701, 481.1201, 21.53, -41.80
CTUN, 0, 0.00, 0.45, 10.90428, 0.00, 0, -202, 1000, 0
ATT, 0.00, 17.68, 0.00, -30.03, 0.00, 123.11, 126.26
NTUN, 61.47, 1.61, -5880.530, 1935.490, -474.9364, 156.3184, 737.7252, -374.1438, -843.9039, 498.2232, 20.93, -42.04
CTUN, 0, 0.00, 0.49, 10.94715, 0.00, 0, -200, 1000, 0
GPS, 3, 353591800, 13, 1.47, -33.7842891, 151.0658170, 0.21, 157.36, 4.43, 224.66
ATT, 0.00, 16.63, 0.00, -29.95, 0.00, 122.99, 126.26
NTUN, 59.99, 1.61, -5723.765, 1944.814, -473.4183, 160.8575, 651.4160, -356.0993, -833.0507, 516.1653, 20.17, -42.31
CTUN, 0, 0.00, 0.36, 10.99002, 0.00, 0, -199, 1000, 0
ATT, 0.00, 15.64, 0.00, -30.11, 0.00, 122.98, 126.26
NTUN, 58.65, 1.60, -5573.394, 1953.666, -471.8505, 165.3998, 574.8726, -338.9451, -823.4933, 531.2805, 19.51, -42.54
CTUN, 0, 0.00, 0.01, 11.03288, 0.00, 0, -198, 1000, 0
GPS, 3, 353592000, 13, 1.47, -33.7842815, 151.0658107, -0.15, 163.26, 4.87, 301.54
ATT, 0.00, 14.64, 0.00, -31.11, 0.00, 122.62, 126.26
NTUN, 57.26, 1.59, -5425.575, 1961.687, -470.2090, 170.0102, 508.3603, -323.7354, -812.7296, 547.6044, 18.68, -42.76
CTUN, 0, 0.00, -0.14, 11.07575, 0.00, 0, -206, 1000, 0
ATT, 0.00, 13.92, 0.00, -31.44, -0.11, 122.47, 126.01
NTUN, 56.19, 1.59, -5296.394, 1970.797, -468.6096, 174.3704, 453.5172, -309.3920, -804.6360, 559.4291, 18.20, -42.87
CTUN, 0, 0.00, -0.02, 11.11139, 0.00, 0, -214, 1000, 0
GPS, 3, 353592200, 13, 1.47, -33.7842718, 151.0658038, -0.54, 169.04, 7.78, 323.13
ATT, 0.00, 13.43, 0.00, -31.20, -15.41, 121.94, 121.57
NTUN, 55.11, 1.58, -5178.762, 1980.273, -467.0212, 178.5812, 400.0859, -287.8819, -796.5854, 570.8342, 17.78, -43.01
DU32, 7, 8569
CURR, 0, 114685, 1121, 1792, 4732, 75.10948
CTUN, 0, 0.00, -0.41, 11.14738, 0.00, 0, -196, 1000, 0
ATT, 0.00, 9.89, 0.00, -30.61, -18.04, 118.39, 115.04
NTUN, 54.32, 1.58, -5079.482, 1991.015, -465.5158, 182.4692, 356.4915, -263.6766, -792.4479, 576.5643, 19.08, -42.61
CTUN, 0, 0.00, -0.75, 11.18337, 0.00, 0, -183, 1000, 0
GPS, 3, 353592400, 13, 1.47, -33.7842450, 151.0657944, -0.89, 177.10, 13.44, 334.54
ATT, 0.00, 8.76, 0.00, -29.19, -29.35, 111.85, 103.70
NTUN, 53.53, 1.58, -4991.159, 2001.199, -464.0864, 186.0749, 331.0240, -233.6743, -789.9608, 579.9673, 22.40, -41.48
CTUN, 0, 0.00, -1.51, 11.21936, 0.00, 0, -151, 1000, 0
ATT, 0.00, 6.93, 0.00, -26.79, -41.91, 101.85, 91.85
NTUN, 53.18, 1.57, -4932.786, 2013.098, -462.9332, 188.9257, 329.6910, -200.7968, -796.7186, 570.6483, 27.91, -38.70
CTUN, 0, 0.00, -1.63, 11.25499, 0.00, 0, -107, 1000, 0
GPS, 3, 353592600, 14, 1.42, -33.7842255, 151.0657837, -1.19, 183.72, 15.53, 336.11
ATT, 0.00, 5.71, 0.00, -22.44, -43.85, 87.72, 77.72
NTUN, 52.88, 1.57, -4895.609, 2024.787, -462.0411, 191.0967, 348.0368, -173.3344, -809.0562, 553.0172, 35.01, -32.47
CTUN, 0, 0.00, -0.56, 11.29098, 0.00, 0, -57, 1000, 0
ATT, 0.00, 4.79, 0.00, -17.33, -44.88, 71.36, 61.36
NTUN, 52.90, 1.57, -4880.090, 2038.371, -461.3705, 192.7104, 387.9542, -159.5086, -824.1273, 530.2963, 41.13, -20.93
CTUN, 0, 0.00, 0.70, 11.32697, 0.00, 0, -4, 1000, 0
GPS, 3, 353592800, 13, 1.47, -33.7841780, 151.0657586, -1.23, 192.01, 22.65, 333.39
ATT, 0.00, 3.30, 0.00, -12.42, -45.11, 52.83, 42.83
NTUN, 52.98, 1.57, -4881.699, 2053.194, -460.8940, 193.8474, 450.1250, -166.5188, -837.2537, 509.3194, 44.21, -3.57
CTUN, 0, 0.00, 2.43, 11.36296, 0.00, 0, 44, 1000, 0
ATT, 0.00, 1.41, 0.00, -7.43, -45.11, 33.01, 23.01
NTUN, 53.73, 1.57, -4926.698, 2081.925, -460.5657, 194.6259, 527.0400, -191.5070, -846.0059, 494.6454, 43.54, 15.90
CTUN, 0, 0.00, 3.93, 11.39895, 0.00, 0, 91, 1000, 0
GPS, 3, 353593000, 12, 1.52, -33.7841120, 151.0657312, -0.70, 200.60, 31.06, 337.21
ATT, 0.00, 1.37, 0.00, -0.69, -44.77, 10.45, 0.87
NTUN, 54.63, 1.57, -5004.730, 2122.074, -460.3288, 195.1856, 598.7950, -231.4512, -850.7413, 486.4559, 38.45, 31.21
CTUN, 0, 0.00, 4.06, 11.43458, 0.00, 0, 123, 1000, 0
ATT, 0.00, 7.81, 0.00, 6.18, -13.70, 349.20, 344.91
NTUN, 56.28, 1.57, -5132.632, 2178.333, -460.2634, 195.3397, 677.4083, -266.9831, -852.2085, 483.8808, 27.59, 40.54
CTUN, 0, 0.00, 5.40, 11.47057, 0.00, 0, 152, 1000, 0
GPS, 3, 353593200, 14, 1.42, -33.7840826, 151.0657173, 0.12, 210.11, 27.32, 337.56
ATT, 0.00, 15.76, 0.00, 15.14, 0.00, 332.17, 342.17
NTUN, 58.09, 1.57, -5297.175, 2247.123, -460.2960, 195.2629, 750.3511, -283.2883, -856.0112, 477.1212, 10.41, 44.75
DU32, 7, 8569
CURR, 0, 124685, 1083, 2642, 4732, 81.68388
CTUN, 0, 0.00, 5.87, 11.50656, 0.00, 0, 127, 1000, 0
ATT, 0.00, 17.86, 0.00, 34.32, 0.00, 321.31, 331.31
NTUN, 59.99, 1.57, -5470.424, 2318.276, -460.3668, 195.0959, 820.2456, -291.9924, -862.0881, 466.0516, -4.26, 45.00
CTUN, 0, 0.00, 5.57, 11.54255, 0.00, 0, 72, 1000, 0
GPS, 3, 353593400, 14, 1.42, -33.7840582, 151.0657139, 0.97, 220.09, 23.40, 343.81
ATT, 0.00, 9.95, 0.00, 50.39, 0.00, 309.75, 319.75
NTUN, 61.95, 1.57, -5651.487, 2390.490, -460.4989, 194.7838, 880.2322, -285.5398, -869.2975, 452.4619, -10.92, 44.22
CTUN, 0, 0.00, 5.07, 11.57819, 0.00, 0, 22, 1000, 0
ATT, 0.00, -5.66, 0.00, 49.85, 0.00, 297.60, 307.60
NTUN, 63.86, 1.57, -5833.674, 2454.851, -460.8582, 193.9323, 929.0302, -274.6515, -878.9158, 433.4825, -16.93, 41.14
CTUN, 0, 0.00, 5.27, 11.61417, 0.00, 0, -23, 1000, 0
GPS, 3, 353593600, 14, 1.42, -33.7840370, 151.0657100, 1.47, 229.03, 21.07, 347.22
ATT, 0.00, -14.82, 0.00, 43.07, 0.00, 293.15, 303.15
NTUN, 65.79, 1.57, -6017.655, 2512.803, -461.3900, 192.6635, 968.4089, -265.9134, -885.8123, 419.2096, -23.28, 37.65
CTUN, 0, 0.00, 5.50, 11.65053, 0.00, 0, -57, 1000, 0
ATT, 0.00, -20.26, 0.00, 37.12, 0.00, 292.03, 301.97
NTUN, 67.61, 1.57, -6197.555, 2564.225, -462.0158, 191.1581, 996.7446, -263.5508, -891.4774, 407.0236, -27.52, 36.20
CTUN, 0, 0.00, 5.97, 11.68616, 0.00, 0, -76, 1000, 0
GPS, 3, 353593800, 14, 1.42, -33.7840107, 151.0657087, 1.82, 237.89, 20.25, 351.13
ATT, 0.00, -24.98, 0.00, 31.68, 0.00, 293.44, 301.97
NTUN, 69.43, 1.57, -6374.902, 2611.044, -462.6938, 189.5110, 1013.429, -265.9583, -894.5085, 400.3180, -29.56, 35.97
CTUN, 0, 0.00, 6.00, 11.72215, 0.00, 0, -86, 1000, 0
ATT, 0.00, -27.76, 0.00, 29.85, 0.00, 295.22, 301.97
NTUN, 71.19, 1.58, -6550.624, 2651.972, -463.4604, 187.6285, 1024.421, -278.4507, -895.7519, 397.5278, -29.88, 36.63
CTUN, 0, 0.00, 6.35, 11.75814, 0.00, 0, -90, 1000, 0
GPS, 3, 353594000, 14, 1.42, -33.7840042, 151.0657174, 2.14, 246.30, 15.00, 1.05
ATT, 0.00, -28.50, 0.00, 29.49, 0.00, 297.49, 301.97
NTUN, 72.95, 1.58, -6724.901, 2689.683, -464.2449, 185.6788, 1028.683, -291.5501, -894.9688, 399.2880, -29.06, 37.59
CTUN, 0, 0.00, 6.29, 11.79413, 0.00, 0, -90, 1000, 0
ATT, 0.00, -28.24, 0.00, 30.86, 0.00, 299.25, 301.97
NTUN, 74.39, 1.58, -6880.535, 2717.723, -465.0379, 183.6840, 1030.693, -304.3937, -893.1399, 403.3622, -27.77, 38.54
CTUN, 0, 0.00, 6.45, 11.83012, 0.00, 0, -100, 1000, 0
GPS, 3, 353594200, 13, 1.53, -33.7840150, 151.0657221, 2.44, 251.01, 7.60, 8.85
ATT, 0.00, -27.58, 0.00, 33.09, 0.00, 300.48, 301.97
NTUN, 75.80, 1.58, -7022.876, 2739.568, -465.8127, 181.7098, 1022.446, -315.5567, -891.4666, 407.0470, -26.47, 39.05
DU32, 7, 8569
CURR, 0, 134685, 1085, 2499, 4712, 87.55037
CTUN, 0, 0.00, 6.23, 11.86575, 0.00, 0, -105, 1000, 0
ATT, 0.00, -26.40, 0.00, 34.52, 0.00, 301.88, 301.97
NTUN, 76.77, 1.58, -7136.191, 2756.578, -466.4120, 180.1663, 1001.912, -316.9580, -888.4218, 413.6504, -25.05, 39.69
CTUN, 0, 0.00, 5.97, 11.90174, 0.00, 0, -109, 1000, 0
GPS, 3, 353594400, 13, 1.53, -33.7840220, 151.0657239, 2.68, 255.96, 5.16, 4.27
ATT, 0.00, -24.51, 0.00, 36.25, 0.00, 302.33, 301.97
NTUN, 77.67, 1.59, -7228.254, 2770.003, -466.8909, 178.9214, 991.4855, -319.5291, -886.4858, 417.7835, -23.85, 40.10
CTUN, 0, 0.00, 6.01, 11.93773, 0.00, 0, -124, 1000, 0
ATT, 0.00, -21.52, 0.00, 36.98, 0.00, 302.80, 301.97
NTUN, 78.28, 1.59, -7299.831, 2780.659, -467.2487, 177.9849, 987.9258, -320.1883, -884.6133, 421.7336, -22.96, 40.43
CTUN, 0, 0.00, 6.43, 11.97372, 0.00, 0, -138, 1000, 0
GPS, 3, 353594600, 12, 1.75, -33.7840461, 151.0657265, 2.83, 258.62, 1.07, 4.27
ATT, 0.00, 1.36, 0.00, 14.30, 0.00, 312.98, 302.98
NTUN, 78.85, 1.59, -7357.365, 2789.213, -467.5306, 177.2431, 1219.662, -431.2355, -884.8731, 421.1884, -22.68, 41.09
CTUN, 0, 0.00, 5.97, 12.00935, 0.00, 0, -195, 1000, 0
ATT, 0.00, 11.94, 0.00, 5.95, 0.00, 241.87, 251.87
NTUN, 79.22, 1.59, -7396.472, 2798.838, -467.6395, 176.9556, 1512.752, -571.4954, -883.4976, 424.0659, -38.23, 31.18
CTUN, 0, 0.00, 4.41, 12.00935, 0.00, 0, -308, 1000, 0
GPS, 3, 353594800, 12, 1.75, -33.7840797, 151.0657369, 2.70, 261.38, 5.44, 153.14
ATT, 0.00, -9.12, 0.00, 21.17, 0.00, 253.73, 251.41
NTUN, 79.88, 1.59, -7449.220, 2823.142, -467.5492, 177.1941, 1785.935, -624.6155, -884.0868, 422.8365, -45.00, 0.33
CTUN, 0, 0.00, 3.55, 12.00935, 0.00, 0, -346, 1000, 0
ATT, 0.00, -94.54, 0.00, 30.98, 0.00, 234.21, 244.21
NTUN, 80.35, 1.59, -7497.863, 2846.649, -467.4443, 177.4706, 2093.630, -680.0388, -893.2893, 403.0314, -38.35, 14.09
CTUN, 0, 0.00, 3.38, 12.00935, 0.00, -870, -355, 130, 0
GPS, 3, 353595000, 12, 1.75, -33.7841076, 151.0657419, 2.21, 263.01, 6.58, 162.22
ATT, 0.00, -142.37, 0.00, 0.67, 0.00, 218.65, 228.65
NTUN, 81.08, 1.59, -7556.761, 2870.934, -467.4048, 177.5745, 2198.382, -686.1065, -903.6000, 379.3508, -41.90, -19.81
CTUN, 0, 0.00, 2.29, 12.00935, 0.00, -870, -361, 130, 0
ATT, 0.00, -139.22, 0.00, -40.72, 0.00, 201.40, 211.40
NTUN, 81.55, 1.59, -7611.459, 2892.473, -467.3893, 177.6152, 2243.059, -639.3629, -907.8083, 369.1665, -38.64, -30.07
CTUN, 0, 0.00, 2.26, 12.00935, 0.00, -870, -375, 130, 0
GPS, 3, 353595200, 12, 1.75, -33.7841311, 151.0657450, 1.58, 265.66, 7.06, 167.96
ATT, 0.00, -68.26, 0.00, -54.51, 0.00, 111.12, 121.12
NTUN, 82.00, 1.59, -7653.688, 2906.242, -467.4355, 177.4937, 2193.974, -665.0948, -912.2382, 358.0803, -9.34, -44.05
DU32, 7, 8569
CURR, 0, 142075, 1134, 1279, 4752, 93.00523
PM, 0, 0, 50, 0, 1000, 10180, 7, 0
CTUN, 0, 0.00, 1.86, 12.00935, 0.00, 0, -444, 1000, 0
ATT, 0.00, -36.26, 0.00, -6.07, 0.00, 57.83, 67.83
NTUN, 82.07, 1.59, -7671.873, 2915.753, -467.3828, 177.6324, 2082.779, -705.0721, -906.8938, 371.4078, 37.92, -10.07
CTUN, 0, 0.00, 1.65, 12.00935, 0.00, 0, -417, 1000, 0
GPS, 3, 353595400, 12, 1.75, -33.7841450, 151.0657500, 0.80, 266.41, 4.64, 152.24
ATT, 0.00, -22.40, 0.00, 10.04, 0.00, 40.54, 49.43
NTUN, 82.01, 1.59, -7665.599, 2924.629, -467.1546, 178.2319, 1968.671, -725.6642, -893.5806, 402.3851, 42.68, 18.47
CTUN, 0, 0.00, 0.75, 12.00935, 0.00, 0, -248, 1000, 0
ATT, 0.00, 4.07, 0.00, 18.95, 0.00, 34.28, 44.28
NTUN, 81.67, 1.58, -7634.746, 2934.060, -466.7216, 179.3628, 1891.797, -802.0649, -881.9393, 427.2975, 42.93, 20.71
CTUN, 0, 0.00, 0.56, 12.00935, 0.00, 0, -167, 1000, 0
GPS, 3, 353595600, 12, 1.75, -33.7841556, 151.0657596, 0.32, 266.42, 3.42, 152.24
ATT, 0.00, 5.03, 0.00, 25.00, 0.00, 33.15, 41.76
NTUN, 81.27, 1.58, -7587.807, 2947.565, -466.0697, 181.0498, 1819.649, -808.8160, -872.9398, 445.3943, 38.15, 27.19
CTUN, 0, 0.00, 0.31, 12.00935, 0.00, 0, -115, 1000, 0
ATT, 0.00, 2.43, 0.00, 30.60, 0.00, 40.62, 41.76
NTUN, 80.72, 1.58, -7531.943, 2955.274, -465.4536, 182.6279, 1688.737, -786.6164, -865.6365, 459.4272, 38.89, 22.99
CTUN, 0, 0.00, 0.37, 12.00935, 0.00, 0, -72, 1000, 0
GPS, 3, 353595800, 12, 1.75, -33.7841694, 151.0657654, 0.13, 266.09, 2.26, 152.24
ATT, 0.00, 0.25, 0.00, 28.70, 0.00, 42.37, 41.76
NTUN, 80.04, 1.58, -7461.474, 2957.182, -464.8247, 184.2225, 1562.820, -757.9329, -859.2097, 471.3371, 39.16, 19.60
CTUN, 0, 0.00, 0.42, 12.00935, 0.00, 0, -82, 1000, 0
ATT, 0.00, -2.40, 0.00, 28.15, 0.00, 42.03, 41.76
NTUN, 79.16, 1.58, -7375.766, 2951.845, -464.2049, 185.7788, 1471.294, -716.0898, -854.4871, 479.8457, 39.91, 16.93
CTUN, 0, 0.00, 0.31, 12.00935, 0.00, 0, -77, 1000, 0
GPS, 3, 353596000, 13, 1.52, -33.7841936, 151.0657725, 0.01, 264.70, 2.55, 152.24
ATT, 0.00, -5.91, 0.00, 26.11, 0.00, 39.96, 41.76
NTUN, 78.18, 1.57, -7278.024, 2940.303, -463.5966, 187.2918, 1375.737, -706.8215, -851.2367, 485.5884, 39.98, 18.19
CTUN, 0, 0.00, 0.58, 12.00935, 0.00, 0, -106, 1000, 0
ATT, 0.00, -8.85, 0.00, 24.80, 0.00, 38.76, 41.76
NTUN, 76.98, 1.57, -7162.984, 2922.528, -462.9496, 188.8853, 1259.989, -691.6950, -843.3226, 499.2063, 40.40, 18.96
CTUN, 0, 0.00, 0.66, 12.00935, 0.00, 0, -105, 1000, 0
GPS, 3, 353596200, 13, 1.52, -33.7842143, 151.0657806, -0.13, 263.89, 2.90, 152.24
ATT, 0.00, -11.47, 0.00, 23.98, 0.00, 38.46, 41.76
NTUN, 75.66, 1.57, -7032.534, 2901.385, -462.2085, 190.6915, 1156.693, -676.0743, -832.6339, 516.8372, 40.66, 19.22
DU32, 7, 8569
CURR, 0, 152075, 1105, 1856, 4712, 97.89057
CTUN, 0, 0.00, 0.52, 12.00935, 0.00, 0, -117, 1000, 0
ATT, 0.00, -13.98, 0.00, 22.28, 0.00, 39.18, 41.76
NTUN, 74.23, 1.57, -6891.913, 2875.993, -461.4347, 192.5566, 1032.984, -658.1818, -822.9432, 532.1320, 41.12, 17.68
CTUN, 0, 0.00, 0.72, 12.00935, 0.00, 0, -120, 1000, 0
GPS, 3, 353596400, 13, 1.52, -33.7842433, 151.0657886, -0.27, 261.63, 4.22, 153.71
ATT, 0.00, -13.16, 0.00, 24.94, 0.00, 41.64, 41.76
NTUN, 72.69, 1.57, -6740.392, 2847.172, -460.5947, 194.5573, 922.8574, -623.4857, -810.2178, 551.3138, 41.55, 14.79
CTUN, 0, 0.00, 0.68, 12.00935, 0.00, 0, -140, 1000, 0
ATT, 0.00, -13.99, 0.00, 21.60, 0.00, 41.55, 41.76
NTUN, 70.97, 1.56, -6573.408, 2814.156, -459.6489, 196.7813, 802.0072, -585.4968, -800.6343, 565.1413, 41.88, 13.09
CTUN, 0, 0.00, 0.59, 12.00935, 0.00, 0, -140, 1000, 0
GPS, 3, 353596600, 12, 1.53, -33.7842736, 151.0657972, -0.42, 258.71, 5.39, 155.75
ATT, 0.00, -12.61, 0.00, 21.15, 0.00, 42.36, 41.76
NTUN, 69.13, 1.56, -6393.015, 2776.274, -458.6215, 199.1641, 669.8790, -539.1978, -789.2039, 580.9968, 42.70, 11.28
CTUN, 0, 0.00, 0.73, 12.00935, 0.00, 0, -147, 1000, 0
ATT, 0.00, -11.72, 0.00, 21.83, 0.00, 43.08, 41.76
NTUN, 67.14, 1.56, -6199.657, 2733.281, -457.5097, 201.7050, 548.1749, -495.1506, -774.4998, 600.4584, 42.60, 9.70
CTUN, 0, 0.00, 0.86, 12.00935, 0.00, 0, -154, 1000, 0
GPS, 3, 353596800, 12, 1.53, -33.7843043, 151.0658078, -0.58, 256.68, 6.32, 157.91
ATT, 0.00, -11.81, 0.00, 21.95, 0.00, 43.26, 41.76
NTUN, 65.02, 1.55, -5993.497, 2685.191, -456.2986, 204.4297, 417.7849, -446.0822, -759.1039, 619.8074, 42.84, 7.51
CTUN, 0, 0.00, 0.72, 12.00935, 0.00, 0, -159, 1000, 0
ATT, 0.00, -11.40, 0.00, 22.28, 0.00, 43.22, 41.76
NTUN, 62.80, 1.55, -5777.355, 2631.475, -455.0227, 207.2542, 294.5012, -402.1526, -740.8808, 641.4792, 42.81, 5.94
CTUN, 0, 0.00, 0.78, 12.00935, 0.00, 0, -164, 1000, 0
GPS, 3, 353597000, 12, 1.53, -33.7843371, 151.0658190, -0.73, 254.52, 7.49, 160.23
ATT, 0.00, -11.27, 0.00, 22.33, 0.00, 42.62, 41.76
NTUN, 60.46, 1.55, -5551.083, 2572.721, -453.6469, 210.2486, 168.3383, -360.3202, -715.3199, 669.8638, 42.79, 3.49
CTUN, 0, 0.00, 0.91, 12.00935, 0.00, 0, -162, 1000, 0
ATT, 0.00, -10.97, 0.00, 23.01, 0.00, 41.92, 41.76
NTUN, 58.05, 1.54, -5315.916, 2509.880, -452.1379, 213.4744, 33.91034, -318.4889, -685.6167, 700.2355, 42.98, 2.19
CTUN, 0, 0.00, 0.78, 12.00935, 0.00, 0, -163, 1000, 0
GPS, 3, 353597200, 12, 1.53, -33.7843732, 151.0658306, -0.86, 252.08, 9.10, 162.17
ATT, 0.00, -11.21, 0.00, 23.54, 0.00, 41.67, 41.76
NTUN, 55.50, 1.54, -5070.164, 2442.876, -450.4423, 217.0294, -97.73235, -280.8116, -644.8188, 737.9761, 42.78, -0.49
DU32, 7, 8569
