dump 1

ArduCopter V3.1-rc2
Free RAM: 1361
APM 2
FMT, 128, 89, FMT, BBnNZ, Type,Length,Name,Format
FMT, 129, 23, PARM, Nf, Name,Value
FMT, 130, 35, GPS, BIBcLLeeEe, Status,Time,NSats,HDop,Lat,Lng,RelAlt,Alt,Spd,GCrs
FMT, 131, 27, IMU, ffffff, GyrX,GyrY,GyrZ,AccX,AccY,AccZ
FMT, 132, 67, MSG, Z, Message
FMT, 9, 19, CURR, hIhhhf, Thr,ThrInt,Volt,Curr,Vcc,CurrTot
FMT, 11, 11, MOT, hhhh, Mot1,Mot2,Mot3,Mot4
FMT, 12, 28, OF, hhBccffee, Dx,Dy,SQual,X,Y,Lat,Lng,Roll,Pitch
FMT, 5, 49, NTUN, Ecffffffffee, WPDst,WPBrg,PErX,PErY,DVelX,DVelY,VelX,VelY,DAcX,DAcY,DRol,DPit
FMT, 4, 25, CTUN, hcefchhhh, ThrIn,SonAlt,BarAlt,WPAlt,DesSonAlt,AngBst,CRate,ThrOut,DCRate
FMT, 15, 21, MAG, hhhhhhhhh, MagX,MagY,MagZ,OfsX,OfsY,OfsZ,MOfsX,MOfsY,MOfsZ
FMT, 6, 17, PM, BBBHHIhB, RenCnt,RenBlw,FixCnt,NLon,NLoop,MaxT,PMT,I2CErr
FMT, 8, 20, CMD, BBBBBeLL, CTot,CNum,CId,COpt,Prm1,Alt,Lat,Lng
FMT, 1, 17, ATT, cccccCC, RollIn,Roll,PitchIn,Pitch,YawIn,Yaw,NavYaw
FMT, 17, 37, INAV, cccfffiiff, BAlt,IAlt,IClb,ACorrX,ACorrY,ACorrZ,GLat,GLng,ILat,ILng
FMT, 3, 6, MODE, Mh, Mode,ThrCrs
FMT, 10, 3, STRT, , 
FMT, 13, 4, EV, B, Id
FMT, 20, 6, D16, Bh, Id,Value
FMT, 21, 6, DU16, BH, Id,Value
FMT, 22, 8, D32, Bi, Id,Value
FMT, 23, 8, DU32, BI, Id,Value
FMT, 24, 8, DFLT, Bf, Id,Value
FMT, 14, 28, PID, Biiiiif, Id,Error,P,I,D,Out,Gain
FMT, 16, 15, DMP, ccccCC, DCMRoll,DMPRoll,DCMPtch,DMPPtch,DCMYaw,DMPYaw
FMT, 18, 25, CAM, ILLeccC, GPSTime,Lat,Lng,Alt,Roll,Pitch,Yaw
FMT, 19, 5, ERR, BB, Subsys,ECode
D32, 9, 5320
CMD, 6, 0, 16, 0, 0, 0.00, -33.7840533, 151.0682117
EV, 10
DU32, 7, 98393
DU32, 7, 98393
EV, 28
DU32, 7, 65625
DU32, 7, 65625
DU32, 7, 65625
PM, 0, 0, 51, 5, 1000, 7357700, 0, 4
DU32, 7, 65625
DU32, 7, 65625
EV, 18
DU32, 7, 98393
DU32, 7, 98393
DU32, 7, 98393
DU32, 7, 98393
DU32, 7, 98393
DU32, 7, 98393
DU32, 7, 98393
DU32, 7, 98393
PM, 0, 0, 50, 7, 1001, 11208, 0, 4
DU32, 7, 98393
DU32, 7, 98393
DU32, 7, 98393
DU32, 7, 98393
DU32, 7, 98393
DU32, 7, 98393
DU32, 7, 98393
D32, 9, 5408
CMD, 6, 0, 16, 0, 0, 0.00, -33.7840511, 151.0682086
EV, 10
GPS, 3, 543603200, 10, 1.63, -33.7840512, 151.0682087, 0.11, 97.75, 0.06, 343.21
CTUN, 0, 0.00, -0.01, 0.000000, 0.00, 0, -2, 0, 0
ATT, 0.00, -2.14, 0.00, 1.38, 0.00, 54.08, 54.08
GPS, 3, 543605200, 10, 1.63, -33.7840519, 151.0682096, 0.10, 97.72, 0.03, 343.21
CTUN, 0, 0.00, -0.05, 0.000000, 0.00, 0, -2, 0, 0
ATT, 0.00, -2.08, 0.00, 1.37, 0.00, 54.08, 54.08
CTUN, 0, 0.00, -0.04, 0.000000, 0.00, 0, -2, 0, 0
ATT, 0.00, -2.10, 0.00, 1.36, 0.00, 54.08, 54.08
GPS, 3, 543605400, 12, 1.45, -33.7840519, 151.0682098, 0.08, 97.72, 0.01, 343.21
CTUN, 0, 0.00, -0.07, 0.000000, 0.00, 0, -3, 0, 0
ATT, 0.00, -2.11, 0.00, 1.36, 0.00, 54.10, 54.10
CTUN, 0, 0.00, -0.17, 0.000000, 0.00, 0, -3, 0, 0
DU32, 7, 98393
CURR, 0, 0, 1224, 68, 4752, 1.074256
ATT, 0.00, -2.11, 0.00, 1.35, 0.00, 54.11, 54.11
GPS, 3, 543605600, 12, 1.45, -33.7840519, 151.0682098, 0.05, 97.70, 0.03, 343.21
CTUN, 0, 0.00, -0.07, 0.000000, 0.00, 0, -3, 0, 0
ATT, 0.00, -2.11, 0.00, 1.34, 0.00, 54.11, 54.11
CTUN, 0, 0.00, -0.16, 0.000000, 0.00, 0, -3, 0, 0
ATT, 0.00, -2.11, 0.00, 1.36, 0.00, 54.13, 54.13
GPS, 3, 543605800, 12, 1.45, -33.7840519, 151.0682100, 0.02, 97.70, 0.01, 343.21
CTUN, 0, 0.00, -0.08, 0.000000, 0.00, 0, -4, 0, 0
ATT, 0.00, -2.11, 0.00, 1.35, 0.00, 54.14, 54.14
CTUN, 0, 0.00, -0.10, 0.000000, 0.00, 0, -4, 0, 0
ATT, 0.00, -2.12, 0.00, 1.34, 0.00, 54.14, 54.14
GPS, 3, 543606000, 12, 1.45, -33.7840519, 151.0682101, 0.00, 97.69, 0.02, 343.21
CTUN, 0, 0.00, -0.03, 0.000000, 0.00, 0, -4, 0, 0
ATT, 0.00, -2.12, 0.00, 1.33, 0.00, 54.15, 54.15
CTUN, 0, 0.00, -0.14, 0.000000, 0.00, 0, -4, 0, 0
ATT, 0.00, -2.11, 0.00, 1.33, 0.00, 54.15, 54.15
GPS, 3, 543606200, 12, 1.45, -33.7840520, 151.0682102, -0.01, 97.66, 0.03, 343.21
CTUN, 0, 0.00, -0.14, 0.000000, 0.00, 0, -4, 0, 0
ATT, 0.00, -2.11, 0.00, 1.34, 0.00, 54.16, 54.16
CTUN, 0, 0.00, -0.23, 0.000000, 0.00, 0, -5, 0, 0
ATT, 0.00, -2.12, 0.00, 1.34, 0.00, 54.17, 54.17
GPS, 3, 543606400, 12, 1.45, -33.7840520, 151.0682104, -0.04, 97.65, 0.02, 343.21
CTUN, 0, 0.00, -0.24, 0.000000, 0.00, 0, -5, 0, 0
ATT, 0.00, -2.12, 0.00, 1.33, 0.00, 54.17, 54.17
CTUN, 0, 0.00, -0.01, 0.000000, 0.00, 0, -5, 0, 0
ATT, 0.00, -2.11, 0.00, 1.33, 0.00, 54.18, 54.18
DU32, 7, 98393
CURR, 0, 0, 1227, 63, 4732, 1.252872
GPS, 3, 543606600, 11, 1.48, -33.7840520, 151.0682105, -0.06, 97.63, 0.00, 343.21
CTUN, 0, 0.00, -0.09, 0.000000, 0.00, 0, -5, 0, 0
ATT, 0.00, -2.12, 0.00, 1.32, 0.00, 54.19, 54.19
CTUN, 0, 0.00, -0.10, 0.000000, 0.00, 0, -5, 0, 0
ATT, 0.00, -2.13, 0.00, 1.31, 0.00, 54.19, 54.19
GPS, 3, 543606800, 11, 1.48, -33.7840520, 151.0682106, -0.08, 97.61, 0.02, 343.21
CTUN, 0, 0.00, -0.05, 0.000000, 0.00, 0, -5, 0, 0
ATT, 0.00, -2.14, 0.00, 1.31, 0.00, 54.19, 54.19
CTUN, 0, 0.00, -0.11, 0.000000, 0.00, 0, -5, 0, 0
ATT, 0.00, -2.14, 0.00, 1.31, 0.00, 54.20, 54.20
GPS, 3, 543607000, 11, 1.48, -33.7840520, 151.0682107, -0.09, 97.59, 0.03, 343.21
CTUN, 0, 0.00, -0.10, 0.000000, 0.00, 0, -6, 0, 0
ATT, 0.00, -2.14, 0.00, 1.31, 0.00, 54.21, 54.21
CTUN, 0, 0.00, -0.25, 0.000000, 0.00, 0, -6, 0, 0
ATT, 0.00, -2.13, 0.00, 1.31, 0.00, 54.21, 54.21
GPS, 3, 543607200, 11, 1.48, -33.7840520, 151.0682108, -0.10, 97.58, 0.02, 343.21
CTUN, 0, 0.00, -0.19, 0.000000, 0.00, 0, -6, 0, 0
ATT, 0.00, -2.13, 0.00, 1.32, 0.00, 54.21, 54.21
CTUN, 0, 0.00, -0.18, 0.000000, 0.00, 0, -6, 0, 0
ATT, 0.00, -2.13, 0.00, 1.31, 0.00, 54.22, 54.22
GPS, 3, 543607400, 11, 1.48, -33.7840520, 151.0682110, -0.13, 97.55, 0.01, 343.21
CTUN, 0, 0.00, -0.08, 0.000000, 0.00, 0, -6, 0, 0
ATT, 0.00, -2.14, 0.00, 1.30, 0.00, 54.22, 54.22
CTUN, 0, 0.00, -0.16, 0.000000, 0.00, 0, -6, 0, 0
ATT, 0.00, -2.13, 0.00, 1.29, 0.00, 54.22, 54.22
DU32, 7, 98393
CURR, 0, 0, 1230, 61, 4732, 1.433185
GPS, 3, 543607600, 11, 1.48, -33.7840519, 151.0682111, -0.14, 97.57, 0.02, 343.21
CTUN, 0, 0.00, -0.16, 0.000000, 0.00, 0, -6, 0, 0
ATT, 0.00, -2.14, 0.00, 1.29, 0.00, 54.23, 54.23
CTUN, 0, 0.00, -0.09, 0.000000, 0.00, 0, -6, 0, 0
ATT, 0.00, -2.14, 0.00, 1.27, 0.00, 54.24, 54.24
GPS, 3, 543607800, 11, 1.48, -33.7840520, 151.0682112, -0.15, 97.55, 0.05, 343.21
CTUN, 0, 0.00, -0.16, 0.000000, 0.00, 0, -6, 0, 0
ATT, 0.00, -2.13, 0.00, 1.28, 0.00, 54.24, 54.24
CTUN, 0, 0.00, -0.21, 0.000000, 0.00, 0, -6, 0, 0
PM, 0, 0, 51, 2, 1000, 2071656, 0, 4
ATT, 0.00, -2.13, 0.00, 1.30, 0.00, 54.24, 54.24
GPS, 3, 543608000, 11, 1.48, -33.7840519, 151.0682113, -0.17, 97.55, 0.02, 343.21
CTUN, 0, 0.00, -0.22, 0.000000, 0.00, 0, -6, 0, 0
ATT, 0.00, -2.14, 0.00, 1.30, 0.00, 54.25, 54.25
CTUN, 0, 0.00, -0.25, 0.000000, 0.00, 0, -7, 0, 0
ATT, 0.00, -2.15, 0.00, 1.27, 0.00, 54.26, 54.26
GPS, 3, 543608200, 11, 1.48, -33.7840520, 151.0682115, -0.19, 97.53, 0.05, 343.21
CTUN, 0, 0.00, -0.14, 0.000000, 0.00, 0, -7, 0, 0
ATT, 0.00, -2.14, 0.00, 1.27, 0.00, 54.27, 54.27
CTUN, 0, 0.00, -0.23, 0.000000, 0.00, 0, -7, 0, 0
ATT, 0.00, -2.12, 0.00, 1.29, 0.00, 54.28, 54.28
GPS, 3, 543608400, 11, 1.48, -33.7840520, 151.0682116, -0.20, 97.50, 0.02, 343.21
CTUN, 0, 0.00, -0.23, 0.000000, 0.00, 0, -7, 0, 0
ATT, 0.00, -2.12, 0.00, 1.27, 0.00, 54.28, 54.28
CTUN, 0, 0.00, -0.19, 0.000000, 0.00, 0, -7, 0, 0
ATT, 0.00, -2.13, 0.00, 1.25, 0.00, 54.28, 54.28
DU32, 7, 98393
CURR, 0, 0, 1229, 64, 4712, 1.610086
GPS, 3, 543608600, 11, 1.48, -33.7840520, 151.0682117, -0.22, 97.49, 0.06, 343.21
CTUN, 0, 0.00, -0.20, 0.000000, 0.00, 0, -7, 0, 0
ATT, 0.00, -2.13, 0.00, 1.26, 0.00, 54.29, 54.29
CTUN, 0, 0.00, -0.18, 0.000000, 0.00, 0, -7, 0, 0
ATT, 0.00, -2.13, 0.00, 1.28, 0.00, 54.31, 54.31
GPS, 3, 543608800, 11, 1.48, -33.7840519, 151.0682118, -0.23, 97.48, 0.03, 343.21
CTUN, 0, 0.00, -0.12, 0.000000, 0.00, 0, -7, 0, 0
ATT, 0.00, -2.15, 0.00, 1.26, 0.00, 54.31, 54.31
CTUN, 0, 0.00, -0.19, 0.000000, 0.00, 0, -7, 0, 0
ATT, 0.00, -2.16, 0.00, 1.22, 0.00, 54.31, 54.31
GPS, 3, 543609000, 11, 1.48, -33.7840519, 151.0682119, -0.24, 97.45, 0.02, 343.21
CTUN, 0, 0.00, -0.16, 0.000000, 0.00, 0, -7, 0, 0
ATT, 0.00, -2.17, 0.00, 1.22, 0.00, 54.32, 54.32
CTUN, 0, 0.00, -0.17, 0.000000, 0.00, 0, -7, 0, 0
ATT, 0.00, -2.16, 0.00, 1.23, 0.00, 54.33, 54.33
GPS, 3, 543609200, 10, 1.63, -33.7840519, 151.0682120, -0.24, 97.44, 0.01, 343.21
CTUN, 0, 0.00, -0.20, 0.000000, 0.00, 0, -7, 0, 0
ATT, 0.00, -2.16, 0.00, 1.23, 0.00, 54.34, 54.34
CTUN, 0, 0.00, -0.18, 0.000000, 0.00, 0, -7, 0, 0
ATT, 0.00, -2.16, 0.00, 1.21, 0.00, 54.34, 54.34
GPS, 3, 543609400, 10, 1.63, -33.7840518, 151.0682121, -0.25, 97.43, 0.02, 343.21
CTUN, 0, 0.00, -0.22, 0.000000, 0.00, 0, -7, 0, 0
ATT, 0.00, -2.17, 0.00, 1.21, 0.00, 54.34, 54.34
CTUN, 0, 0.00, -0.20, 0.000000, 0.00, 0, -6, 0, 0
DU32, 7, 98393
CURR, 0, 0, 1227, 62, 4772, 1.795002
GPS, 3, 543609600, 10, 1.63, -33.7840518, 151.0682123, -0.26, 97.40, 0.02, 343.21
ATT, 0.00, -2.17, 0.00, 1.21, 0.00, 54.35, 54.35
CTUN, 0, 0.00, -0.12, 0.000000, 0.00, 0, -6, 0, 0
ATT, 0.00, -2.17, 0.00, 1.21, 0.00, 54.35, 54.35
CTUN, 0, 0.00, -0.10, 0.000000, 0.00, 0, -6, 0, 0
GPS, 3, 543609800, 9, 2.18, -33.7840518, 151.0682124, -0.26, 97.38, 0.02, 343.21
ATT, 0.00, -2.16, 0.00, 1.21, 0.00, 54.35, 54.35
CTUN, 0, 0.00, -0.23, 0.000000, 0.00, 0, -7, 0, 0
ATT, 0.00, -2.16, 0.00, 1.22, 0.00, 54.36, 54.36
CTUN, 0, 0.00, -0.22, 0.000000, 0.00, 0, -7, 0, 0
GPS, 3, 543610000, 9, 2.18, -33.7840518, 151.0682126, -0.26, 97.35, 0.02, 343.21
ATT, 0.00, -2.18, 0.00, 1.21, 0.00, 54.36, 54.36
CTUN, 0, 0.00, -0.18, 0.000000, 0.00, 0, -7, 0, 0
ATT, 0.00, -2.18, 0.00, 1.19, 0.00, 54.37, 54.37
CTUN, 0, 0.00, -0.18, 0.000000, 0.00, 0, -6, 0, 0
GPS, 3, 543610200, 9, 2.18, -33.7840517, 151.0682128, -0.27, 97.33, 0.01, 343.21
ATT, 0.00, -2.18, 0.00, 1.18, 0.00, 54.38, 54.38
CTUN, 135, 0.00, -0.23, 0.000000, 0.00, 0, -6, 0, 0
EV, 15
EV, 28
ATT, 0.00, -2.19, 0.00, 1.18, 0.00, 54.38, 54.39
CTUN, 161, 0.00, -0.19, 0.000000, 0.00, 0, -6, 160, 0
GPS, 3, 543610400, 9, 2.18, -33.7840516, 151.0682129, -0.27, 97.30, 0.01, 343.21
ATT, 0.00, -2.17, 0.00, 1.17, 0.00, 54.38, 54.39
CTUN, 180, 0.00, -0.20, 0.000000, 0.00, 0, -6, 175, 0
ATT, 0.00, -2.16, 0.00, 1.16, 0.00, 54.38, 54.39
DU32, 7, 65657
CURR, 184, 335, 1222, 268, 4732, 2.062691
CTUN, 189, 0.00, -0.56, 0.000000, 0.00, 0, -6, 184, 0
GPS, 3, 543610600, 9, 2.18, -33.7840515, 151.0682131, -0.28, 97.26, 0.03, 343.21
ATT, 0.00, -2.15, 0.00, 1.16, 0.00, 54.37, 54.39
CTUN, 191, 0.00, -0.73, 0.000000, 0.00, 0, -6, 193, 0
ATT, 0.00, -2.13, 0.00, 1.16, 0.00, 54.37, 54.39
CTUN, 191, 0.00, -0.86, 0.000000, 0.00, 0, -7, 191, 0
GPS, 3, 543610800, 9, 2.18, -33.7840514, 151.0682133, -0.33, 97.21, 0.09, 343.21
ATT, 0.00, -2.16, 0.00, 1.15, 0.00, 54.37, 54.39
CTUN, 191, 0.00, -0.72, 0.000000, 0.00, 0, -7, 191, 0
ATT, 0.00, -2.17, 0.00, 1.15, 0.00, 54.37, 54.39
CTUN, 191, 0.00, -0.63, 0.000000, 0.00, 0, -8, 191, 0
GPS, 3, 543611000, 9, 2.18, -33.7840513, 151.0682133, -0.40, 97.15, 0.10, 343.21
CTUN, 191, 0.00, -0.66, 0.000000, 0.00, 0, -8, 191, 0
ATT, 0.00, -2.17, 0.00, 1.17, 0.00, 54.37, 54.39
CTUN, 191, 0.00, -0.69, 0.000000, 0.00, 0, -8, 191, 0
GPS, 3, 543611200, 9, 2.18, -33.7840511, 151.0682135, -0.45, 97.10, 0.09, 343.21
ATT, 0.00, -2.16, 0.00, 1.15, 0.00, 54.37, 54.39
CTUN, 220, 0.00, -0.67, 0.000000, 0.00, 0, -9, 208, 0
ATT, 0.00, -2.15, 0.00, 1.14, 0.00, 54.39, 54.39
CTUN, 296, 0.00, -0.70, 0.000000, 0.00, 0, -9, 286, 0
GPS, 3, 543611400, 10, 1.62, -33.7840509, 151.0682137, -0.49, 97.07, 0.09, 343.21
ATT, 0.00, -2.10, 0.00, 1.17, 0.00, 54.38, 54.39
CTUN, 384, 0.00, -0.80, 0.000000, 0.00, 0, -10, 351, 0
ATT, 0.00, -2.04, 0.00, 1.16, 0.00, 54.34, 54.39
CTUN, 411, 0.00, -1.08, 0.000000, 0.00, 0, -11, 407, 0
GPS, 3, 543611600, 10, 1.62, -33.7840509, 151.0682138, -0.54, 97.05, 0.01, 343.21
ATT, 0.00, -1.93, 0.00, 1.19, 0.00, 54.27, 54.39
DU32, 7, 65657
CURR, 457, 2692, 1201, 813, 4752, 3.240671
EV, 16
CTUN, 457, 0.00, -1.52, 0.000000, 0.00, 0, -12, 457, 0
ATT, 0.00, -1.87, 0.00, 1.24, 0.00, 54.30, 54.39
CTUN, 481, 0.00, -1.61, 0.000000, 0.00, 0, -13, 462, 0
GPS, 3, 543611800, 10, 1.62, -33.7840509, 151.0682139, -0.65, 97.02, 0.02, 343.21
ATT, 0.00, -1.90, 0.00, 1.09, 0.00, 53.73, 54.39
CTUN, 500, 0.00, -1.99, 0.000000, 0.00, 0, -14, 498, 0
ATT, 0.00, -1.37, 0.00, 1.23, 0.00, 52.50, 54.39
CTUN, 519, 0.00, -2.00, 0.000000, 0.00, 0, -13, 514, 0
GPS, 3, 543612000, 10, 1.62, -33.7840505, 151.0682140, -0.83, 96.93, 0.19, 343.21
CTUN, 549, 0.00, -1.93, 0.000000, 0.00, 0, -14, 540, 0
ATT, 0.00, 0.36, 0.00, 1.44, 0.00, 50.65, 54.39
CTUN, 565, 0.00, -1.54, 0.000000, 0.00, 0, -10, 565, 0
GPS, 3, 543612200, 9, 2.18, -33.7840503, 151.0682145, -0.97, 96.87, 0.17, 343.21
ATT, 0.00, 1.53, 0.00, 1.42, 0.00, 48.43, 54.39
CTUN, 578, 0.00, -1.74, 0.000000, 0.00, 0, -3, 576, 0
ATT, 0.00, 1.58, 0.00, 1.14, 0.00, 46.80, 54.39
CTUN, 591, 0.00, -0.79, 0.000000, 0.00, 0, 4, 591, 0
GPS, 3, 543612400, 8, 2.29, -33.7840512, 151.0682148, -1.05, 96.90, 0.46, 343.21
ATT, 0.00, 2.37, 0.00, 1.28, 0.00, 45.30, 54.39
CTUN, 600, 0.00, -0.24, 0.000000, 0.00, 0, 15, 600, 0
ATT, 0.00, 1.75, 0.00, 1.14, 0.00, 44.48, 54.39
CTUN, 605, 0.00, -0.05, 0.000000, 0.00, 0, 26, 605, 0
GPS, 3, 543612600, 8, 2.29, -33.7840518, 151.0682148, -0.95, 96.90, 0.38, 343.21
ATT, 0.00, 1.68, 0.00, 1.33, 0.00, 43.52, 53.52
DU32, 7, 82041
CURR, 606, 7589, 1168, 1591, 4752, 6.852478
CTUN, 606, 0.00, -0.04, 0.000000, 0.00, 0, 39, 606, 0
ATT, 0.00, 1.18, 0.00, 1.22, 0.00, 42.70, 52.70
CTUN, 604, 0.00, 0.20, 0.000000, 0.00, 0, 48, 605, 0
GPS, 3, 543612800, 9, 2.26, -33.7840523, 151.0682150, -0.77, 96.98, 0.33, 315.19
ATT, 0.00, 0.87, 0.00, 1.06, 0.00, 41.86, 51.86
CTUN, 606, 0.00, 0.20, 0.000000, 0.00, 0, 54, 606, 0
ATT, -2.90, 0.13, 0.00, 0.65, 0.00, 41.38, 51.38
CTUN, 606, 0.00, 0.25, 0.000000, 0.00, 0, 60, 606, 0
GPS, 3, 543613000, 9, 2.26, -33.7840528, 151.0682151, -0.55, 97.23, 0.41, 221.49
CTUN, 605, 0.00, 0.35, 0.000000, 0.00, 0, 64, 606, 0
ATT, -6.04, -1.50, 0.00, 0.50, 0.00, 41.12, 51.12
CTUN, 605, 0.00, 0.42, 0.000000, 0.00, 0, 69, 605, 0
GPS, 3, 543613200, 9, 2.26, -33.7840536, 151.0682149, -0.32, 97.33, 0.49, 207.54
ATT, -13.02, -4.41, 0.00, 0.23, 0.00, 41.10, 51.09
CTUN, 599, 0.00, 0.57, 0.000000, 0.00, 3, 73, 606, 0
ATT, -12.32, -8.55, -1.81, -0.25, 0.00, 41.27, 51.09
CTUN, 597, 0.00, 0.75, 0.000000, 0.00, 5, 76, 602, 0
GPS, 3, 543613400, 9, 2.18, -33.7840544, 151.0682150, -0.11, 97.41, 0.44, 192.94
ATT, -12.32, -10.31, -4.48, -1.61, 0.00, 41.47, 51.09
CTUN, 584, 0.00, 0.83, 0.000000, 0.00, 8, 79, 592, 0
ATT, -10.81, -10.63, -7.27, -4.08, 0.00, 41.84, 51.09
CTUN, 565, 0.00, 0.83, 0.000000, 0.00, 8, 81, 583, 0
GPS, 3, 543613600, 9, 2.18, -33.7840550, 151.0682147, 0.13, 97.64, 0.42, 192.45
ATT, -6.27, -9.98, -10.55, -6.27, 0.00, 42.00, 51.09
DU32, 7, 82041
CURR, 561, 13002, 1170, 1516, 4732, 11.25015
CTUN, 561, 0.00, 0.89, 0.000000, 0.00, 9, 79, 570, 0
ATT, -2.32, -6.60, -12.25, -9.01, 0.00, 42.10, 51.09
CTUN, 562, 0.00, 0.99, 0.000000, 0.00, 8, 75, 569, 0
GPS, 3, 543613800, 10, 2.15, -33.7840552, 151.0682141, 0.40, 97.79, 0.21, 192.45
ATT, -0.58, -2.33, -12.61, -10.79, 0.00, 41.97, 51.09
CTUN, 561, 0.00, 0.99, 0.000000, 0.00, 8, 70, 569, 0
ATT, 0.00, 0.13, -12.73, -11.27, 0.00, 41.91, 51.09
CTUN, 561, 0.00, 1.11, 0.000000, 0.00, 8, 65, 569, 0
GPS, 3, 543614000, 10, 2.15, -33.7840551, 151.0682137, 0.62, 97.93, 0.21, 192.45
CTUN, 561, 0.00, 1.26, 0.000000, 0.00, 8, 61, 569, 0
ATT, 0.00, 2.08, -9.58, -10.90, 0.00, 41.99, 51.09
CTUN, 561, 0.00, 1.33, 0.000000, 0.00, 6, 58, 567, 0
GPS, 3, 543614200, 10, 2.15, -33.7840541, 151.0682135, 0.77, 98.07, 0.48, 269.58
ATT, 0.00, 2.99, -8.61, -8.94, 0.00, 42.21, 51.09
CTUN, 561, 0.00, 1.37, 0.000000, 0.00, 5, 54, 566, 0
ATT, 0.00, 3.08, -8.36, -7.78, 0.00, 42.38, 51.09
CTUN, 561, 0.00, 1.56, 0.000000, 0.00, 4, 50, 565, 0
GPS, 3, 543614400, 10, 2.15, -33.7840530, 151.0682141, 0.97, 98.15, 0.62, 342.75
ATT, 0.00, 2.77, -8.12, -6.71, 0.00, 42.51, 51.09
CTUN, 561, 0.00, 1.68, 0.000000, 0.00, 3, 48, 564, 0
ATT, 0.00, 2.52, -7.76, -5.88, 0.00, 42.50, 51.09
CTUN, 561, 0.00, 1.49, 0.000000, 0.00, 2, 44, 563, 0
GPS, 3, 543614600, 11, 1.59, -33.7840519, 151.0682152, 1.14, 98.27, 0.82, 18.72
ATT, -1.27, 2.04, -7.27, -5.24, 0.00, 42.48, 51.09
CTUN, 561, 0.00, 1.50, 0.000000, 0.00, 1, 40, 562, 0
DU32, 7, 82041
CURR, 561, 18107, 1173, 1411, 4732, 15.20802
ATT, -1.27, 1.14, -7.27, -4.68, 0.00, 42.47, 51.09
CTUN, 561, 0.00, 1.52, 0.000000, 0.00, 1, 38, 562, 0
GPS, 3, 543614800, 11, 1.59, -33.7840509, 151.0682168, 1.25, 98.28, 0.92, 36.64
ATT, -0.69, 0.26, -7.39, -4.50, 0.00, 42.50, 51.09
CTUN, 561, 0.00, 1.65, 0.000000, 0.00, 1, 33, 562, 0
ATT, -0.81, -0.02, -7.39, -4.53, 0.00, 42.53, 51.09
CTUN, 562, 0.00, 1.57, 0.000000, 0.00, 1, 33, 562, 0
GPS, 3, 543615000, 11, 1.59, -33.7840497, 151.0682187, 1.36, 98.28, 1.13, 45.84
CTUN, 561, 0.00, 1.72, 0.000000, 0.00, 1, 30, 562, 0
ATT, -0.34, -0.20, -7.64, -4.86, 0.00, 42.53, 51.09
CTUN, 561, 0.00, 1.74, 0.000000, 0.00, 1, 30, 562, 0
ATT, 0.00, 0.12, -7.64, -5.13, 0.00, 42.52, 51.09
GPS, 3, 543615200, 12, 1.45, -33.7840484, 151.0682208, 1.46, 98.28, 1.26, 50.61
CTUN, 561, 0.00, 1.85, 0.000000, 0.00, 1, 26, 562, 0
ATT, 0.00, 0.60, -0.97, -5.10, 0.00, 42.47, 51.09
CTUN, 561, 0.00, 1.69, 0.000000, 0.00, 1, 26, 562, 0
GPS, 3, 543615400, 12, 1.45, -33.7840471, 151.0682228, 1.55, 98.32, 1.18, 52.74
ATT, 0.00, 0.21, 0.00, -2.05, 0.00, 42.45, 51.09
CTUN, 561, 0.00, 1.77, 0.000000, 0.00, 0, 24, 561, 0
ATT, 0.00, 0.96, 0.00, 0.10, 0.00, 42.33, 51.09
CTUN, 561, 0.00, 1.81, 0.000000, 0.00, 0, 24, 561, 0
GPS, 3, 543615600, 12, 1.45, -33.7840460, 151.0682252, 1.62, 98.30, 1.36, 57.07
ATT, 0.00, 0.24, 0.00, 0.90, 0.00, 42.46, 51.09
CTUN, 561, 0.00, 1.87, 0.000000, 0.00, 0, 22, 561, 0
DU32, 7, 82041
CURR, 561, 23165, 1168, 1408, 4732, 19.12756
ATT, 0.00, 0.05, 0.00, 1.10, 0.00, 42.59, 51.09
CTUN, 561, 0.00, 1.90, 0.000000, 0.00, 0, 19, 561, 0
GPS, 3, 543615800, 12, 1.45, -33.7840448, 151.0682276, 1.68, 98.31, 1.36, 59.64
ATT, 0.00, -0.17, 0.00, 0.94, 0.00, 42.75, 51.09
CTUN, 561, 0.00, 1.94, 0.000000, 0.00, 0, 17, 561, 0
ATT, 0.00, -0.32, 0.00, 0.87, 0.00, 42.85, 51.09
CTUN, 561, 0.00, 1.98, 0.000000, 0.00, 0, 15, 561, 0
GPS, 3, 543616000, 12, 1.45, -33.7840438, 151.0682303, 1.75, 98.28, 1.45, 64.24
CTUN, 561, 0.00, 1.93, 0.000000, 0.00, 0, 13, 561, 0
ATT, 0.00, -0.30, 0.00, 0.65, 0.00, 42.90, 51.09
CTUN, 561, 0.00, 1.95, 0.000000, 0.00, 0, 9, 561, 0
ATT, 0.00, -0.27, 0.00, 0.42, 0.00, 42.88, 51.09
GPS, 3, 543616200, 11, 1.60, -33.7840432, 151.0682326, 1.79, 98.34, 1.14, 67.61
CTUN, 561, 0.00, 2.07, 0.000000, 0.00, 0, 9, 561, 0
ATT, 0.00, -0.29, 0.00, 0.35, 0.00, 42.88, 51.09
CTUN, 561, 0.00, 1.98, 0.000000, 0.00, 0, 5, 561, 0
GPS, 3, 543616400, 11, 1.60, -33.7840429, 151.0682351, 1.83, 98.39, 1.11, 74.18
ATT, 0.00, -0.39, 0.00, 0.24, 0.00, 42.81, 51.09
CTUN, 561, 0.00, 2.04, 0.000000, 0.00, 0, 4, 561, 0
ATT, 0.00, -0.56, 0.00, -0.05, 0.00, 42.76, 51.09
CTUN, 561, 0.00, 2.11, 0.000000, 0.00, 0, 1, 561, 0
GPS, 3, 543616600, 11, 1.60, -33.7840429, 151.0682374, 1.86, 98.42, 1.09, 81.30
ATT, 0.00, -0.64, 0.00, -0.30, 0.00, 42.72, 51.09
CTUN, 561, 0.00, 2.04, 0.000000, 0.00, 0, -1, 561, 0
DU32, 7, 82041
CURR, 561, 28215, 1168, 1402, 4712, 23.02857
ATT, 0.00, -0.61, 0.00, -0.27, 0.00, 42.69, 51.09
CTUN, 561, 0.00, 2.07, 0.000000, 0.00, 0, -4, 562, 0
GPS, 3, 543616800, 12, 1.45, -33.7840430, 151.0682394, 1.88, 98.38, 1.02, 86.45
ATT, -2.32, -0.49, 0.00, -0.31, 0.00, 42.63, 51.09
CTUN, 561, 0.00, 2.05, 0.000000, 0.00, 0, -5, 561, 0
ATT, -6.27, -1.26, 0.00, -0.28, 0.00, 42.61, 51.09
CTUN, 561, 0.00, 2.03, 0.000000, 0.00, 0, -7, 561, 0
GPS, 3, 543617000, 12, 1.45, -33.7840427, 151.0682417, 1.89, 98.48, 1.05, 87.16
CTUN, 561, 0.00, 2.05, 0.000000, 0.00, 0, -8, 561, 0
ATT, -7.55, -4.07, 0.00, -0.62, 0.00, 42.60, 51.09
CTUN, 561, 0.00, 1.86, 0.000000, 0.00, 2, -10, 563, 0
ATT, -11.86, -6.11, 0.00, -1.12, 0.00, 42.60, 51.09
GPS, 3, 543617200, 12, 1.45, -33.7840429, 151.0682440, 1.88, 98.49, 1.08, 91.18
CTUN, 561, 0.00, 2.01, 0.000000, 0.00, 3, -13, 564, 0
ATT, -9.53, -8.77, 0.00, -0.96, 0.00, 42.58, 51.09
CTUN, 561, 0.00, 1.99, 0.000000, 0.00, 5, -15, 566, 0
GPS, 3, 543617400, 12, 1.45, -33.7840431, 151.0682459, 1.86, 98.49, 0.90, 92.43
ATT, -8.95, -9.24, 0.00, -1.79, 0.00, 42.67, 51.09
CTUN, 566, 0.00, 2.05, 0.000000, 0.00, 5, -16, 566, 0
ATT, -8.13, -8.90, 0.00, -1.48, 0.00, 42.64, 51.09
CTUN, 566, 0.00, 2.06, 0.000000, 0.00, 5, -17, 572, 0
GPS, 3, 543617600, 12, 1.45, -33.7840426, 151.0682474, 1.85, 98.62, 0.77, 86.17
ATT, -6.16, -8.03, 0.00, -1.50, 0.00, 42.80, 51.09
CTUN, 566, 0.00, 1.99, 0.000000, 0.00, 4, -18, 570, 0
DU32, 7, 82041
CURR, 566, 33290, 1171, 1447, 4732, 26.98061
ATT, -7.90, -6.82, 0.00, -1.33, 0.00, 42.97, 51.09
CTUN, 566, 0.00, 1.90, 0.000000, 0.00, 3, -19, 569, 0
GPS, 3, 543617800, 12, 1.45, -33.7840424, 151.0682487, 1.83, 98.63, 0.68, 81.56
ATT, -8.60, -6.75, 0.00, -0.93, 0.00, 43.16, 51.09
CTUN, 566, 0.00, 1.85, 0.000000, 0.00, 3, -19, 569, 0
ATT, -7.32, -7.19, 0.00, -1.32, 0.00, 43.53, 51.09
PM, 0, 0, 50, 0, 1000, 10420, 0, 4
CTUN, 566, 0.00, 1.92, 0.000000, 0.00, 3, -20, 569, 0
GPS, 3, 543618000, 12, 1.45, -33.7840415, 151.0682496, 1.80, 98.61, 0.74, 55.82
ATT, -6.62, -6.35, 0.00, -1.24, 0.00, 43.85, 51.09
CTUN, 566, 0.00, 1.86, 0.000000, 0.00, 2, -22, 568, 0
ATT, -4.65, -5.49, 0.00, -1.24, 0.00, 44.06, 51.09
CTUN, 567, 0.00, 1.86, 0.000000, 0.00, 2, -23, 568, 0
GPS, 3, 543618200, 12, 1.45, -33.7840409, 151.0682502, 1.76, 98.58, 0.56, 51.16
CTUN, 566, 0.00, 1.81, 0.000000, 0.00, 1, -24, 567, 0
ATT, 0.00, -3.80, 1.52, -1.41, 0.00, 44.43, 51.09
CTUN, 566, 0.00, 1.82, 0.000000, 0.00, 0, -25, 566, 0
ATT, 0.00, -0.64, 0.11, -0.38, 0.00, 44.65, 51.09
GPS, 3, 543618400, 12, 1.45, -33.7840398, 151.0682507, 1.72, 98.52, 0.72, 31.43
CTUN, 566, 0.00, 1.71, 0.000000, 0.00, 0, -25, 566, 0
ATT, -0.11, -0.07, 0.82, -0.61, 0.00, 44.98, 51.09
CTUN, 566, 0.00, 1.63, 0.000000, 0.00, 0, -26, 566, 0
GPS, 3, 543618600, 12, 1.45, -33.7840391, 151.0682509, 1.67, 98.48, 0.52, 27.05
ATT, 0.00, 0.08, 0.93, -0.21, 0.00, 45.41, 51.09
CTUN, 566, 0.00, 1.75, 0.000000, 0.00, 0, -27, 566, 0
DU32, 7, 82041
CURR, 566, 38966, 1168, 1404, 4712, 31.32104
ATT, 0.00, 0.21, 0.00, 0.11, 0.00, 45.70, 51.09
CTUN, 566, 0.00, 1.60, 0.000000, 0.00, 0, -29, 566, 0
GPS, 3, 543618800, 12, 1.45, -33.7840383, 151.0682514, 1.62, 98.37, 0.61, 26.86
ATT, 0.00, 0.19, 0.00, -0.19, 0.00, 45.96, 51.09
CTUN, 570, 0.00, 1.60, 0.000000, 0.00, 0, -30, 570, 0
ATT, 0.00, 0.06, 0.00, -0.34, 0.00, 46.11, 51.09
CTUN, 575, 0.00, 1.62, 0.000000, 0.00, 0, -31, 575, 0
GPS, 3, 543619000, 12, 1.45, -33.7840375, 151.0682518, 1.56, 98.29, 0.59, 26.70
ATT, 0.00, 0.05, 0.00, -0.36, 0.00, 46.21, 51.09
CTUN, 575, 0.00, 1.61, 0.000000, 0.00, 0, -31, 575, 0
ATT, 0.00, 0.06, 0.00, -0.45, 0.00, 46.22, 51.09
CTUN, 578, 0.00, 1.53, 0.000000, 0.00, 0, -30, 578, 0
GPS, 3, 543619200, 12, 1.45, -33.7840372, 151.0682524, 1.50, 98.16, 0.50, 32.09
CTUN, 581, 0.00, 1.41, 0.000000, 0.00, 0, -29, 583, 0
ATT, -8.60, 0.14, 4.57, -0.35, 0.00, 46.07, 51.09
CTUN, 583, 0.00, 1.42, 0.000000, 0.00, 0, -26, 583, 0
ATT, -5.81, -3.37, 5.74, 1.57, 0.00, 45.81, 51.09
GPS, 3, 543619400, 12, 1.45, -33.7840370, 151.0682530, 1.44, 98.05, 0.45, 40.18
CTUN, 583, 0.00, 1.35, 0.000000, 0.00, 2, -24, 585, 0
ATT, -5.81, -3.87, 5.39, 2.90, 0.00, 45.39, 51.09
CTUN, 583, 0.00, 1.44, 0.000000, 0.00, 1, -20, 584, 0
GPS, 3, 543619600, 12, 1.45, -33.7840367, 151.0682536, 1.39, 97.95, 0.39, 46.12
ATT, -5.58, -4.78, 5.27, 4.07, 0.00, 44.99, 51.09
CTUN, 582, 0.00, 1.50, 0.000000, 0.00, 2, -18, 585, 0
DU32, 7, 82041
CURR, 582, 44163, 1165, 1503, 4732, 35.37004
ATT, -5.46, -4.35, 5.15, 3.59, 0.00, 44.75, 51.09
CTUN, 581, 0.00, 1.45, 0.000000, 0.00, 2, -14, 583, 0
GPS, 3, 543619800, 10, 1.63, -33.7840366, 151.0682538, 1.37, 97.85, 0.19, 46.12
ATT, -5.11, -4.53, 5.39, 3.20, 0.00, 44.62, 51.09
CTUN, 583, 0.00, 1.41, 0.000000, 0.00, 2, -12, 585, 0
ATT, -7.20, -4.92, 5.15, 3.44, 0.00, 44.70, 51.09
CTUN, 581, 0.00, 1.33, 0.000000, 0.00, 2, -10, 583, 0
GPS, 3, 543620000, 11, 1.61, -33.7840366, 151.0682538, 1.35, 97.83, 0.11, 46.12
ATT, -7.32, -5.47, 4.80, 3.63, 0.00, 45.04, 51.09
CTUN, 583, 0.00, 1.38, 0.000000, 0.00, 2, -8, 585, 0
ATT, -7.44, -6.22, 3.75, 3.44, 0.00, 45.40, 51.09
CTUN, 582, 0.00, 1.27, 0.000000, 0.00, 3, -6, 586, 0
GPS, 3, 543620200, 11, 1.61, -33.7840365, 151.0682535, 1.33, 97.78, 0.16, 46.12
CTUN, 583, 0.00, 1.31, 0.000000, 0.00, 3, -3, 586, 0
ATT, -8.25, -6.75, 3.04, 2.93, 0.00, 45.65, 51.09
CTUN, 583, 0.00, 1.35, 0.000000, 0.00, 3, -3, 586, 0
ATT, -9.06, -7.45, 1.75, 2.25, 0.00, 45.78, 51.09
GPS, 3, 543620400, 10, 1.63, -33.7840367, 151.0682528, 1.32, 97.74, 0.32, 46.12
CTUN, 583, 0.00, 1.32, 0.000000, 0.00, 4, -2, 585, 0
ATT, -8.72, -7.97, 0.11, 1.06, 0.00, 45.86, 51.09
CTUN, 584, 0.00, 1.37, 0.000000, 0.00, 4, -2, 586, 0
GPS, 3, 543620600, 10, 2.15, -33.7840364, 151.0682520, 1.32, 97.80, 0.38, 46.12
ATT, -9.76, -7.90, 0.00, -0.39, 0.00, 45.93, 51.09
CTUN, 583, 0.00, 1.25, 0.000000, 0.00, 4, -2, 585, 0
DU32, 7, 82041
CURR, 583, 49431, 1160, 1491, 4712, 39.50864
ATT, -6.27, -8.14, 0.00, -1.14, 0.00, 46.01, 51.09
GPS, 3, 543620800, 10, 2.15, -33.7840366, 151.0682504, 1.32, 97.69, 0.70, 312.60
CTUN, 581, 0.00, 1.33, 0.000000, 0.00, 4, -2, 585, 0
ATT, -3.13, -5.67, 0.00, -1.98, 0.00, 45.91, 51.09
CTUN, 583, 0.00, 1.35, 0.000000, 0.00, 1, 0, 584, 0
ATT, -1.16, -3.29, 0.00, -1.34, 0.00, 45.50, 51.09
GPS, 3, 543621000, 10, 2.15, -33.7840362, 151.0682484, 1.31, 97.63, 0.97, 296.66
CTUN, 584, 0.00, 1.30, 0.000000, 0.00, 0, 0, 584, 0
ATT, 0.00, -0.98, 0.00, -1.07, 0.00, 45.06, 51.09
CTUN, 584, 0.00, 1.33, 0.000000, 0.00, 0, 1, 584, 0
ATT, 0.00, -0.05, 0.00, -0.92, 0.00, 44.87, 51.09
GPS, 3, 543621200, 10, 2.15, -33.7840355, 151.0682468, 1.32, 97.58, 0.81, 296.62
CTUN, 583, 0.00, 1.35, 0.000000, 0.00, 0, 1, 581, 0
ATT, 0.00, 0.57, 0.00, -0.80, 0.00, 44.90, 51.09
CTUN, 581, 0.00, 1.32, 0.000000, 0.00, 0, 1, 581, 0
ATT, 0.00, 0.77, 0.00, -0.63, 0.00, 45.11, 51.09
GPS, 3, 543621400, 10, 2.15, -33.7840345, 151.0682453, 1.32, 97.60, 0.86, 299.69
CTUN, 581, 0.00, 1.29, 0.000000, 0.00, 0, 1, 583, 0
ATT, 0.00, 0.88, 0.00, -0.48, 0.00, 45.41, 51.09
CTUN, 584, 0.00, 1.26, 0.000000, 0.00, 0, 2, 584, 0
GPS, 3, 543621600, 10, 2.15, -33.7840339, 151.0682441, 1.32, 97.69, 0.64, 296.59
ATT, 0.00, 0.80, 0.00, -0.26, 0.00, 45.75, 51.09
CTUN, 584, 0.00, 1.34, 0.000000, 0.00, 0, 2, 584, 0
DU32, 7, 82041
CURR, 583, 54681, 1162, 1474, 4732, 43.61156
ATT, 0.00, 0.82, 0.00, -0.62, 0.00, 46.08, 51.09
CTUN, 580, 0.00, 1.39, 0.000000, 0.00, 0, 1, 583, 0
GPS, 3, 543621800, 10, 2.15, -33.7840338, 151.0682430, 1.33, 97.63, 0.54, 291.46
CTUN, 584, 0.00, 1.35, 0.000000, 0.00, 0, 1, 584, 0
ATT, 0.00, 0.49, 0.00, -0.59, 0.00, 46.59, 51.09
CTUN, 583, 0.00, 1.28, 0.000000, 0.00, 0, 1, 583, 0
ATT, 0.00, 0.06, 0.00, -0.44, 0.00, 47.04, 51.09
GPS, 3, 543622000, 11, 1.59, -33.7840335, 151.0682419, 1.33, 97.60, 0.51, 288.67
CTUN, 583, 0.00, 1.33, 0.000000, 0.00, 0, 1, 583, 0
ATT, 0.00, -0.04, 0.00, -0.76, 0.00, 47.42, 51.09
CTUN, 581, 0.00, 1.41, 0.000000, 0.00, 0, 1, 583, 0
ATT, 0.00, -0.07, 0.00, -0.84, 0.00, 47.69, 51.09
GPS, 3, 543622200, 10, 2.15, -33.7840336, 151.0682409, 1.34, 97.65, 0.47, 275.98
CTUN, 584, 0.00, 1.26, 0.000000, 0.00, 0, 1, 582, 0
ATT, 0.00, 0.07, 0.00, -0.58, 0.00, 47.94, 51.09
CTUN, 582, 0.00, 1.27, 0.000000, 0.00, 0, 1, 582, 0
ATT, 0.00, -0.21, 0.00, -0.33, 0.00, 48.19, 51.09
GPS, 3, 543622400, 11, 1.59, -33.7840336, 151.0682401, 1.33, 97.64, 0.34, 275.98
CTUN, 582, 0.00, 1.28, 0.000000, 0.00, 0, 2, 582, 0
ATT, 0.00, -0.59, 0.00, 0.00, 0.00, 48.37, 51.09
CTUN, 583, 0.00, 1.29, 0.000000, 0.00, 0, 1, 583, 0
GPS, 3, 543622600, 11, 1.59, -33.7840339, 151.0682393, 1.33, 97.65, 0.41, 259.71
ATT, 0.00, -0.83, 0.00, 0.14, 0.00, 48.53, 51.09
CTUN, 583, 0.00, 1.23, 0.000000, 0.00, 0, 2, 581, 0
DU32, 7, 82041
CURR, 581, 59920, 1159, 1454, 4712, 47.64443
ATT, 0.00, -0.62, 0.00, 0.19, 1.80, 48.54, 51.23
CTUN, 583, 0.00, 1.37, 0.000000, 0.00, 0, 2, 581, 0
GPS, 3, 543622800, 11, 1.59, -33.7840342, 151.0682387, 1.33, 97.67, 0.34, 247.09
CTUN, 584, 0.00, 1.40, 0.000000, 0.00, 0, 4, 581, 0
ATT, 0.00, -0.52, 0.00, 0.27, 6.72, 49.15, 54.61
CTUN, 583, 0.00, 1.26, 0.000000, 0.00, 0, 7, 583, 0
ATT, 0.00, -0.21, 0.00, 0.47, 2.76, 50.98, 56.65
GPS, 3, 543623000, 10, 1.62, -33.7840345, 151.0682381, 1.34, 97.67, 0.36, 238.34
CTUN, 582, 0.00, 1.37, 0.000000, 0.00, 0, 6, 583, 0
ATT, 0.00, -0.78, 0.00, -0.04, 2.04, 53.04, 57.84
CTUN, 583, 0.00, 1.35, 0.000000, 0.00, 0, 6, 581, 0
ATT, 0.00, -0.97, 0.00, -0.31, 0.00, 54.47, 58.18
GPS, 3, 543623200, 9, 2.18, -33.7840352, 151.0682376, 1.36, 97.64, 0.46, 220.12
CTUN, 581, 0.00, 1.38, 0.000000, 0.00, 0, 6, 581, 0
ATT, 0.00, -1.07, 0.00, -0.66, 0.00, 55.42, 58.18
CTUN, 583, 0.00, 1.33, 0.000000, 0.00, 0, 5, 581, 0
ATT, 0.00, -0.55, 0.00, -0.66, 0.00, 55.78, 58.18
GPS, 3, 543623400, 9, 2.18, -33.7840356, 151.0682372, 1.37, 97.66, 0.37, 218.55
CTUN, 583, 0.00, 1.36, 0.000000, 0.00, 0, 5, 583, 0
ATT, 0.00, -0.53, 0.00, -0.65, 0.00, 55.86, 58.18
CTUN, 581, 0.00, 1.39, 0.000000, 0.00, 0, 5, 581, 0
GPS, 3, 543623600, 10, 1.62, -33.7840362, 151.0682366, 1.38, 97.65, 0.46, 220.43
ATT, 0.00, -0.54, 0.00, -0.62, 0.00, 55.78, 58.18
CTUN, 583, 0.00, 1.42, 0.000000, 0.00, 0, 4, 583, 0
DU32, 7, 82041
CURR, 583, 65158, 1161, 1460, 4732, 51.70539
ATT, 0.00, -0.60, 0.00, -0.51, 0.00, 55.65, 58.18
CTUN, 583, 0.00, 1.36, 0.000000, 0.00, 0, 3, 583, 0
GPS, 3, 543623800, 11, 1.59, -33.7840367, 151.0682366, 1.39, 97.61, 0.38, 209.15
CTUN, 583, 0.00, 1.38, 0.000000, 0.00, 0, 4, 583, 0
ATT, 0.00, -0.55, 0.00, -0.29, 0.00, 55.49, 58.18
CTUN, 584, 0.00, 1.41, 0.000000, 0.00, 0, 3, 583, 0
ATT, 0.00, -0.49, 0.00, -0.10, 0.00, 55.35, 58.18
GPS, 3, 543624000, 11, 1.48, -33.7840372, 151.0682367, 1.39, 97.59, 0.33, 195.79
CTUN, 581, 0.00, 1.29, 0.000000, 0.00, 0, 2, 581, 0
ATT, 0.00, -0.67, 0.00, -0.09, 0.00, 55.25, 58.18
CTUN, 583, 0.00, 1.35, 0.000000, 0.00, 0, 2, 582, 0
ATT, 0.00, -0.81, 0.00, -0.12, 0.00, 55.15, 58.18
GPS, 3, 543624200, 12, 1.45, -33.7840377, 151.0682365, 1.39, 97.64, 0.39, 196.76
CTUN, 582, 0.00, 1.39, 0.000000, 0.00, 0, 0, 582, 0
ATT, 0.00, -0.76, 0.00, -0.15, 0.00, 55.07, 58.18
CTUN, 583, 0.00, 1.35, 0.000000, 0.00, 0, 0, 583, 0
ATT, 0.00, -0.93, 0.00, -0.10, 0.00, 54.99, 58.18
GPS, 3, 543624400, 12, 1.45, -33.7840383, 151.0682365, 1.39, 97.64, 0.36, 195.59
CTUN, 583, 0.00, 1.37, 0.000000, 0.00, 0, -1, 583, 0
ATT, -3.60, -0.97, 0.00, -0.09, 0.00, 54.90, 58.18
CTUN, 584, 0.00, 1.39, 0.000000, 0.00, 0, -1, 581, 0
GPS, 3, 543624600, 12, 1.45, -33.7840391, 151.0682366, 1.38, 97.61, 0.50, 185.09
ATT, -5.00, -2.98, 0.00, -0.09, 0.00, 54.84, 58.18
CTUN, 584, 0.00, 1.29, 0.000000, 0.00, 0, -2, 583, 0
ATT, -7.09, -4.27, 0.00, -0.22, 0.00, 54.74, 58.18
CTUN, 582, 0.00, 1.28, 0.000000, 0.00, 1, -2, 583, 0
GPS, 3, 543624800, 11, 1.48, -33.7840397, 151.0682366, 1.37, 97.65, 0.42, 183.38
CTUN, 582, 0.00, 1.24, 0.000000, 0.00, 2, -3, 585, 0
DU32, 7, 82041
CURR, 582, 70990, 1161, 1472, 4732, 56.17200
ATT, -11.04, -6.09, 0.00, -0.34, 0.00, 54.64, 58.18
CTUN, 583, 0.00, 1.29, 0.000000, 0.00, 4, -3, 585, 0
ATT, -8.83, -8.48, 0.00, -0.40, 0.00, 54.64, 58.18
GPS, 3, 543625000, 12, 1.45, -33.7840406, 151.0682363, 1.35, 97.60, 0.45, 190.94
CTUN, 583, 0.00, 1.35, 0.000000, 0.00, 5, -4, 588, 0
ATT, -7.32, -8.08, 0.00, -0.86, 0.00, 54.58, 58.18
CTUN, 583, 0.00, 1.36, 0.000000, 0.00, 4, -3, 587, 0
ATT, -5.23, -7.25, 0.00, -0.76, 0.00, 54.49, 58.18
GPS, 3, 543625200, 12, 1.45, -33.7840412, 151.0682359, 1.34, 97.50, 0.38, 198.79
CTUN, 583, 0.00, 1.33, 0.000000, 0.00, 3, -3, 586, 0
ATT, -3.48, -5.44, 0.00, -0.90, 0.00, 54.49, 58.18
CTUN, 583, 0.00, 1.21, 0.000000, 0.00, 1, -2, 583, 0
ATT, -3.48, -3.79, 0.00, -0.93, 0.00, 54.57, 58.18
GPS, 3, 543625400, 12, 1.45, -33.7840415, 151.0682353, 1.33, 97.41, 0.32, 214.66
CTUN, 583, 0.00, 1.27, 0.000000, 0.00, 0, -2, 583, 0
ATT, -5.23, -3.40, 0.00, -0.42, 0.00, 54.84, 58.18
CTUN, 581, 0.00, 1.35, 0.000000, 0.00, 0, -3, 581, 0
GPS, 3, 543625600, 12, 1.45, -33.7840412, 151.0682348, 1.32, 97.39, 0.28, 214.66
ATT, -5.23, -3.99, 0.00, -0.07, 0.00, 55.20, 58.18
CTUN, 583, 0.00, 1.33, 0.000000, 0.00, 1, -3, 583, 0
ATT, -4.65, -4.33, 0.00, -0.04, 0.00, 55.38, 58.18
CTUN, 584, 0.00, 1.21, 0.000000, 0.00, 1, -4, 585, 0
GPS, 3, 543625800, 11, 1.61, -33.7840412, 151.0682341, 1.31, 97.30, 0.30, 214.66
CTUN, 583, 0.00, 1.31, 0.000000, 0.00, 1, -4, 584, 0
DU32, 7, 82041
CURR, 583, 76251, 1159, 1464, 4752, 60.25360
ATT, -4.65, -4.31, 0.00, -0.04, 0.00, 55.47, 58.18
CTUN, 583, 0.00, 1.25, 0.000000, 0.00, 1, -5, 583, 0
ATT, -4.30, -4.40, 0.00, 0.13, 0.00, 55.43, 58.18
GPS, 3, 543626000, 10, 1.63, -33.7840411, 151.0682333, 1.30, 97.24, 0.39, 245.24
CTUN, 583, 0.00, 1.13, 0.000000, 0.00, 1, -5, 584, 0
ATT, -4.41, -3.98, 0.00, 0.18, 0.00, 55.34, 58.18
CTUN, 583, 0.00, 1.22, 0.000000, 0.00, 1, -6, 584, 0
ATT, -4.18, -4.02, 0.00, 0.25, 0.00, 55.33, 58.18
GPS, 3, 543626200, 10, 1.63, -33.7840409, 151.0682323, 1.27, 97.11, 0.48, 269.43
CTUN, 582, 0.00, 1.22, 0.000000, 0.00, 1, -6, 582, 0
ATT, -2.90, -3.91, 0.00, 0.02, 0.00, 55.37, 58.18
CTUN, 583, 0.00, 1.25, 0.000000, 0.00, 1, -7, 582, 0
ATT, -1.27, -3.15, 0.00, -0.14, 0.00, 55.48, 58.18
GPS, 3, 543626400, 10, 1.63, -33.7840404, 151.0682315, 1.25, 97.10, 0.46, 282.13
CTUN, 583, 0.00, 1.22, 0.000000, 0.00, 0, -8, 581, 0
ATT, 0.00, -1.82, 0.00, -0.05, 0.00, 55.58, 58.18
CTUN, 583, 0.00, 1.30, 0.000000, 0.00, 0, -8, 583, 0
GPS, 3, 543626600, 10, 1.63, -33.7840400, 151.0682304, 1.23, 97.09, 0.52, 285.83
ATT, 0.00, -0.66, 0.00, 0.04, 0.00, 55.73, 58.18
CTUN, 582, 0.00, 1.16, 0.000000, 0.00, 0, -9, 582, 0
ATT, 0.00, -0.53, 0.00, -0.07, 0.00, 55.91, 58.18
CTUN, 582, 0.00, 1.19, 0.000000, 0.00, 0, -9, 582, 0
GPS, 3, 543626800, 10, 1.63, -33.7840399, 151.0682293, 1.21, 97.04, 0.52, 280.75
CTUN, 585, 0.00, 1.30, 0.000000, 0.00, 0, -9, 585, 0
DU32, 7, 82041
CURR, 585, 81495, 1158, 1443, 4772, 64.28788
ATT, 0.00, -0.51, 0.00, -0.13, 0.00, 56.15, 58.18
CTUN, 582, 0.00, 1.24, 0.000000, 0.00, 0, -12, 583, 0
ATT, 0.00, -0.61, 0.00, -0.30, 0.00, 56.42, 58.18
GPS, 3, 543627000, 10, 1.63, -33.7840397, 151.0682283, 1.20, 97.00, 0.46, 284.85
CTUN, 583, 0.00, 1.16, 0.000000, 0.00, 0, -12, 583, 0
ATT, 0.00, -0.65, 0.00, -0.49, 0.00, 56.71, 58.18
CTUN, 583, 0.00, 1.19, 0.000000, 0.00, 0, -12, 581, 0
ATT, 0.00, -0.79, 0.00, -0.55, 0.00, 56.93, 58.18
GPS, 3, 543627200, 11, 1.61, -33.7840395, 151.0682270, 1.17, 96.96, 0.57, 284.37
CTUN, 582, 0.00, 1.16, 0.000000, 0.00, 0, -12, 583, 0
ATT, 0.00, -0.81, 0.00, -0.48, 0.00, 57.12, 58.18
CTUN, 581, 0.00, 1.19, 0.000000, 0.00, 0, -12, 583, 0
ATT, 0.00, -0.84, 0.00, -0.35, 0.00, 57.23, 58.18
GPS, 3, 543627400, 11, 1.61, -33.7840397, 151.0682261, 1.15, 96.86, 0.34, 282.32
CTUN, 583, 0.00, 1.13, 0.000000, 0.00, 0, -13, 583, 0
ATT, 0.00, -0.69, 0.00, -0.17, 0.00, 57.27, 58.18
CTUN, 583, 0.00, 1.06, 0.000000, 0.00, 0, -12, 583, 0
GPS, 3, 543627600, 11, 1.61, -33.7840398, 151.0682252, 1.12, 96.72, 0.36, 284.62
ATT, 0.00, -0.68, 0.00, -0.40, 0.00, 57.34, 58.18
CTUN, 583, 0.00, 1.07, 0.000000, 0.00, 0, -13, 584, 0
ATT, 0.00, -0.66, 0.00, -0.68, 0.00, 57.39, 58.18
CTUN, 583, 0.00, 1.07, 0.000000, 0.00, 0, -15, 582, 0
GPS, 3, 543627800, 10, 1.63, -33.7840398, 151.0682244, 1.08, 96.65, 0.29, 284.62
CTUN, 581, 0.00, 1.08, 0.000000, 0.00, 0, -15, 583, 0
ATT, 0.00, -0.58, 0.00, -0.72, 0.00, 57.42, 58.18
DU32, 7, 82041
CURR, 581, 86741, 1159, 1440, 4732, 68.29349
CTUN, 583, 0.00, 1.10, 0.000000, 0.00, 0, -16, 583, 0
ATT, 0.00, -0.50, 0.00, -0.73, 0.00, 57.45, 58.18
PM, 0, 0, 50, 0, 1000, 10404, 0, 4
GPS, 3, 543628000, 11, 1.48, -33.7840400, 151.0682237, 1.06, 96.52, 0.24, 284.62
CTUN, 583, 0.00, 1.04, 0.000000, 0.00, 0, -16, 583, 0
ATT, 0.00, -0.53, 0.00, -0.61, 0.00, 57.45, 58.18
CTUN, 588, 0.00, 1.01, 0.000000, 0.00, 0, -16, 582, 0
ATT, 0.00, -0.48, 0.00, -0.50, 0.00, 57.36, 58.18
GPS, 3, 543628200, 12, 1.45, -33.7840404, 151.0682230, 1.02, 96.30, 0.14, 284.62
CTUN, 605, 0.00, 1.05, 0.000000, 0.00, 0, -17, 605, 0
ATT, 0.00, -0.38, 0.00, -0.32, 0.00, 57.21, 58.18
CTUN, 607, 0.00, 1.00, 0.000000, 0.00, 0, -15, 605, 0
ATT, 0.00, -0.10, 0.00, -0.28, 0.00, 57.07, 58.18
GPS, 3, 543628400, 12, 1.45, -33.7840410, 151.0682222, 0.99, 96.07, 0.23, 284.62
CTUN, 611, 0.00, 0.88, 0.000000, 0.00, 0, -10, 611, 0
ATT, 0.00, 0.03, 0.00, 0.01, 0.00, 56.97, 58.18
CTUN, 613, 0.00, 0.92, 0.000000, 0.00, 0, -6, 613, 0
GPS, 3, 543628600, 12, 1.45, -33.7840412, 151.0682219, 0.97, 95.99, 0.08, 284.62
ATT, 0.00, 0.21, 0.00, 0.21, 0.00, 56.87, 58.18
CTUN, 613, 0.00, 1.00, 0.000000, 0.00, 0, -1, 613, 0
ATT, 0.00, 0.26, 0.00, 0.22, 0.00, 56.78, 58.18
CTUN, 613, 0.00, 0.87, 0.000000, 0.00, 0, 3, 613, 0
GPS, 3, 543628800, 12, 1.45, -33.7840413, 151.0682216, 0.97, 96.03, 0.11, 284.62
CTUN, 613, 0.00, 0.97, 0.000000, 0.00, 0, 7, 611, 0
ATT, 0.00, 0.20, 0.00, 0.29, 0.00, 56.70, 58.18
DU32, 7, 82041
CURR, 611, 92150, 1154, 1566, 4732, 72.48779
CTUN, 613, 0.00, 0.89, 0.000000, 0.00, 0, 11, 613, 0
ATT, 0.00, 0.24, 0.00, 0.34, 0.00, 56.61, 58.18
GPS, 3, 543629000, 11, 1.48, -33.7840417, 151.0682213, 0.98, 95.96, 0.20, 284.62
CTUN, 613, 0.00, 0.89, 0.000000, 0.00, 0, 16, 613, 0
ATT, 0.00, 0.14, 0.00, 0.33, 0.00, 56.47, 58.18
CTUN, 613, 0.00, 0.96, 0.000000, 0.00, 0, 19, 613, 0
ATT, 0.00, -0.02, 0.00, 0.40, 0.00, 56.28, 58.18
GPS, 3, 543629200, 11, 1.48, -33.7840420, 151.0682212, 1.01, 96.02, 0.24, 284.62
CTUN, 613, 0.00, 0.96, 0.000000, 0.00, 0, 22, 613, 0
ATT, 0.00, -0.20, 0.00, 0.50, 0.00, 56.02, 58.18
CTUN, 613, 0.00, 0.98, 0.000000, 0.00, 0, 26, 611, 0
ATT, -1.27, -0.37, 0.00, 0.56, 0.00, 55.76, 58.18
GPS, 3, 543629400, 11, 1.48, -33.7840426, 151.0682213, 1.06, 96.04, 0.29, 284.62
CTUN, 607, 0.00, 1.00, 0.000000, 0.00, 0, 31, 607, 0
ATT, -3.83, -1.53, 0.00, 0.54, 0.00, 55.56, 58.18
CTUN, 607, 0.00, 1.00, 0.000000, 0.00, 0, 34, 607, 0
GPS, 3, 543629600, 12, 1.45, -33.7840433, 151.0682214, 1.12, 96.07, 0.41, 210.63
ATT, -4.76, -3.43, -0.72, 0.37, 0.00, 55.50, 58.18
CTUN, 601, 0.00, 1.14, 0.000000, 0.00, 0, 36, 605, 0
ATT, -5.00, -4.41, -1.21, 0.05, 0.00, 55.53, 58.18
CTUN, 594, 0.00, 1.23, 0.000000, 0.00, 1, 38, 595, 0
GPS, 3, 543629800, 12, 1.45, -33.7840440, 151.0682214, 1.19, 96.18, 0.44, 188.25
CTUN, 585, 0.00, 1.29, 0.000000, 0.00, 1, 38, 586, 0
ATT, -5.23, -5.04, -1.94, -0.70, 0.00, 55.62, 58.18
DU32, 7, 82041
CURR, 585, 98207, 1153, 1469, 4732, 77.30106
CTUN, 585, 0.00, 1.20, 0.000000, 0.00, 2, 37, 587, 0
ATT, -4.18, -5.42, -1.94, -1.51, 0.00, 55.71, 58.18
GPS, 3, 543630000, 11, 1.48, -33.7840447, 151.0682211, 1.27, 96.21, 0.34, 184.86
CTUN, 583, 0.00, 1.27, 0.000000, 0.00, 2, 36, 585, 0
ATT, -3.02, -4.94, -0.36, -2.09, 0.00, 55.84, 58.18
CTUN, 582, 0.00, 1.30, 0.000000, 0.00, 1, 35, 583, 0
ATT, -0.81, -4.30, 0.00, -1.87, 0.00, 55.98, 58.18
GPS, 3, 543630200, 11, 1.48, -33.7840453, 151.0682208, 1.34, 96.30, 0.33, 188.98
CTUN, 582, 0.00, 1.30, 0.000000, 0.00, 1, 34, 584, 0
ATT, 0.00, -2.22, 0.00, -1.15, 0.00, 56.15, 58.18
CTUN, 583, 0.00, 1.36, 0.000000, 0.00, 0, 31, 583, 0
ATT, 0.00, -1.48, 0.00, -0.80, 0.00, 56.38, 58.18
GPS, 3, 543630400, 11, 1.48, -33.7840456, 151.0682206, 1.40, 96.35, 0.21, 188.98
CTUN, 582, 0.00, 1.34, 0.000000, 0.00, 0, 29, 583, 0
ATT, 0.00, -0.80, 0.00, -0.67, 0.00, 56.67, 58.18
CTUN, 584, 0.00, 1.45, 0.000000, 0.00, 0, 27, 585, 0
GPS, 3, 543630600, 11, 1.48, -33.7840456, 151.0682203, 1.45, 96.45, 0.11, 188.98
ATT, 0.00, -0.47, 0.00, -0.60, 0.00, 56.89, 58.18
CTUN, 582, 0.00, 1.45, 0.000000, 0.00, 0, 25, 583, 0
ATT, 0.00, -0.14, 0.00, -0.50, 0.00, 57.02, 58.18
CTUN, 582, 0.00, 1.53, 0.000000, 0.00, 0, 25, 582, 0
GPS, 3, 543630800, 11, 1.48, -33.7840457, 151.0682202, 1.50, 96.48, 0.08, 188.98
CTUN, 584, 0.00, 1.53, 0.000000, 0.00, 0, 22, 584, 0
ATT, 0.00, -0.23, 0.00, -0.32, 0.00, 57.15, 58.18
DU32, 7, 82041
CURR, 582, 103458, 1160, 1448, 4712, 81.32811
CTUN, 582, 0.00, 1.57, 0.000000, 0.00, 0, 21, 582, 0
ATT, 0.00, -0.23, 0.00, -0.28, 0.00, 57.30, 58.18
GPS, 3, 543631000, 12, 1.45, -33.7840459, 151.0682202, 1.54, 96.47, 0.12, 188.98
CTUN, 549, 0.00, 1.51, 0.000000, 0.00, 0, 18, 549, 0
ATT, -3.95, -0.46, 0.00, -0.18, 0.00, 57.56, 58.18
CTUN, 541, 0.00, 1.64, 0.000000, 0.00, 0, 13, 541, 0
ATT, -5.93, -1.81, 0.00, 0.14, 0.00, 57.80, 58.18
GPS, 3, 543631200, 11, 1.61, -33.7840462, 151.0682203, 1.58, 96.47, 0.17, 188.98
CTUN, 540, 0.00, 1.62, 0.000000, 0.00, 0, 6, 540, 0
ATT, -7.32, -4.92, 0.00, -0.05, 0.00, 58.31, 58.18
CTUN, 541, 0.00, 1.66, 0.000000, 0.00, 1, -3, 542, 0
ATT, -8.02, -6.53, 0.00, 0.03, 0.00, 58.73, 58.18
GPS, 3, 543631400, 10, 1.63, -33.7840464, 151.0682203, 1.58, 96.49, 0.19, 188.98
CTUN, 541, 0.00, 1.70, 0.000000, 0.00, 2, -15, 542, 0
ATT, -8.02, -7.57, 0.00, 0.19, 0.00, 59.03, 58.18
CTUN, 541, 0.00, 1.56, 0.000000, 0.00, 3, -24, 544, 0
GPS, 3, 543631600, 10, 1.63, -33.7840464, 151.0682204, 1.54, 96.47, 0.05, 188.98
ATT, -7.44, -7.89, 0.00, 0.26, 0.00, 59.21, 58.18
CTUN, 540, 0.00, 1.65, 0.000000, 0.00, 3, -35, 544, 0
ATT, -7.44, -7.62, 0.00, 0.28, 0.00, 59.23, 58.18
CTUN, 541, 0.00, 1.50, 0.000000, 0.00, 3, -41, 544, 0
GPS, 3, 543631800, 10, 1.63, -33.7840465, 151.0682203, 1.47, 96.41, 0.08, 188.98
CTUN, 556, 0.00, 1.57, 0.000000, 0.00, 3, -49, 554, 0
ATT, -7.67, -7.42, 0.00, 0.22, 0.00, 59.17, 58.18
DU32, 7, 82041
CURR, 576, 108398, 1159, 1319, 4712, 84.93324
CTUN, 576, 0.00, 1.57, 0.000000, 0.00, 3, -58, 569, 0
ATT, -10.00, -7.37, 0.00, 0.20, 0.00, 59.13, 58.18
GPS, 3, 543632000, 12, 1.45, -33.7840461, 151.0682201, 1.37, 96.28, 0.23, 188.98
CTUN, 584, 0.00, 1.49, 0.000000, 0.00, 4, -61, 585, 0
ATT, -9.76, -8.41, 0.00, 0.12, 0.00, 59.02, 58.18
CTUN, 592, 0.00, 1.28, 0.000000, 0.00, 5, -61, 597, 0
ATT, -7.55, -8.41, 0.00, -0.05, 0.00, 58.82, 58.18
GPS, 3, 543632200, 12, 1.45, -33.7840455, 151.0682195, 1.26, 96.15, 0.37, 247.45
CTUN, 607, 0.00, 1.30, 0.000000, 0.00, 4, -60, 603, 0
ATT, -6.27, -7.10, 0.00, -0.20, 0.00, 58.52, 58.18
CTUN, 609, 0.00, 1.12, 0.000000, 0.00, 3, -58, 612, 0
ATT, -1.62, -5.92, 0.00, -0.36, 0.00, 58.27, 58.18
GPS, 3, 543632400, 11, 1.61, -33.7840446, 151.0682189, 1.15, 96.01, 0.61, 315.50
CTUN, 609, 0.00, 1.10, 0.000000, 0.00, 1, -51, 610, 0
ATT, 0.00, -2.73, 0.00, -0.45, 0.00, 57.79, 58.18
CTUN, 612, 0.00, 1.07, 0.000000, 0.00, 0, -47, 611, 0
GPS, 3, 543632600, 11, 1.61, -33.7840435, 151.0682177, 1.05, 95.93, 0.77, 316.12
ATT, 0.00, -1.18, 0.00, -0.52, 0.00, 57.30, 58.18
CTUN, 611, 0.00, 1.03, 0.000000, 0.00, 0, -40, 611, 0
ATT, 0.00, -0.24, -1.33, -0.53, 0.00, 56.95, 58.18
CTUN, 611, 0.00, 1.03, 0.000000, 0.00, 0, -34, 611, 0
GPS, 3, 543632800, 11, 1.61, -33.7840424, 151.0682169, 0.98, 95.83, 0.71, 322.72
CTUN, 611, 0.00, 0.98, 0.000000, 0.00, 0, -27, 611, 0
ATT, 0.00, 0.24, -2.54, -1.11, 0.00, 56.60, 58.18
DU32, 7, 82041
CURR, 611, 113841, 1152, 1559, 4732, 89.14044
CTUN, 611, 0.00, 1.04, 0.000000, 0.00, 0, -21, 611, 0
ATT, 0.00, 0.45, -2.54, -1.69, 0.00, 56.33, 58.18
GPS, 3, 543633000, 11, 1.61, -33.7840414, 151.0682159, 0.93, 95.78, 0.65, 321.98
CTUN, 611, 0.00, 0.95, 0.000000, 0.00, 0, -16, 611, 0
ATT, 0.00, 0.81, -2.54, -1.87, 0.00, 56.04, 58.18
CTUN, 611, 0.00, 0.91, 0.000000, 0.00, 0, -13, 611, 0
ATT, 0.00, 0.62, -2.18, -1.83, 0.00, 55.89, 58.18
GPS, 3, 543633200, 11, 1.61, -33.7840407, 151.0682153, 0.91, 95.71, 0.50, 321.53
CTUN, 611, 0.00, 1.00, 0.000000, 0.00, 0, -9, 611, 0
ATT, -0.58, 0.42, -2.30, -1.47, 0.00, 55.72, 58.18
CTUN, 611, 0.00, 0.98, 0.000000, 0.00, 0, -3, 611, 0
ATT, -0.58, 0.09, -2.18, -1.49, 0.00, 55.61, 58.18
GPS, 3, 543633400, 11, 1.61, -33.7840402, 151.0682150, 0.91, 95.69, 0.33, 321.53
CTUN, 611, 0.00, 0.97, 0.000000, 0.00, 0, 1, 611, 0
ATT, -0.81, -0.42, -2.66, -1.40, 0.00, 55.56, 58.18
CTUN, 611, 0.00, 0.91, 0.000000, 0.00, 0, 5, 611, 0
GPS, 3, 543633600, 10, 1.63, -33.7840396, 151.0682150, 0.92, 95.64, 0.34, 321.53
ATT, -0.81, -0.98, -4.12, -1.69, 0.00, 55.53, 58.18
CTUN, 611, 0.00, 0.96, 0.000000, 0.00, 0, 10, 611, 0
ATT, -0.69, -1.08, -4.00, -2.43, 0.00, 55.50, 58.18
CTUN, 611, 0.00, 0.87, 0.000000, 0.00, 0, 14, 610, 0
GPS, 3, 543633800, 11, 1.61, -33.7840395, 151.0682147, 0.95, 95.57, 0.19, 321.53
CTUN, 609, 0.00, 0.90, 0.000000, 0.00, 0, 18, 609, 0
ATT, -1.27, -1.26, -4.73, -2.94, 0.00, 55.45, 58.18
CTUN, 611, 0.00, 0.95, 0.000000, 0.00, 0, 22, 609, 0
ATT, -1.27, -1.33, -4.60, -3.27, 0.00, 55.37, 58.18
DU32, 7, 82041
CURR, 611, 119338, 1152, 1569, 4693, 93.48778
GPS, 3, 543634000, 11, 1.61, -33.7840391, 151.0682150, 0.99, 95.59, 0.17, 321.53
CTUN, 611, 0.00, 1.03, 0.000000, 0.00, 1, 26, 612, 0
ATT, -0.46, -1.58, -4.73, -3.54, 0.00, 55.37, 58.18
CTUN, 611, 0.00, 1.15, 0.000000, 0.00, 1, 29, 612, 0
ATT, -0.58, -1.31, -4.60, -3.72, 0.00, 55.40, 58.18
GPS, 3, 543634200, 11, 1.61, -33.7840387, 151.0682155, 1.05, 95.61, 0.27, 356.94
CTUN, 611, 0.00, 1.03, 0.000000, 0.00, 1, 31, 612, 0
ATT, -0.46, -0.96, -4.24, -3.72, 0.00, 55.57, 58.18
CTUN, 611, 0.00, 1.19, 0.000000, 0.00, 1, 35, 612, 0
ATT, -0.69, -0.71, -2.78, -3.48, 0.00, 55.74, 58.18
GPS, 3, 543634400, 11, 1.61, -33.7840384, 151.0682160, 1.12, 95.57, 0.21, 356.94
CTUN, 610, 0.00, 1.14, 0.000000, 0.00, 0, 39, 611, 0
ATT, -0.69, -0.48, 0.00, -2.24, 0.00, 55.95, 58.18
CTUN, 611, 0.00, 1.20, 0.000000, 0.00, 0, 42, 610, 0
GPS, 3, 543634600, 12, 1.45, -33.7840376, 151.0682168, 1.21, 95.66, 0.41, 27.22
ATT, -1.16, -0.52, 0.00, -0.31, 0.00, 56.15, 58.18
CTUN, 611, 0.00, 1.27, 0.000000, 0.00, 0, 45, 611, 0
ATT, -4.65, -0.79, 0.00, 0.26, 0.00, 56.23, 58.18
CTUN, 611, 0.00, 1.45, 0.000000, 0.00, 0, 47, 610, 0
GPS, 3, 543634800, 12, 1.45, -33.7840373, 151.0682178, 1.31, 95.76, 0.41, 45.15
CTUN, 611, 0.00, 1.28, 0.000000, 0.00, 0, 51, 611, 0
ATT, -4.53, -2.74, 0.00, 0.59, 0.00, 56.15, 58.18
CTUN, 595, 0.00, 1.40, 0.000000, 0.00, 0, 54, 595, 0
ATT, -6.04, -3.51, 0.00, 0.51, 0.00, 55.90, 58.18
GPS, 3, 543635000, 12, 1.45, -33.7840369, 151.0682188, 1.41, 95.81, 0.48, 57.62
CTUN, 589, 0.00, 1.33, 0.000000, 0.00, 1, 57, 590, 0
DU32, 7, 82041
CURR, 589, 125432, 1151, 1514, 4732, 98.28519
ATT, -7.20, -5.24, 0.00, 0.34, 0.00, 55.56, 58.18
CTUN, 588, 0.00, 1.48, 0.000000, 0.00, 2, 57, 590, 0
ATT, -3.60, -6.50, 0.00, -0.23, 0.00, 55.35, 58.18
GPS, 3, 543635200, 12, 1.45, -33.7840363, 151.0682199, 1.53, 95.95, 0.54, 58.13
CTUN, 588, 0.00, 1.52, 0.000000, 0.00, 2, 57, 590, 0
ATT, 0.00, -5.17, 0.00, -0.35, 0.00, 55.05, 58.18
CTUN, 575, 0.00, 1.55, 0.000000, 0.00, 1, 56, 583, 0
ATT, 0.00, -2.92, 0.00, -0.16, 0.00, 54.82, 58.18
GPS, 3, 543635400, 12, 1.45, -33.7840357, 151.0682205, 1.63, 96.12, 0.36, 54.89
CTUN, 572, 0.00, 1.62, 0.000000, 0.00, 0, 54, 572, 0
ATT, 0.00, -1.26, 0.00, 0.40, 0.00, 54.80, 58.18
CTUN, 560, 0.00, 1.75, 0.000000, 0.00, 0, 50, 560, 0
GPS, 3, 543635600, 12, 1.45, -33.7840352, 151.0682209, 1.74, 96.15, 0.44, 39.98
ATT, 0.00, -0.34, 0.00, 0.44, 0.00, 54.96, 58.18
CTUN, 560, 0.00, 1.73, 0.000000, 0.00, 0, 45, 560, 0
ATT, 0.00, -0.05, 0.00, 0.29, 0.00, 55.15, 58.18
CTUN, 560, 0.00, 1.81, 0.000000, 0.00, 0, 39, 560, 0
GPS, 3, 543635800, 12, 1.45, -33.7840349, 151.0682214, 1.82, 96.30, 0.31, 42.71
CTUN, 560, 0.00, 1.86, 0.000000, 0.00, 0, 33, 560, 0
ATT, 0.00, 0.05, 0.00, 0.03, 0.00, 55.41, 58.18
CTUN, 560, 0.00, 1.92, 0.000000, 0.00, 0, 27, 560, 0
ATT, 0.00, 0.23, 0.00, -0.09, 0.00, 55.58, 58.18
GPS, 3, 543636000, 12, 1.45, -33.7840346, 151.0682217, 1.89, 96.32, 0.33, 39.82
CTUN, 562, 0.00, 1.96, 0.000000, 0.00, 0, 21, 560, 0
ATT, 0.00, 0.28, 0.00, -0.06, 0.00, 55.64, 58.18
DU32, 7, 82041
CURR, 560, 130567, 1156, 1352, 4732, 102.1535
CTUN, 560, 0.00, 1.95, 0.000000, 0.00, 0, 15, 560, 0
ATT, 0.00, -0.01, 0.00, -0.10, 0.00, 55.60, 58.18
GPS, 3, 543636200, 12, 1.45, -33.7840344, 151.0682222, 1.92, 96.36, 0.26, 47.71
CTUN, 561, 0.00, 2.05, 0.000000, 0.00, 0, 9, 563, 0
ATT, 0.00, -0.25, 0.00, 0.00, 0.00, 55.43, 58.18
CTUN, 561, 0.00, 2.01, 0.000000, 0.00, 0, 4, 561, 0
ATT, 0.00, -0.29, 0.00, 0.10, 0.00, 55.19, 58.18
GPS, 3, 543636400, 12, 1.45, -33.7840345, 151.0682228, 1.95, 96.32, 0.28, 61.83
CTUN, 561, 0.00, 2.14, 0.000000, 0.00, 0, 1, 561, 0
ATT, 0.00, -0.33, 0.00, 0.16, 0.00, 54.83, 58.18
CTUN, 561, 0.00, 2.06, 0.000000, 0.00, 0, -3, 561, 0
GPS, 3, 543636600, 12, 1.45, -33.7840348, 151.0682236, 1.96, 96.22, 0.37, 80.95
ATT, 0.00, -0.48, 0.00, 0.02, 0.00, 54.48, 58.18
CTUN, 561, 0.00, 2.05, 0.000000, 0.00, 0, -8, 561, 0
ATT, 0.00, -0.49, 0.00, -0.07, 0.00, 54.20, 58.18
CTUN, 561, 0.00, 1.98, 0.000000, 0.00, 0, -12, 561, 0
GPS, 3, 543636800, 12, 1.45, -33.7840349, 151.0682244, 1.95, 96.03, 0.37, 77.67
ATT, 0.00, -0.34, 0.00, -0.26, 0.00, 53.96, 58.18
CTUN, 561, 0.00, 2.07, 0.000000, 0.00, 0, -16, 561, 0
ATT, 0.00, -0.51, 0.00, -0.41, 0.00, 53.83, 58.18
CTUN, 561, 0.00, 2.10, 0.000000, 0.00, 0, -21, 561, 0
GPS, 3, 543637000, 12, 1.45, -33.7840352, 151.0682252, 1.92, 95.98, 0.36, 90.70
CTUN, 561, 0.00, 1.95, 0.000000, 0.00, 0, -25, 561, 0
ATT, 0.00, -0.64, 0.00, -0.53, 0.00, 53.82, 58.18
DU32, 7, 82041
CURR, 561, 135615, 1154, 1371, 4732, 105.9848
CTUN, 561, 0.00, 2.08, 0.000000, 0.00, 0, -29, 561, 0
ATT, 0.00, -0.71, 0.00, -0.49, 0.00, 53.91, 58.18
GPS, 3, 543637200, 12, 1.45, -33.7840359, 151.0682259, 1.88, 95.82, 0.39, 110.43
CTUN, 561, 0.00, 2.02, 0.000000, 0.00, 0, -34, 561, 0
ATT, 0.00, -0.84, 0.00, -0.62, 0.00, 54.12, 58.18
CTUN, 561, 0.00, 2.04, 0.000000, 0.00, 0, -38, 561, 0
ATT, 0.00, -0.86, 0.00, -0.49, 0.00, 54.37, 58.18
GPS, 3, 543637400, 12, 1.45, -33.7840363, 151.0682270, 1.83, 95.67, 0.50, 107.18
CTUN, 561, 0.00, 1.87, 0.000000, 0.00, 0, -41, 561, 0
ATT, 0.00, -0.87, 0.00, -0.43, 0.00, 54.67, 58.18
CTUN, 561, 0.00, 1.82, 0.000000, 0.00, 0, -46, 561, 0
GPS, 3, 543637600, 11, 1.48, -33.7840369, 151.0682277, 1.75, 95.61, 0.45, 125.67
ATT, 0.00, -1.11, 0.00, -0.49, 0.00, 54.97, 58.18
CTUN, 561, 0.00, 1.88, 0.000000, 0.00, 0, -51, 561, 0
ATT, 0.00, -1.04, 0.00, -0.25, 0.00, 55.15, 58.18
CTUN, 561, 0.00, 1.69, 0.000000, 0.00, 0, -52, 561, 0
GPS, 3, 543637800, 11, 1.47, -33.7840377, 151.0682284, 1.66, 95.57, 0.49, 132.81
ATT, 0.00, -0.80, 0.00, -0.09, 0.00, 55.41, 58.18
CTUN, 561, 0.00, 1.74, 0.000000, 0.00, 0, -58, 561, 0
ATT, 0.00, -0.37, 0.00, 0.09, 0.00, 55.55, 58.18
PM, 0, 0, 50, 0, 1000, 10428, 0, 4
CTUN, 560, 0.00, 1.64, 0.000000, 0.00, 0, -59, 559, 0
GPS, 3, 543638000, 10, 1.63, -33.7840385, 151.0682293, 1.55, 95.42, 0.55, 132.98
CTUN, 575, 0.00, 1.56, 0.000000, 0.00, 0, -64, 575, 0
ATT, 0.00, -0.15, 0.00, -0.09, 0.00, 55.80, 58.18
DU32, 7, 82041
CURR, 575, 140665, 1157, 1351, 4732, 109.7311
CTUN, 577, 0.00, 1.51, 0.000000, 0.00, 0, -66, 575, 0
ATT, -1.62, -0.30, 0.00, -0.36, 0.00, 56.11, 58.18
GPS, 3, 543638200, 11, 1.47, -33.7840392, 151.0682301, 1.43, 95.25, 0.51, 131.32
CTUN, 585, 0.00, 1.31, 0.000000, 0.00, 0, -66, 583, 0
ATT, -1.51, -1.02, 0.00, -0.56, 0.00, 56.52, 58.18
CTUN, 609, 0.00, 1.29, 0.000000, 0.00, 0, -68, 601, 0
ATT, -2.09, -1.28, 0.00, -0.56, 0.00, 56.81, 58.18
GPS, 3, 543638400, 11, 1.47, -33.7840399, 151.0682313, 1.29, 95.11, 0.63, 128.95
CTUN, 611, 0.00, 1.22, 0.000000, 0.00, 0, -65, 611, 0
ATT, -2.32, -1.71, 0.00, -0.47, 0.00, 57.15, 58.18
CTUN, 618, 0.00, 1.16, 0.000000, 0.00, 0, -59, 618, 0
GPS, 3, 543638600, 11, 1.47, -33.7840406, 151.0682323, 1.16, 95.07, 0.67, 132.08
ATT, -3.72, -2.06, 0.00, -0.24, 0.00, 57.40, 58.18
CTUN, 626, 0.00, 1.06, 0.000000, 0.00, 0, -52, 626, 0
ATT, -3.72, -2.64, 0.00, 0.00, 0.00, 57.57, 58.18
CTUN, 630, 0.00, 1.01, 0.000000, 0.00, 0, -45, 631, 0
GPS, 3, 543638800, 11, 1.47, -33.7840416, 151.0682333, 1.06, 94.98, 0.73, 136.69
ATT, -4.65, -2.84, 0.00, 0.16, 0.00, 57.63, 58.18
CTUN, 630, 0.00, 0.99, 0.000000, 0.00, 0, -37, 631, 0
ATT, -5.00, -3.21, 0.00, -0.03, 0.00, 57.66, 58.18
CTUN, 630, 0.00, 0.94, 0.000000, 0.00, 0, -29, 631, 0
GPS, 3, 543639000, 11, 1.47, -33.7840426, 151.0682341, 0.99, 94.89, 0.69, 142.93
CTUN, 630, 0.00, 0.89, 0.000000, 0.00, 0, -20, 631, 0
ATT, -4.53, -3.58, 0.00, -0.17, 0.00, 57.60, 58.18
DU32, 7, 82041
CURR, 632, 146166, 1146, 1640, 4732, 114.0062
CTUN, 632, 0.00, 0.97, 0.000000, 0.00, 0, -13, 632, 0
ATT, -4.53, -3.20, 0.00, -0.37, 0.00, 57.48, 58.18
GPS, 3, 543639200, 11, 1.47, -33.7840436, 151.0682351, 0.95, 94.83, 0.73, 142.93
CTUN, 631, 0.00, 0.93, 0.000000, 0.00, 0, -5, 631, 0
ATT, -4.76, -3.14, 0.00, -0.66, 0.00, 57.29, 58.18
CTUN, 631, 0.00, 0.85, 0.000000, 0.00, 0, 2, 631, 0
ATT, -6.86, -3.24, 0.00, -0.81, 0.00, 57.17, 58.18
GPS, 3, 543639400, 11, 1.47, -33.7840442, 151.0682356, 0.94, 94.82, 0.52, 144.38
CTUN, 630, 0.00, 0.76, 0.000000, 0.00, 0, 8, 632, 0
ATT, -6.86, -4.44, 0.00, -0.77, 0.00, 56.98, 58.18
CTUN, 631, 0.00, 0.82, 0.000000, 0.00, 1, 14, 632, 0
GPS, 3, 543639600, 11, 1.47, -33.7840450, 151.0682363, 0.95, 94.83, 0.58, 148.49
ATT, -16.97, -5.11, 0.00, -0.62, 0.00, 56.76, 58.18
CTUN, 630, 0.00, 0.93, 0.000000, 0.00, 2, 22, 633, 0
ATT, -17.09, -9.63, 0.00, -0.18, 0.00, 56.68, 58.18
CTUN, 631, 0.00, 0.85, 0.000000, 0.00, 7, 28, 638, 0
GPS, 3, 543639800, 11, 1.47, -33.7840455, 151.0682372, 0.99, 94.88, 0.58, 144.87
ATT, -16.74, -11.73, 0.00, -0.40, 0.00, 56.47, 58.18
CTUN, 630, 0.00, 0.92, 0.000000, 0.00, 10, 36, 640, 0
ATT, -16.74, -13.28, 0.00, -0.29, 0.00, 56.20, 58.18
CTUN, 629, 0.00, 1.02, 0.000000, 0.00, 13, 41, 643, 0
GPS, 3, 543640000, 11, 1.47, -33.7840454, 151.0682377, 1.06, 95.00, 0.27, 144.87
CTUN, 630, 0.00, 1.10, 0.000000, 0.00, 14, 49, 644, 0
ATT, -14.76, -13.84, 0.00, -0.40, 0.00, 55.83, 58.18
DU32, 7, 82041
CURR, 630, 151879, 1147, 1703, 4732, 118.6073
CTUN, 630, 0.00, 1.12, 0.000000, 0.00, 13, 55, 643, 0
ATT, -13.83, -13.12, 0.00, -0.50, 0.00, 55.52, 58.18
GPS, 3, 543640200, 11, 1.47, -33.7840453, 151.0682378, 1.17, 95.05, 0.02, 144.87
CTUN, 630, 0.00, 0.97, 0.000000, 0.00, 12, 62, 642, 0
ATT, -13.83, -12.52, 0.00, -0.42, 0.00, 55.19, 58.18
CTUN, 623, 0.00, 1.20, 0.000000, 0.00, 11, 68, 642, 0
ATT, -13.83, -12.27, 0.00, -0.23, 0.00, 54.86, 58.18
GPS, 3, 543640400, 11, 1.47, -33.7840444, 151.0682373, 1.28, 95.19, 0.43, 144.87
CTUN, 589, 0.00, 1.26, 0.000000, 0.00, 11, 73, 614, 0
ATT, -13.83, -12.24, 0.00, -0.38, 0.00, 54.45, 58.18
CTUN, 577, 0.00, 1.28, 0.000000, 0.00, 10, 76, 587, 0
GPS, 3, 543640600, 11, 1.47, -33.7840430, 151.0682362, 1.42, 95.32, 0.81, 270.80
ATT, -12.32, -12.03, 0.00, -0.94, 0.00, 54.14, 58.18
CTUN, 580, 0.00, 1.38, 0.000000, 0.00, 10, 71, 590, 0
ATT, -5.93, -11.31, 0.00, -1.12, 0.00, 54.04, 58.18
CTUN, 577, 0.00, 1.33, 0.000000, 0.00, 8, 67, 585, 0
GPS, 3, 543640800, 11, 1.47, -33.7840412, 151.0682349, 1.55, 95.43, 1.11, 302.64
ATT, 0.00, -7.92, 0.00, -1.14, 0.00, 54.14, 58.18
CTUN, 577, 0.00, 1.51, 0.000000, 0.00, 4, 63, 581, 0
ATT, 0.00, -4.17, 0.00, -0.59, 0.00, 54.32, 58.18
CTUN, 577, 0.00, 1.61, 0.000000, 0.00, 1, 60, 578, 0
GPS, 3, 543641000, 11, 1.47, -33.7840395, 151.0682329, 1.65, 95.65, 1.21, 310.79
CTUN, 578, 0.00, 1.70, 0.000000, 0.00, 0, 56, 578, 0
ATT, 0.00, -1.62, 0.00, -0.12, 0.00, 54.78, 58.18
CTUN, 577, 0.00, 1.79, 0.000000, 0.00, 0, 52, 577, 0
ATT, 0.00, -0.64, 0.00, -0.16, 0.00, 55.27, 58.18
DU32, 7, 82041
CURR, 577, 157915, 1156, 1401, 4772, 123.4130
GPS, 3, 543641200, 12, 1.45, -33.7840375, 151.0682308, 1.77, 95.70, 1.51, 318.91
CTUN, 577, 0.00, 1.73, 0.000000, 0.00, 0, 48, 577, 0
ATT, 0.00, -0.07, 0.00, -0.15, 0.00, 55.74, 58.18
CTUN, 577, 0.00, 1.81, 0.000000, 0.00, 0, 44, 577, 0
ATT, 0.00, 0.20, 0.00, -0.27, 0.00, 56.04, 58.18
GPS, 3, 543641400, 12, 1.45, -33.7840359, 151.0682288, 1.86, 95.70, 1.30, 319.51
CTUN, 577, 0.00, 1.80, 0.000000, 0.00, 0, 42, 580, 0
ATT, 0.00, 0.11, 0.00, -0.18, 0.00, 56.25, 58.18
CTUN, 577, 0.00, 1.87, 0.000000, 0.00, 0, 37, 577, 0
ATT, 0.00, 0.09, 0.00, -0.25, 0.00, 56.29, 58.18
GPS, 3, 543641600, 12, 1.45, -33.7840342, 151.0682269, 1.93, 95.72, 1.33, 321.71
CTUN, 577, 0.00, 1.92, 0.000000, 0.00, 0, 33, 577, 0
ATT, 0.00, -0.06, 0.00, -0.01, 0.00, 56.29, 58.18
CTUN, 580, 0.00, 1.85, 0.000000, 0.00, 0, 30, 578, 0
GPS, 3, 543641800, 11, 1.47, -33.7840327, 151.0682251, 1.98, 95.77, 1.17, 320.94
ATT, 0.00, -0.45, 0.00, -0.10, 0.00, 56.30, 58.18
CTUN, 577, 0.00, 2.05, 0.000000, 0.00, 0, 26, 577, 0
ATT, 0.00, -0.42, 0.00, -0.34, 0.00, 56.25, 58.18
CTUN, 577, 0.00, 1.96, 0.000000, 0.00, 0, 23, 577, 0
GPS, 3, 543642000, 11, 1.47, -33.7840314, 151.0682234, 2.03, 95.83, 1.04, 318.29
ATT, 0.00, -0.07, 0.00, -0.43, 0.00, 56.15, 58.18
CTUN, 577, 0.00, 2.06, 0.000000, 0.00, 0, 19, 577, 0
ATT, 0.00, 0.06, 0.00, -0.59, 0.00, 56.01, 58.18
CTUN, 580, 0.00, 2.06, 0.000000, 0.00, 0, 16, 578, 0
GPS, 3, 543642200, 12, 1.45, -33.7840300, 151.0682221, 2.07, 95.95, 0.89, 319.44
ATT, 0.00, -0.02, 0.00, -0.59, 0.00, 55.93, 58.18
DU32, 7, 82041
CURR, 577, 163694, 1150, 1406, 4752, 127.6324
CTUN, 577, 0.00, 2.11, 0.000000, 0.00, 0, 11, 577, 0
ATT, 0.00, 0.10, 0.00, -0.42, 0.00, 55.90, 58.18
CTUN, 577, 0.00, 2.08, 0.000000, 0.00, 0, 10, 577, 0
GPS, 3, 543642400, 12, 1.45, -33.7840291, 151.0682207, 2.09, 95.91, 0.82, 317.33
CTUN, 577, 0.00, 2.15, 0.000000, 0.00, 0, 7, 577, 0
ATT, 0.00, -0.29, 0.00, -0.11, 0.00, 55.95, 58.18
CTUN, 583, 0.00, 2.13, 0.000000, 0.00, 0, 4, 581, 0
ATT, 0.00, -0.22, 0.00, -0.08, 0.00, 56.01, 58.18
GPS, 3, 543642600, 12, 1.45, -33.7840281, 151.0682196, 2.10, 95.96, 0.67, 316.99
CTUN, 584, 0.00, 2.16, 0.000000, 0.00, 0, 2, 584, 0
ATT, 0.00, -0.47, 0.00, 0.22, 0.00, 56.11, 58.18
CTUN, 584, 0.00, 2.18, 0.000000, 0.00, 0, 0, 584, 0
ATT, 0.00, -0.44, 0.00, 0.15, 0.00, 56.12, 58.18
GPS, 3, 543642800, 11, 1.47, -33.7840270, 151.0682185, 2.11, 96.04, 0.70, 316.62
CTUN, 584, 0.00, 2.09, 0.000000, 0.00, 0, -1, 584, 0
ATT, 0.00, -0.51, 0.00, 0.02, 0.00, 56.13, 58.18
CTUN, 584, 0.00, 2.12, 0.000000, 0.00, 0, -1, 584, 0
ATT, 0.00, -0.80, 0.00, -0.01, 0.00, 56.24, 58.18
GPS, 3, 543643000, 11, 1.47, -33.7840262, 151.0682176, 2.11, 96.14, 0.58, 314.87
CTUN, 586, 0.00, 2.23, 0.000000, 0.00, 0, -3, 586, 0
ATT, 0.00, -1.00, 0.00, -0.15, 0.00, 56.39, 58.18
CTUN, 588, 0.00, 2.10, 0.000000, 0.00, 0, -5, 588, 0
GPS, 3, 543643200, 11, 1.47, -33.7840253, 151.0682168, 2.11, 96.30, 0.52, 315.52
ATT, 0.00, -0.97, 0.00, -0.15, 0.00, 56.53, 58.18
CTUN, 587, 0.00, 2.08, 0.000000, 0.00, 0, -5, 587, 0
DU32, 7, 82041
CURR, 587, 169526, 1151, 1438, 4732, 131.9003
ATT, 0.00, -1.11, 0.00, 0.03, 0.00, 56.64, 58.18
CTUN, 587, 0.00, 2.14, 0.000000, 0.00, 0, -6, 587, 0
GPS, 3, 543643400, 11, 1.47, -33.7840246, 151.0682162, 2.10, 96.40, 0.44, 318.06
ATT, 0.00, -0.98, 0.00, 0.14, 0.00, 56.68, 58.18
CTUN, 587, 0.00, 2.17, 0.000000, 0.00, 0, -6, 587, 0
ATT, 0.00, -0.79, 0.00, 0.21, 0.00, 56.68, 58.18
CTUN, 589, 0.00, 2.11, 0.000000, 0.00, 0, -6, 589, 0
GPS, 3, 543643600, 12, 1.45, -33.7840239, 151.0682154, 2.09, 96.54, 0.45, 314.29
ATT, 0.00, -0.71, 0.00, 0.17, 3.36, 56.67, 58.87
CTUN, 587, 0.00, 2.12, 0.000000, 0.00, 0, -7, 587, 0
ATT, 0.00, -0.42, 0.00, 0.27, 6.24, 57.49, 61.82
CTUN, 587, 0.00, 2.16, 0.000000, 0.00, 0, -5, 587, 0
GPS, 3, 543643800, 12, 1.45, -33.7840234, 151.0682149, 2.08, 96.60, 0.35, 314.29
CTUN, 589, 0.00, 2.15, 0.000000, 0.00, 0, -4, 589, 0
ATT, 0.00, -0.23, 0.00, 0.24, 2.88, 59.58, 63.58
CTUN, 587, 0.00, 2.13, 0.000000, 0.00, 0, -5, 587, 0
ATT, 0.00, -0.84, 0.00, -0.60, 6.60, 61.33, 66.01
GPS, 3, 543644000, 12, 1.45, -33.7840231, 151.0682143, 2.08, 96.68, 0.27, 314.29
CTUN, 589, 0.00, 2.14, 0.000000, 0.00, 0, -4, 589, 0
ATT, 0.00, -0.69, 0.00, -0.65, 0.00, 63.93, 66.89
CTUN, 587, 0.00, 2.08, 0.000000, 0.00, 0, -4, 587, 0
ATT, 0.00, -1.12, 0.00, -0.97, 0.00, 65.15, 66.89
GPS, 3, 543644200, 12, 1.45, -33.7840230, 151.0682136, 2.08, 96.73, 0.31, 314.29
