dump 5

ArduCopter V3.1-rc2
Free RAM: 1141
APM 2
FMT, 128, 89, FMT, BBnNZ, Type,Length,Name,Format
FMT, 129, 23, PARM, Nf, Name,Value
FMT, 130, 35, GPS, BIBcLLeeEe, Status,Time,NSats,HDop,Lat,Lng,RelAlt,Alt,Spd,GCrs
FMT, 131, 27, IMU, ffffff, GyrX,GyrY,GyrZ,AccX,AccY,AccZ
FMT, 132, 67, MSG, Z, Message
FMT, 9, 19, CURR, hIhhhf, Thr,ThrInt,Volt,Curr,Vcc,CurrTot
FMT, 11, 11, MOT, hhhh, Mot1,Mot2,Mot3,Mot4
FMT, 12, 28, OF, hhBccffee, Dx,Dy,SQual,X,Y,Lat,Lng,Roll,Pitch
FMT, 5, 49, NTUN, Ecffffffffee, WPDst,WPBrg,PErX,PErY,DVelX,DVelY,VelX,VelY,DAcX,DAcY,DRol,DPit
FMT, 4, 25, CTUN, hcefchhhh, ThrIn,SonAlt,BarAlt,WPAlt,DesSonAlt,AngBst,CRate,ThrOut,DCRate
FMT, 15, 21, MAG, hhhhhhhhh, MagX,MagY,MagZ,OfsX,OfsY,OfsZ,MOfsX,MOfsY,MOfsZ
FMT, 6, 17, PM, BBBHHIhB, RenCnt,RenBlw,FixCnt,NLon,NLoop,MaxT,PMT,I2CErr
FMT, 8, 20, CMD, BBBBBeLL, CTot,CNum,CId,COpt,Prm1,Alt,Lat,Lng
FMT, 1, 17, ATT, cccccCC, RollIn,Roll,PitchIn,Pitch,YawIn,Yaw,NavYaw
FMT, 17, 37, INAV, cccfffiiff, BAlt,IAlt,IClb,ACorrX,ACorrY,ACorrZ,GLat,GLng,ILat,ILng
FMT, 3, 6, MODE, Mh, Mode,ThrCrs
FMT, 10, 3, STRT, , 
FMT, 13, 4, EV, B, Id
FMT, 20, 6, D16, Bh, Id,Value
FMT, 21, 6, DU16, BH, Id,Value
FMT, 22, 8, D32, Bi, Id,Value
FMT, 23, 8, DU32, BI, Id,Value
FMT, 24, 8, DFLT, Bf, Id,Value
FMT, 14, 28, PID, Biiiiif, Id,Error,P,I,D,Out,Gain
FMT, 16, 15, DMP, ccccCC, DCMRoll,DMPRoll,DCMPtch,DMPPtch,DCMYaw,DMPYaw
FMT, 18, 25, CAM, ILLeccC, GPSTime,Lat,Lng,Alt,Roll,Pitch,Yaw
FMT, 19, 5, ERR, BB, Subsys,ECode
D32, 9, 7398
CMD, 6, 0, 16, 0, 0, 0.00, -33.7840502, 151.0681650
EV, 10
GPS, 3, 460835600, 9, 1.76, -33.7840501, 151.0681651, -0.26, 90.68, 0.01, 138.90
ATT, 0.00, -0.83, 0.00, 1.04, 0.00, 74.03, 74.03
CTUN, 0, 0.00, 0.03, 0.000000, 0.00, 0, -8, 0, 0
GPS, 3, 460843000, 8, 1.85, -33.7840468, 151.0681647, -0.25, 89.14, 0.04, 138.90
ATT, 0.00, -0.99, 0.00, 0.94, 0.00, 73.99, 73.99
CTUN, 0, 0.00, 0.04, 0.000000, 0.00, 0, -7, 0, 0
ATT, 0.00, -0.99, 0.00, 0.94, 0.00, 73.97, 73.97
CTUN, 0, 0.00, 0.04, 0.000000, 0.00, 0, -7, 0, 0
DU32, 7, 98393
CURR, 0, 0, 1220, 76, 4732, 0.985300
GPS, 3, 460843200, 8, 1.85, -33.7840467, 151.0681646, -0.23, 89.13, 0.03, 138.90
ATT, 0.00, -0.95, 0.00, 0.95, 0.00, 73.93, 73.93
CTUN, 0, 0.00, 0.00, 0.000000, 0.00, 0, -7, 0, 0
ATT, 0.00, -0.97, 0.00, 0.96, 0.00, 73.93, 73.93
CTUN, 0, 0.00, 0.04, 0.000000, 0.00, 0, -7, 0, 0
GPS, 3, 460843400, 8, 1.85, -33.7840466, 151.0681646, -0.21, 89.11, 0.03, 138.90
ATT, 0.00, -0.98, 0.00, 0.98, 0.00, 73.91, 73.91
CTUN, 0, 0.00, -0.06, 0.000000, 0.00, 0, -6, 0, 0
ATT, 0.00, -0.97, 0.00, 0.98, 0.00, 73.90, 73.90
CTUN, 0, 0.00, 0.01, 0.000000, 0.00, 0, -6, 0, 0
GPS, 3, 460843600, 8, 1.85, -33.7840465, 151.0681645, -0.20, 89.12, 0.02, 138.90
ATT, 0.00, -0.95, 0.00, 0.98, 0.00, 73.88, 73.88
CTUN, 0, 0.00, 0.04, 0.000000, 0.00, 0, -6, 0, 0
ATT, 0.00, -0.96, 0.00, 0.98, 0.00, 73.87, 73.87
CTUN, 0, 0.00, 0.03, 0.000000, 0.00, 0, -6, 0, 0
GPS, 3, 460843800, 8, 1.85, -33.7840463, 151.0681645, -0.19, 89.12, 0.01, 138.90
ATT, 0.00, -0.97, 0.00, 0.98, 0.00, 73.86, 73.86
CTUN, 0, 0.00, 0.04, 0.000000, 0.00, 0, -6, 0, 0
ATT, 0.00, -0.97, 0.00, 0.99, 0.00, 73.84, 73.84
CTUN, 0, 0.00, 0.00, 0.000000, 0.00, 0, -6, 0, 0
GPS, 3, 460844000, 8, 1.85, -33.7840462, 151.0681644, -0.17, 89.11, 0.02, 138.90
ATT, 0.00, -0.96, 0.00, 0.99, 0.00, 73.84, 73.84
CTUN, 0, 0.00, 0.04, 0.000000, 0.00, 0, -5, 0, 0
ATT, 0.00, -0.96, 0.00, 1.00, 0.00, 73.83, 73.83
CTUN, 0, 0.00, 0.01, 0.000000, 0.00, 0, -5, 0, 0
DU32, 7, 98393
CURR, 0, 0, 1218, 64, 4772, 1.176268
GPS, 3, 460844200, 8, 1.85, -33.7840460, 151.0681643, -0.16, 89.11, 0.01, 138.90
ATT, 0.00, -0.97, 0.00, 1.01, 0.00, 73.81, 73.81
CTUN, 0, 0.00, -0.05, 0.000000, 0.00, 0, -5, 0, 0
ATT, 0.00, -0.96, 0.00, 1.00, 0.00, 73.79, 73.79
CTUN, 0, 0.00, 0.02, 0.000000, 0.00, 0, -5, 0, 0
GPS, 3, 460844400, 8, 1.85, -33.7840459, 151.0681642, -0.15, 89.10, 0.01, 138.90
ATT, 0.00, -0.95, 0.00, 1.00, 0.00, 73.79, 73.79
CTUN, 0, 0.00, 0.01, 0.000000, 0.00, 0, -5, 0, 0
ATT, 0.00, -0.96, 0.00, 1.01, 0.00, 73.77, 73.77
CTUN, 0, 0.00, -0.05, 0.000000, 0.00, 0, -5, 0, 0
GPS, 3, 460844600, 8, 1.85, -33.7840458, 151.0681641, -0.15, 89.11, 0.01, 138.90
ATT, 0.00, -0.97, 0.00, 1.02, 0.00, 73.77, 73.77
CTUN, 0, 0.00, -0.04, 0.000000, 0.00, 0, -5, 0, 0
ATT, 0.00, -0.96, 0.00, 1.02, 0.00, 73.76, 73.76
CTUN, 0, 0.00, -0.02, 0.000000, 0.00, 0, -5, 0, 0
GPS, 3, 460844800, 8, 1.85, -33.7840456, 151.0681640, -0.14, 89.11, 0.00, 138.90
ATT, 0.00, -0.97, 0.00, 1.03, 0.00, 73.74, 73.74
CTUN, 0, 0.00, 0.00, 0.000000, 0.00, 0, -4, 0, 0
ATT, 0.00, -0.97, 0.00, 1.03, 0.00, 73.72, 73.72
CTUN, 0, 0.00, -0.02, 0.000000, 0.00, 0, -4, 0, 0
GPS, 3, 460845000, 8, 1.85, -33.7840455, 151.0681639, -0.14, 89.11, 0.03, 138.90
ATT, 0.00, -0.97, 0.00, 1.03, 0.00, 73.73, 73.73
CTUN, 0, 0.00, -0.02, 0.000000, 0.00, 0, -4, 0, 0
ATT, 0.00, -0.97, 0.00, 1.04, 0.00, 73.71, 73.71
CTUN, 0, 0.00, 0.01, 0.000000, 0.00, 0, -4, 0, 0
DU32, 7, 98393
CURR, 0, 0, 1221, 66, 4793, 1.362654
GPS, 3, 460845200, 8, 1.85, -33.7840453, 151.0681640, -0.13, 89.10, 0.02, 138.90
ATT, 0.00, -0.97, 0.00, 1.05, 0.00, 73.70, 73.70
CTUN, 0, 0.00, 0.00, 0.000000, 0.00, 0, -4, 0, 0
ATT, 0.00, -0.97, 0.00, 1.04, 0.00, 73.69, 73.69
CTUN, 0, 0.00, 0.05, 0.000000, 0.00, 0, -4, 0, 0
GPS, 3, 460845400, 8, 1.85, -33.7840452, 151.0681639, -0.12, 89.12, 0.01, 138.90
ATT, 0.00, -0.97, 0.00, 1.03, 0.00, 73.70, 73.70
CTUN, 0, 0.00, 0.01, 0.000000, 0.00, 0, -4, 0, 0
ATT, 0.00, -0.96, 0.00, 1.04, 0.00, 73.68, 73.68
CTUN, 0, 0.00, -0.02, 0.000000, 0.00, 0, -4, 0, 0
MODE, ALT_HOLD, 625
GPS, 3, 460845600, 8, 1.85, -33.7840451, 151.0681638, -0.11, 89.12, 0.00, 138.90
ATT, 0.00, -0.96, 0.00, 1.05, 0.00, 73.67, 73.67
CTUN, 0, 0.00, 0.02, 0.000000, 0.00, 0, -3, 0, 0
ATT, 0.00, -0.96, 0.00, 1.05, 0.00, 73.66, 73.66
CTUN, 0, 0.00, 0.01, 0.000000, 0.00, 0, -3, 0, 0
GPS, 3, 460845800, 8, 1.85, -33.7840450, 151.0681638, -0.11, 89.12, 0.02, 138.90
ATT, 0.00, -0.96, 0.00, 1.04, 0.00, 73.66, 73.66
CTUN, 0, 0.00, -0.09, 0.000000, 0.00, 0, -3, 0, 0
ATT, 0.00, -0.95, 0.00, 1.06, 0.00, 73.65, 73.65
CTUN, 0, 0.00, 0.00, 0.000000, 0.00, 0, -3, 0, 0
GPS, 3, 460846000, 8, 1.85, -33.7840449, 151.0681637, -0.11, 89.14, 0.01, 138.90
ATT, 0.00, -0.95, 0.00, 1.05, 0.00, 73.64, 73.64
CTUN, 0, 0.00, -0.02, 0.000000, 0.00, 0, -3, 0, 0
ATT, 0.00, -0.95, 0.00, 1.05, 0.00, 73.63, 73.63
CTUN, 0, 0.00, 0.00, 0.000000, 0.00, 0, -3, 0, 0
DU32, 7, 98393
CURR, 0, 0, 1220, 73, 4752, 1.552696
PM, 0, 0, 50, 6, 1002, 7318508, 0, 4
GPS, 3, 460846200, 8, 1.85, -33.7840447, 151.0681636, -0.10, 89.15, 0.02, 138.90
ATT, 0.00, -0.95, 0.00, 1.06, 0.00, 73.62, 73.62
CTUN, 0, 0.00, -0.04, 0.000000, 0.00, 0, -3, 0, 0
ATT, 0.00, -0.96, 0.00, 1.06, 0.00, 73.61, 73.61
CTUN, 0, 0.00, -0.06, 0.000000, 0.00, 0, -3, 0, 0
GPS, 3, 460846400, 8, 1.85, -33.7840446, 151.0681635, -0.10, 89.17, 0.01, 138.90
ATT, 0.00, -0.97, 0.00, 1.06, 0.00, 73.60, 73.60
CTUN, 0, 0.00, 0.09, 0.000000, 0.00, 0, -3, 0, 0
ATT, 0.00, -0.96, 0.00, 1.06, 0.00, 73.58, 73.58
CTUN, 0, 0.00, 0.00, 0.000000, 0.00, 0, -3, 0, 0
GPS, 3, 460846600, 8, 1.85, -33.7840445, 151.0681633, -0.09, 89.18, 0.01, 138.90
ATT, 0.00, -0.95, 0.00, 1.07, 0.00, 73.58, 73.58
CTUN, 0, 0.00, -0.10, 0.000000, 0.00, 0, -3, 0, 0
ATT, 0.00, -0.96, 0.00, 1.07, 0.00, 73.56, 73.56
CTUN, 0, 0.00, -0.05, 0.000000, 0.00, 0, -3, 0, 0
GPS, 3, 460846800, 8, 1.85, -33.7840444, 151.0681632, -0.10, 89.20, 0.01, 138.90
ATT, 0.00, -0.96, 0.00, 1.07, 0.00, 73.55, 73.55
CTUN, 0, 0.00, 0.00, 0.000000, 0.00, 0, -3, 0, 0
ATT, 0.00, -0.95, 0.00, 1.07, 0.00, 73.54, 73.54
CTUN, 0, 0.00, 0.00, 0.000000, 0.00, 0, -3, 0, 0
GPS, 3, 460847000, 8, 1.85, -33.7840442, 151.0681631, -0.09, 89.23, 0.01, 138.90
ATT, 0.00, -0.94, 0.00, 1.08, 0.00, 73.53, 73.53
CTUN, 0, 0.00, -0.09, 0.000000, 0.00, 0, -3, 0, 0
ATT, 0.00, -0.95, 0.00, 1.08, 0.00, 73.52, 73.52
CTUN, 0, 0.00, 0.00, 0.000000, 0.00, 0, -3, 0, 0
DU32, 7, 98393
CURR, 0, 0, 1218, 64, 4813, 1.737723
GPS, 3, 460847200, 8, 1.85, -33.7840441, 151.0681630, -0.09, 89.25, 0.03, 138.90
ATT, 0.00, -0.95, 0.00, 1.07, 0.00, 73.51, 73.51
CTUN, 0, 0.00, 0.02, 0.000000, 0.00, 0, -3, 0, 0
ATT, 0.00, -0.95, 0.00, 1.08, 0.00, 73.50, 73.50
CTUN, 0, 0.00, -0.08, 0.000000, 0.00, 0, -3, 0, 0
GPS, 3, 460847400, 8, 1.86, -33.7840440, 151.0681629, -0.09, 89.28, 0.04, 138.90
ATT, 0.00, -0.94, 0.00, 1.09, 0.00, 73.48, 73.48
CTUN, 0, 0.00, 0.00, 0.000000, 0.00, 0, -3, 0, 0
ATT, 0.00, -0.93, 0.00, 1.09, 0.00, 73.48, 73.48
CTUN, 0, 0.00, -0.09, 0.000000, 0.00, 0, -3, 0, 0
GPS, 3, 460847600, 8, 1.86, -33.7840438, 151.0681627, -0.09, 89.31, 0.03, 138.90
ATT, 0.00, -0.91, 0.00, 1.09, 0.00, 73.47, 73.47
CTUN, 0, 0.00, 0.04, 0.000000, 0.00, 0, -2, 0, 0
ATT, 0.00, -0.92, 0.00, 1.09, 0.00, 73.46, 73.46
CTUN, 0, 0.00, -0.08, 0.000000, 0.00, 0, -2, 0, 0
GPS, 3, 460847800, 8, 1.86, -33.7840437, 151.0681626, -0.09, 89.34, 0.03, 138.90
ATT, 0.00, -0.94, 0.00, 1.10, 0.00, 73.45, 73.45
CTUN, 0, 0.00, -0.03, 0.000000, 0.00, 0, -2, 0, 0
MODE, STABILIZE, 625
ATT, 0.00, -0.93, 0.00, 1.10, 0.00, 73.44, 73.44
CTUN, 0, 0.00, -0.04, 0.000000, 0.00, 0, -2, 0, 0
GPS, 3, 460848000, 8, 1.86, -33.7840436, 151.0681625, -0.09, 89.37, 0.01, 138.90
ATT, 0.00, -0.91, 0.00, 1.10, 0.00, 73.43, 73.43
CTUN, 0, 0.00, 0.10, 0.000000, 0.00, 0, -2, 0, 0
ATT, 0.00, -0.92, 0.00, 1.10, 0.00, 73.43, 73.43
CTUN, 0, 0.00, -0.02, 0.000000, 0.00, 0, -2, 0, 0
DU32, 7, 98393
CURR, 0, 0, 1224, 65, 4752, 1.930670
ATT, 0.00, -0.93, 0.00, 1.10, 0.00, 73.42, 73.42
GPS, 3, 460848200, 8, 1.86, -33.7840436, 151.0681625, -0.08, 89.39, 0.03, 138.90
CTUN, 0, 0.00, -0.05, 0.000000, 0.00, 0, -2, 0, 0
ATT, 0.00, -0.92, 0.00, 1.10, 0.00, 73.41, 73.41
CTUN, 0, 0.00, 0.02, 0.000000, 0.00, 0, -2, 0, 0
GPS, 3, 460848400, 8, 1.86, -33.7840435, 151.0681624, -0.07, 89.42, 0.01, 138.90
ATT, 0.00, -0.92, 0.00, 1.11, 0.00, 73.40, 73.40
CTUN, 0, 0.00, 0.05, 0.000000, 0.00, 0, -2, 0, 0
ATT, 0.00, -0.92, 0.00, 1.11, 0.00, 73.39, 73.39
CTUN, 0, 0.00, -0.02, 0.000000, 0.00, 0, -2, 0, 0
GPS, 3, 460848600, 8, 1.86, -33.7840434, 151.0681623, -0.07, 89.46, 0.01, 138.90
CTUN, 0, 0.00, -0.04, 0.000000, 0.00, 0, -2, 0, 0
ATT, 0.00, -0.91, 0.00, 1.10, 0.00, 73.38, 73.38
CTUN, 0, 0.00, -0.02, 0.000000, 0.00, 0, -2, 0, 0
ATT, 0.00, -0.91, 0.00, 1.10, 0.00, 73.37, 73.37
GPS, 3, 460848800, 8, 1.86, -33.7840433, 151.0681622, -0.07, 89.50, 0.01, 138.90
CTUN, 0, 0.00, -0.02, 0.000000, 0.00, 0, -2, 0, 0
ATT, 0.00, -0.91, 0.00, 1.10, 0.00, 73.35, 73.35
CTUN, 0, 0.00, 0.05, 0.000000, 0.00, 0, -2, 0, 0
ATT, 0.00, -0.92, 0.00, 1.10, 0.00, 73.34, 73.34
GPS, 3, 460849000, 8, 1.86, -33.7840432, 151.0681620, -0.06, 89.54, 0.02, 138.90
CTUN, 0, 0.00, 0.01, 0.000000, 0.00, 0, -2, 0, 0
ATT, 0.00, -0.92, 0.00, 1.10, 0.00, 73.33, 73.33
CTUN, 0, 0.00, 0.13, 0.000000, 0.00, 0, -2, 0, 0
ATT, 0.00, -0.91, 0.00, 1.11, 0.00, 73.32, 73.32
GPS, 3, 460849200, 8, 1.86, -33.7840431, 151.0681619, -0.05, 89.57, 0.01, 138.90
CTUN, 0, 0.00, -0.11, 0.000000, 0.00, 0, -2, 0, 0
ATT, 0.00, -0.91, 0.00, 1.11, 0.00, 73.31, 73.31
DU32, 7, 98393
CURR, 0, 0, 1220, 61, 4712, 2.118332
CTUN, 0, 0.00, 0.06, 0.000000, 0.00, 0, -2, 0, 0
ATT, 0.00, -0.92, 0.00, 1.11, 0.00, 73.30, 73.30
GPS, 3, 460849400, 8, 1.86, -33.7840430, 151.0681618, -0.05, 89.61, 0.02, 138.90
CTUN, 0, 0.00, -0.07, 0.000000, 0.00, 0, -2, 0, 0
ATT, 0.00, -0.92, 0.00, 1.11, 0.00, 73.29, 73.29
CTUN, 0, 0.00, -0.01, 0.000000, 0.00, 0, -2, 0, 0
ATT, 0.00, -0.91, 0.00, 1.11, 0.00, 73.28, 73.28
GPS, 3, 460849600, 8, 1.86, -33.7840429, 151.0681617, -0.05, 89.66, 0.02, 138.90
CTUN, 0, 0.00, 0.00, 0.000000, 0.00, 0, -1, 0, 0
ATT, 0.00, -0.91, 0.00, 1.11, 0.00, 73.27, 73.27
CTUN, 0, 0.00, 0.06, 0.000000, 0.00, 0, -2, 0, 0
ATT, 0.00, -0.91, 0.00, 1.11, 0.00, 73.26, 73.26
GPS, 3, 460849800, 8, 1.86, -33.7840428, 151.0681616, -0.05, 89.70, 0.01, 138.90
CTUN, 0, 0.00, -0.07, 0.000000, 0.00, 0, -1, 0, 0
ATT, 0.00, -0.91, 0.00, 1.12, 0.00, 73.25, 73.25
CTUN, 0, 0.00, -0.06, 0.000000, 0.00, 0, -1, 0, 0
ATT, 0.00, -0.91, 0.00, 1.13, 0.00, 73.24, 73.24
GPS, 3, 460850000, 8, 1.86, -33.7840428, 151.0681615, -0.05, 89.74, 0.02, 138.90
CTUN, 0, 0.00, -0.03, 0.000000, 0.00, 0, -1, 0, 0
ATT, 0.00, -0.91, 0.00, 1.12, 0.00, 73.24, 73.24
CTUN, 0, 0.00, -0.03, 0.000000, 0.00, 0, -1, 0, 0
ATT, 0.00, -0.91, 0.00, 1.11, 0.00, 73.23, 73.23
GPS, 3, 460850200, 8, 1.86, -33.7840426, 151.0681614, -0.05, 89.79, 0.02, 138.90
CTUN, 0, 0.00, -0.09, 0.000000, 0.00, 0, -1, 0, 0
DU32, 7, 98393
CURR, 0, 0, 1220, 60, 4772, 2.309869
ATT, 0.00, -0.91, 0.00, 1.12, 0.00, 73.23, 73.23
CTUN, 0, 0.00, -0.03, 0.000000, 0.00, 0, -1, 0, 0
ATT, 0.00, -0.92, 0.00, 1.12, 0.00, 73.22, 73.22
GPS, 3, 460850400, 8, 1.86, -33.7840425, 151.0681614, -0.06, 89.84, 0.02, 138.90
CTUN, 0, 0.00, -0.04, 0.000000, 0.00, 0, -1, 0, 0
ATT, 0.00, -0.92, 0.00, 1.13, 0.00, 73.21, 73.21
CTUN, 0, 0.00, 0.00, 0.000000, 0.00, 0, -1, 0, 0
ATT, 0.00, -0.92, 0.00, 1.14, 0.00, 73.21, 73.21
GPS, 3, 460850600, 8, 1.86, -33.7840424, 151.0681613, -0.06, 89.89, 0.02, 138.90
CTUN, 0, 0.00, 0.02, 0.000000, 0.00, 0, -1, 0, 0
ATT, 0.00, -0.92, 0.00, 1.14, 0.00, 73.20, 73.20
CTUN, 0, 0.00, -0.10, 0.000000, 0.00, 0, -1, 0, 0
ATT, 0.00, -0.90, 0.00, 1.14, 0.00, 73.19, 73.19
GPS, 3, 460850800, 8, 1.86, -33.7840421, 151.0681611, -0.05, 89.93, 0.02, 138.90
CTUN, 0, 0.00, -0.07, 0.000000, 0.00, 0, -1, 0, 0
ATT, 0.00, -0.89, 0.00, 1.14, 0.00, 73.19, 73.19
CTUN, 0, 0.00, -0.01, 0.000000, 0.00, 0, -2, 0, 0
ATT, 0.00, -0.92, 0.00, 1.14, 0.00, 73.19, 73.19
GPS, 3, 460851000, 8, 1.86, -33.7840420, 151.0681610, -0.06, 89.98, 0.02, 138.90
CTUN, 0, 0.00, -0.06, 0.000000, 0.00, 0, -2, 0, 0
ATT, 0.00, -0.91, 0.00, 1.14, 0.00, 73.17, 73.17
CTUN, 0, 0.00, 0.02, 0.000000, 0.00, 0, -1, 0, 0
ATT, 0.00, -0.90, 0.00, 1.14, 0.00, 73.16, 73.16
GPS, 3, 460851200, 8, 1.86, -33.7840417, 151.0681608, -0.06, 90.03, 0.01, 138.90
CTUN, 0, 0.00, -0.03, 0.000000, 0.00, 0, -1, 0, 0
DU32, 7, 98393
CURR, 0, 0, 1223, 72, 4752, 2.498015
ATT, 0.00, -0.89, 0.00, 1.14, 0.00, 73.16, 73.16
CTUN, 0, 0.00, -0.05, 0.000000, 0.00, 0, -1, 0, 0
ATT, 0.00, -0.90, 0.00, 1.14, 0.00, 73.15, 73.15
GPS, 3, 460851400, 8, 1.86, -33.7840415, 151.0681605, -0.06, 90.09, 0.02, 138.90
CTUN, 0, 0.00, -0.06, 0.000000, 0.00, 0, -1, 0, 0
ATT, 0.00, -0.91, 0.00, 1.15, 0.00, 73.15, 73.15
CTUN, 0, 0.00, -0.03, 0.000000, 0.00, 0, -1, 0, 0
ATT, 0.00, -0.91, 0.00, 1.15, 0.00, 73.15, 73.15
GPS, 3, 460851600, 8, 1.86, -33.7840414, 151.0681603, -0.06, 90.16, 0.01, 138.90
CTUN, 0, 0.00, 0.00, 0.000000, 0.00, 0, -1, 0, 0
ATT, 0.00, -0.91, 0.00, 1.15, 0.00, 73.12, 73.12
CTUN, 0, 0.00, -0.01, 0.000000, 0.00, 0, -1, 0, 0
ATT, 0.00, -0.90, 0.00, 1.16, 0.00, 73.12, 73.12
GPS, 3, 460851800, 8, 1.86, -33.7840413, 151.0681602, -0.06, 90.20, 0.00, 138.90
CTUN, 0, 0.00, 0.01, 0.000000, 0.00, 0, -1, 0, 0
ATT, 0.00, -0.90, 0.00, 1.15, 0.00, 73.11, 73.11
CTUN, 0, 0.00, -0.08, 0.000000, 0.00, 0, -1, 0, 0
ATT, 0.00, -0.90, 0.00, 1.15, 0.00, 73.10, 73.10
GPS, 3, 460852000, 8, 1.86, -33.7840412, 151.0681600, -0.06, 90.26, 0.00, 138.90
CTUN, 0, 0.00, -0.02, 0.000000, 0.00, 0, -1, 0, 0
ATT, 0.00, -0.89, 0.00, 1.15, 0.00, 73.09, 73.09
CTUN, 0, 0.00, 0.02, 0.000000, 0.00, 0, -1, 0, 0
ATT, 0.00, -0.89, 0.00, 1.15, 0.00, 73.08, 73.08
GPS, 3, 460852200, 8, 1.86, -33.7840411, 151.0681599, -0.06, 90.30, 0.02, 138.90
CTUN, 0, 0.00, -0.02, 0.000000, 0.00, 0, -1, 0, 0
DU32, 7, 98393
CURR, 0, 0, 1216, 67, 4732, 2.685333
ATT, 0.00, -0.89, 0.00, 1.15, 0.00, 73.07, 73.07
CTUN, 0, 0.00, -0.01, 0.000000, 0.00, 0, -1, 0, 0
ATT, 0.00, -0.88, 0.00, 1.15, 0.00, 73.05, 73.05
GPS, 3, 460852400, 8, 1.86, -33.7840410, 151.0681596, -0.05, 90.35, 0.02, 138.90
CTUN, 0, 0.00, 0.00, 0.000000, 0.00, 0, -1, 0, 0
ATT, 0.00, -0.89, 0.00, 1.15, 0.00, 73.05, 73.05
CTUN, 0, 0.00, -0.05, 0.000000, 0.00, 0, -1, 0, 0
ATT, 0.00, -0.90, 0.00, 1.15, 0.00, 73.03, 73.03
GPS, 3, 460852600, 8, 1.86, -33.7840409, 151.0681595, -0.05, 90.40, 0.02, 138.90
CTUN, 0, 0.00, 0.00, 0.000000, 0.00, 0, -1, 0, 0
ATT, 0.00, -0.90, 0.00, 1.16, 0.00, 73.02, 73.02
CTUN, 0, 0.00, -0.04, 0.000000, 0.00, 0, -1, 0, 0
ATT, 0.00, -0.90, 0.00, 1.16, 0.00, 73.01, 73.01
GPS, 3, 460852800, 8, 1.86, -33.7840409, 151.0681593, -0.05, 90.44, 0.03, 138.90
CTUN, 0, 0.00, -0.10, 0.000000, 0.00, 0, -1, 0, 0
ATT, 0.00, -0.89, 0.00, 1.15, 0.00, 72.99, 72.99
CTUN, 0, 0.00, -0.04, 0.000000, 0.00, 0, -1, 0, 0
ATT, 0.00, -0.87, 0.00, 1.15, 0.00, 72.98, 72.98
GPS, 3, 460853000, 8, 1.86, -33.7840407, 151.0681591, -0.06, 90.49, 0.01, 138.90
CTUN, 0, 0.00, 0.00, 0.000000, 0.00, 0, -1, 0, 0
ATT, 0.00, -0.87, 0.00, 1.16, 0.00, 72.98, 72.98
CTUN, 0, 0.00, -0.07, 0.000000, 0.00, 0, -1, 0, 0
ATT, 0.00, -0.88, 0.00, 1.16, 0.00, 72.96, 72.96
GPS, 3, 460853200, 8, 1.86, -33.7840407, 151.0681589, -0.06, 90.55, 0.01, 138.90
CTUN, 0, 0.00, -0.05, 0.000000, 0.00, 0, -1, 0, 0
DU32, 7, 98393
CURR, 0, 0, 1217, 63, 4732, 2.873876
ATT, 0.00, -0.88, 0.00, 1.16, 0.00, 72.96, 72.96
CTUN, 0, 0.00, -0.03, 0.000000, 0.00, 0, -1, 0, 0
ATT, 0.00, -0.88, 0.00, 1.16, 0.00, 72.95, 72.95
GPS, 3, 460853400, 8, 1.86, -33.7840406, 151.0681587, -0.06, 90.60, 0.02, 138.90
CTUN, 0, 0.00, -0.01, 0.000000, 0.00, 0, -1, 0, 0
ATT, 0.00, -0.89, 0.00, 1.17, 0.00, 72.95, 72.95
CTUN, 0, 0.00, 0.10, 0.000000, 0.00, 0, -1, 0, 0
ATT, 0.00, -0.89, 0.00, 1.16, 0.00, 72.93, 72.93
GPS, 3, 460853600, 8, 1.86, -33.7840406, 151.0681585, -0.05, 90.66, 0.01, 138.90
EV, 15
CTUN, 131, 0.00, -0.01, 0.000000, 0.00, 0, -1, 131, 0
ATT, 0.00, -0.88, 0.00, 1.16, 0.00, 72.92, 72.92
EV, 28
CTUN, 192, 0.00, 0.01, 0.000000, 0.00, 0, -1, 182, 0
ATT, 0.00, -0.84, 0.00, 1.17, 0.00, 72.87, 72.92
GPS, 3, 460853800, 8, 1.86, -33.7840405, 151.0681583, -0.05, 90.73, 0.03, 138.90
CTUN, 237, 0.00, 0.05, 0.000000, 0.00, 0, -1, 225, 0
ATT, 0.00, -0.80, 0.00, 1.19, 0.00, 72.83, 72.92
CTUN, 242, 0.00, -0.26, 0.000000, 0.00, 0, -1, 242, 0
ATT, 0.00, -0.75, 0.00, 1.20, 0.00, 72.78, 72.92
GPS, 3, 460854000, 8, 1.86, -33.7840405, 151.0681582, -0.05, 90.79, 0.02, 138.90
CTUN, 243, 0.00, -0.42, 0.000000, 0.00, 0, -1, 242, 0
ATT, 0.00, -0.70, 0.00, 1.21, 0.00, 72.80, 72.92
CTUN, 243, 0.00, -0.55, 0.000000, 0.00, 0, -1, 243, 0
ATT, 0.00, -0.70, 0.00, 1.19, 0.00, 72.78, 72.92
GPS, 3, 460854200, 8, 1.86, -33.7840405, 151.0681580, -0.10, 90.85, 0.02, 138.90
CTUN, 243, 0.00, -0.70, 0.000000, 0.00, 0, -2, 243, 0
DU32, 7, 65657
CURR, 243, 1362, 1193, 407, 4772, 3.609094
ATT, 0.00, -0.70, 0.00, 1.23, 0.00, 72.78, 72.92
CTUN, 243, 0.00, -0.60, 0.000000, 0.00, 0, -3, 243, 0
GPS, 3, 460854400, 8, 1.86, -33.7840404, 151.0681579, -0.17, 90.92, 0.03, 138.90
ATT, 0.00, -0.63, 0.00, 1.21, 0.00, 72.76, 72.92
CTUN, 242, 0.00, -0.74, 0.000000, 0.00, 0, -3, 242, 0
ATT, 0.00, -0.66, 0.00, 1.21, 0.00, 72.74, 72.92
CTUN, 243, 0.00, -0.82, 0.000000, 0.00, 0, -4, 243, 0
GPS, 3, 460854600, 8, 1.86, -33.7840404, 151.0681578, -0.24, 90.96, 0.05, 138.90
ATT, 0.00, -0.63, 0.00, 1.21, 0.00, 72.74, 72.92
CTUN, 243, 0.00, -0.90, 0.000000, 0.00, 0, -5, 242, 0
ATT, 0.00, -0.67, 0.00, 1.20, 0.00, 72.76, 72.92
CTUN, 243, 0.00, -0.93, 0.000000, 0.00, 0, -5, 243, 0
GPS, 3, 460854800, 8, 1.86, -33.7840404, 151.0681576, -0.33, 91.05, 0.02, 138.90
CTUN, 243, 0.00, -0.90, 0.000000, 0.00, 0, -7, 243, 0
ATT, 0.00, -0.68, 0.00, 1.21, 0.00, 72.76, 72.92
CTUN, 242, 0.00, -0.98, 0.000000, 0.00, 0, -7, 243, 0
ATT, 0.00, -0.62, 0.00, 1.20, 0.00, 72.76, 72.92
GPS, 3, 460855000, 8, 1.86, -33.7840404, 151.0681574, -0.42, 91.11, 0.01, 138.90
CTUN, 243, 0.00, -0.68, 0.000000, 0.00, 0, -8, 243, 0
ATT, 0.00, -0.61, 0.00, 1.18, 0.00, 72.76, 72.92
CTUN, 243, 0.00, -0.92, 0.000000, 0.00, 0, -8, 243, 0
ATT, 0.00, -0.63, 0.00, 1.14, 0.00, 72.78, 72.92
GPS, 3, 460855200, 8, 1.86, -33.7840403, 151.0681572, -0.48, 91.16, 0.00, 138.90
CTUN, 242, 0.00, -0.78, 0.000000, 0.00, 0, -9, 242, 0
ATT, 0.00, -0.61, 0.00, 1.12, 0.00, 72.77, 72.92
DU32, 7, 65657
CURR, 243, 3543, 1188, 412, 4752, 4.715661
CTUN, 242, 0.00, -0.78, 0.000000, 0.00, 0, -9, 242, 0
ATT, 0.00, -0.61, 0.00, 1.15, 0.00, 72.73, 72.92
GPS, 3, 460855400, 8, 1.86, -33.7840402, 151.0681570, -0.54, 91.23, 0.02, 138.90
CTUN, 243, 0.00, -0.78, 0.000000, 0.00, 0, -10, 243, 0
ATT, 0.00, -0.62, 0.00, 1.12, 0.00, 72.75, 72.92
CTUN, 243, 0.00, -0.84, 0.000000, 0.00, 0, -10, 242, 0
ATT, 0.00, -0.64, 0.00, 1.15, 0.00, 72.70, 72.92
GPS, 3, 460855600, 9, 1.69, -33.7840402, 151.0681569, -0.59, 91.28, 0.03, 138.90
CTUN, 243, 0.00, -0.84, 0.000000, 0.00, 0, -12, 243, 0
ATT, 0.00, -0.63, 0.00, 1.16, 0.00, 72.74, 72.92
CTUN, 243, 0.00, -0.90, 0.000000, 0.00, 0, -11, 243, 0
GPS, 3, 460855800, 9, 1.69, -33.7840402, 151.0681568, -0.64, 91.34, 0.02, 138.90
ATT, 0.00, -0.62, 0.00, 1.16, 0.00, 72.72, 72.92
CTUN, 242, 0.00, -0.99, 0.000000, 0.00, 0, -12, 242, 0
ATT, 0.00, -0.61, 0.00, 1.18, 0.00, 72.71, 72.92
CTUN, 243, 0.00, -0.76, 0.000000, 0.00, 0, -12, 242, 0
GPS, 3, 460856000, 9, 1.69, -33.7840401, 151.0681567, -0.70, 91.40, 0.03, 138.90
ATT, 0.00, -0.60, 0.00, 1.17, 0.00, 72.71, 72.92
CTUN, 242, 0.00, -0.82, 0.000000, 0.00, 0, -12, 242, 0
ATT, 0.00, -0.61, 0.00, 1.15, 0.00, 72.69, 72.92
CTUN, 242, 0.00, -0.82, 0.000000, 0.00, 0, -13, 242, 0
PM, 0, 0, 50, 1, 1000, 12112, 0, 4
GPS, 3, 460856200, 9, 1.69, -33.7840401, 151.0681566, -0.74, 91.44, 0.05, 138.90
CTUN, 242, 0.00, -0.80, 0.000000, 0.00, 0, -14, 242, 0
ATT, 0.00, -0.61, 0.00, 1.18, 0.00, 72.71, 72.92
DU32, 7, 65657
CURR, 243, 5726, 1190, 402, 4772, 5.806784
CTUN, 284, 0.00, -0.77, 0.000000, 0.00, 0, -14, 284, 0
ATT, 0.00, -0.60, 0.00, 1.16, 0.00, 72.66, 72.92
GPS, 3, 460856400, 9, 1.69, -33.7840401, 151.0681564, -0.77, 91.48, 0.02, 138.90
CTUN, 328, 0.00, -0.76, 0.000000, 0.00, 0, -13, 328, 0
ATT, 0.00, -0.60, 0.00, 1.17, 0.00, 72.64, 72.92
CTUN, 369, 0.00, -1.05, 0.000000, 0.00, 0, -13, 351, 0
EV, 16
ATT, 0.00, -0.58, 0.00, 1.14, 0.00, 72.60, 72.92
GPS, 3, 460856600, 9, 1.69, -33.7840402, 151.0681565, -0.81, 91.51, 0.10, 138.90
CTUN, 378, 0.00, -1.16, 0.000000, 0.00, 0, -13, 378, 0
ATT, 0.00, -0.51, 0.00, 1.13, 0.00, 72.64, 72.92
CTUN, 380, 0.00, -1.42, 0.000000, 0.00, 0, -13, 378, 0
ATT, 0.00, -0.52, 0.00, 1.12, 0.00, 72.63, 72.92
GPS, 3, 460856800, 9, 1.69, -33.7840403, 151.0681564, -0.88, 91.53, 0.12, 138.90
CTUN, 378, 0.00, -1.47, 0.000000, 0.00, 0, -14, 378, 0
ATT, 0.00, -0.51, 0.00, 1.11, 0.00, 72.62, 72.92
CTUN, 378, 0.00, -1.09, 0.000000, 0.00, 0, -15, 378, 0
GPS, 3, 460857000, 9, 1.69, -33.7840406, 151.0681566, -0.97, 91.53, 0.20, 138.90
ATT, 0.00, -0.48, 0.00, 1.12, 0.00, 72.62, 72.92
CTUN, 454, 0.00, -1.25, 0.000000, 0.00, 0, -15, 454, 0
ATT, 0.00, -0.63, 0.00, 0.94, 0.00, 72.44, 72.92
CTUN, 581, 0.00, -1.39, 0.000000, 0.00, 0, -16, 559, 0
GPS, 3, 460857200, 9, 1.77, -33.7840405, 151.0681565, -1.03, 91.56, 0.10, 138.90
CTUN, 620, 0.00, -2.16, 0.000000, 0.00, 0, -11, 620, 0
ATT, 0.00, 0.62, -0.24, 0.91, 0.00, 71.04, 72.92
DU32, 7, 82041
CURR, 649, 9188, 1129, 1275, 4712, 7.783408
CTUN, 657, 0.00, -1.67, 0.000000, 0.00, 0, 3, 649, 0
ATT, 0.00, 1.53, 0.00, -0.28, 0.00, 69.07, 72.92
GPS, 3, 460857400, 8, 1.86, -33.7840405, 151.0681564, -1.12, 91.60, 0.06, 138.90
CTUN, 678, 0.00, -0.76, 0.000000, 0.00, 0, 27, 678, 0
ATT, 0.00, 2.12, 0.00, -0.31, 0.00, 66.48, 72.92
CTUN, 681, 0.00, 0.05, 0.000000, 0.00, 0, 52, 678, 0
ATT, 0.00, 1.97, 0.00, -0.03, 0.00, 64.36, 72.92
GPS, 3, 460857600, 9, 1.77, -33.7840404, 151.0681558, -1.01, 91.73, 0.11, 138.90
CTUN, 681, 0.00, 0.00, 0.000000, 0.00, 0, 73, 681, 0
ATT, 0.00, 2.12, 0.00, 0.21, 0.00, 62.12, 72.12
CTUN, 681, 0.00, 0.20, 0.000000, 0.00, 0, 94, 681, 0
GPS, 3, 460857800, 7, 2.26, -33.7840407, 151.0681558, -0.72, 91.84, 0.25, 138.90
ATT, 0.00, 1.85, 0.00, 0.18, 0.00, 60.25, 70.25
CTUN, 636, 0.00, 0.21, 0.000000, 0.00, 0, 116, 636, 0
ATT, -1.51, 1.53, 0.00, 0.15, 0.00, 58.73, 68.73
CTUN, 591, 0.00, 0.44, 0.000000, 0.00, 0, 126, 607, 0
GPS, 3, 460858000, 8, 1.86, -33.7840407, 151.0681555, -0.33, 92.12, 0.22, 138.90
ATT, -7.20, 0.19, 0.00, 0.19, 0.00, 57.17, 67.17
CTUN, 576, 0.00, 0.64, 0.000000, 0.00, 0, 129, 576, 0
ATT, -12.32, -3.07, -0.12, -0.05, 0.00, 56.18, 66.18
CTUN, 576, 0.00, 0.78, 0.000000, 0.00, 0, 126, 576, 0
GPS, 3, 460858200, 9, 1.77, -33.7840411, 151.0681553, 0.02, 92.56, 0.39, 162.94
CTUN, 527, 0.00, 0.82, 0.000000, 0.00, 3, 121, 536, 0
ATT, -13.95, -7.99, -2.30, -1.26, 0.00, 55.43, 65.43
DU32, 7, 82041
CURR, 525, 14905, 1114, 1371, 4752, 12.31558
CTUN, 523, 0.00, 1.03, 0.000000, 0.00, 6, 113, 530, 0
ATT, -14.76, -10.42, -3.03, -2.95, 0.00, 55.02, 65.02
GPS, 3, 460858400, 8, 1.86, -33.7840416, 151.0681553, 0.31, 92.93, 0.39, 163.30
CTUN, 510, 0.00, 1.24, 0.000000, 0.00, 9, 101, 519, 0
ATT, -20.34, -13.07, -4.85, -4.35, 0.00, 54.69, 64.69
CTUN, 508, 0.00, 1.40, 0.000000, 0.00, 13, 85, 521, 0
ATT, -13.95, -15.29, -7.64, -5.84, 0.00, 54.76, 64.62
GPS, 3, 460858600, 8, 1.86, -33.7840415, 151.0681550, 0.62, 93.17, 0.17, 163.30
CTUN, 508, 0.00, 1.40, 0.000000, 0.00, 16, 72, 524, 0
ATT, -10.81, -13.33, -10.18, -8.80, 0.00, 55.09, 64.62
CTUN, 508, 0.00, 1.44, 0.000000, 0.00, 14, 57, 522, 0
GPS, 3, 460858800, 7, 2.26, -33.7840409, 151.0681544, 0.80, 93.26, 0.39, 248.15
ATT, -6.16, -9.22, -12.25, -10.86, 0.00, 54.90, 64.62
CTUN, 508, 0.00, 1.58, 0.000000, 0.00, 11, 39, 519, 0
ATT, 0.00, -4.69, -16.01, -12.33, 0.00, 54.57, 64.57
CTUN, 508, 0.00, 1.55, 0.000000, 0.00, 10, 28, 518, 0
GPS, 3, 460859000, 8, 1.86, -33.7840397, 151.0681537, 0.97, 93.34, 0.75, 311.94
ATT, 0.00, 1.02, -14.67, -13.63, 0.00, 54.11, 64.11
CTUN, 507, 0.00, 1.68, 0.000000, 0.00, 11, 15, 519, 0
ATT, 0.00, 2.75, -14.19, -12.93, 0.00, 53.94, 63.94
CTUN, 508, 0.00, 1.72, 0.000000, 0.00, 10, 2, 518, 0
GPS, 3, 460859200, 8, 1.86, -33.7840378, 151.0681535, 1.06, 93.45, 0.98, 342.44
CTUN, 515, 0.00, 1.71, 0.000000, 0.00, 9, -9, 524, 0
ATT, 0.00, 3.59, -13.58, -11.84, 0.00, 53.99, 63.92
DU32, 7, 82041
CURR, 517, 19591, 1121, 1164, 4772, 15.61637
CTUN, 524, 0.00, 1.75, 0.000000, 0.00, 8, -19, 532, 0
ATT, 0.00, 3.75, -13.09, -10.97, 0.00, 54.18, 63.92
GPS, 3, 460859400, 10, 1.67, -33.7840357, 151.0681540, 1.10, 93.49, 1.21, 356.54
CTUN, 545, 0.00, 1.87, 0.000000, 0.00, 7, -29, 549, 0
ATT, 0.00, 3.38, -11.88, -9.71, 0.00, 54.50, 63.92
CTUN, 569, 0.00, 1.74, 0.000000, 0.00, 6, -35, 571, 0
ATT, 0.00, 2.78, -10.43, -8.86, 0.00, 54.77, 63.92
GPS, 3, 460859600, 10, 1.67, -33.7840337, 151.0681551, 1.12, 93.41, 1.25, 5.70
CTUN, 590, 0.00, 1.72, 0.000000, 0.00, 5, -35, 586, 0
ATT, 0.00, 2.11, -1.81, -6.91, 0.00, 54.93, 63.92
CTUN, 616, 0.00, 1.46, 0.000000, 0.00, 3, -29, 608, 0
ATT, 0.00, 1.93, 0.00, -1.98, 0.00, 54.90, 63.92
GPS, 3, 460859800, 10, 1.67, -33.7840322, 151.0681569, 1.12, 93.14, 1.21, 11.73
CTUN, 628, 0.00, 1.55, 0.000000, 0.00, 0, -19, 625, 0
ATT, 0.00, 1.85, 0.00, 1.26, 0.00, 54.70, 63.92
CTUN, 632, 0.00, 1.57, 0.000000, 0.00, 0, -10, 632, 0
GPS, 3, 460860000, 10, 1.67, -33.7840303, 151.0681589, 1.15, 93.09, 1.37, 26.36
ATT, 0.00, 1.15, 0.00, 2.16, 0.00, 54.46, 63.92
CTUN, 634, 0.00, 1.57, 0.000000, 0.00, 0, 2, 632, 0
ATT, 0.57, 0.70, 0.00, 2.45, 0.00, 54.18, 63.92
CTUN, 632, 0.00, 1.53, 0.000000, 0.00, 0, 14, 632, 0
GPS, 3, 460860200, 10, 1.67, -33.7840283, 151.0681610, 1.22, 93.15, 1.36, 36.02
CTUN, 591, 0.00, 1.56, 0.000000, 0.00, 0, 27, 611, 0
ATT, 1.50, 0.55, 0.00, 2.16, 0.00, 53.91, 63.91
DU32, 7, 82041
CURR, 574, 25486, 1097, 1483, 4732, 20.04245
CTUN, 566, 0.00, 1.48, 0.000000, 0.00, 0, 33, 567, 0
ATT, 6.80, 0.81, 0.00, 1.82, 0.00, 53.75, 63.75
GPS, 3, 460860400, 10, 1.67, -33.7840271, 151.0681628, 1.31, 93.17, 1.06, 39.57
CTUN, 560, 0.00, 1.52, 0.000000, 0.00, 0, 36, 560, 0
ATT, 5.88, 3.37, 0.00, 0.74, 0.00, 53.65, 63.65
CTUN, 532, 0.00, 1.62, 0.000000, 0.00, 1, 35, 544, 0
ATT, 5.07, 4.23, 0.00, 1.03, 0.00, 53.83, 63.65
GPS, 3, 460860600, 10, 1.67, -33.7840261, 151.0681645, 1.41, 93.22, 0.92, 49.43
CTUN, 518, 0.00, 1.56, 0.000000, 0.00, 1, 31, 517, 0
ATT, 3.23, 4.34, 0.00, 0.62, 0.00, 54.14, 63.65
CTUN, 516, 0.00, 1.71, 0.000000, 0.00, 1, 21, 517, 0
ATT, 9.11, 3.61, 0.00, 0.23, 0.00, 54.65, 63.65
GPS, 3, 460860800, 10, 1.67, -33.7840249, 151.0681663, 1.48, 93.31, 0.97, 51.23
CTUN, 518, 0.00, 1.62, 0.000000, 0.00, 0, 8, 518, 0
ATT, 2.42, 5.16, 0.00, -0.28, 0.00, 55.11, 63.65
CTUN, 528, 0.00, 1.65, 0.000000, 0.00, 1, -1, 526, 0
GPS, 3, 460861000, 9, 1.69, -33.7840241, 151.0681680, 1.50, 93.30, 0.89, 51.57
ATT, 0.00, 2.42, 0.00, 0.13, 0.00, 55.82, 63.65
CTUN, 560, 0.00, 1.66, 0.000000, 0.00, 0, -12, 557, 0
ATT, 0.00, 0.26, 0.00, -0.50, 0.00, 56.32, 63.65
CTUN, 583, 0.00, 1.61, 0.000000, 0.00, 0, -18, 569, 0
GPS, 3, 460861200, 10, 1.67, -33.7840236, 151.0681697, 1.48, 93.31, 0.73, 56.34
CTUN, 591, 0.00, 1.63, 0.000000, 0.00, 0, -19, 591, 0
ATT, 0.00, -0.51, 0.00, -0.55, 0.00, 56.64, 63.65
DU32, 7, 82041
CURR, 594, 30424, 1101, 1417, 4732, 23.54457
CTUN, 594, 0.00, 1.67, 0.000000, 0.00, 0, -19, 594, 0
ATT, 0.00, -0.92, 0.00, -0.57, 0.00, 56.74, 63.65
GPS, 3, 460861400, 10, 1.67, -33.7840239, 151.0681716, 1.46, 93.21, 0.73, 80.86
CTUN, 609, 0.00, 1.59, 0.000000, 0.00, 0, -17, 609, 0
ATT, 0.00, -0.98, 0.00, -0.44, 0.00, 56.73, 63.65
CTUN, 620, 0.00, 1.55, 0.000000, 0.00, 0, -13, 620, 0
ATT, 0.00, -0.90, 0.00, -0.44, 0.00, 56.66, 63.65
GPS, 3, 460861600, 10, 1.67, -33.7840237, 151.0681732, 1.45, 93.23, 0.67, 78.03
CTUN, 621, 0.00, 1.59, 0.000000, 0.00, 0, -9, 619, 0
ATT, 0.00, -0.94, 0.00, -0.40, 0.00, 56.54, 63.65
CTUN, 619, 0.00, 1.47, 0.000000, 0.00, 0, -1, 620, 0
ATT, 0.00, -0.83, 0.00, -0.36, 0.00, 56.41, 63.65
GPS, 3, 460861800, 10, 1.67, -33.7840236, 151.0681748, 1.46, 93.22, 0.69, 78.12
CTUN, 620, 0.00, 1.56, 0.000000, 0.00, 0, 6, 619, 0
ATT, 0.00, -0.75, 0.00, -0.41, 0.00, 56.30, 63.65
CTUN, 592, 0.00, 1.50, 0.000000, 0.00, 0, 11, 601, 0
GPS, 3, 460862000, 10, 1.67, -33.7840235, 151.0681762, 1.48, 93.33, 0.64, 81.76
ATT, 0.00, -0.50, 0.00, -0.33, 0.00, 56.28, 63.65
CTUN, 577, 0.00, 1.41, 0.000000, 0.00, 0, 17, 577, 0
ATT, 0.00, -0.05, 0.00, -0.26, 0.00, 56.37, 63.65
CTUN, 581, 0.00, 1.56, 0.000000, 0.00, 0, 17, 581, 0
GPS, 3, 460862200, 10, 1.67, -33.7840235, 151.0681777, 1.52, 93.43, 0.67, 86.40
CTUN, 581, 0.00, 1.56, 0.000000, 0.00, 0, 19, 581, 0
ATT, 0.00, -0.16, 0.00, -0.25, 0.00, 56.56, 63.65
DU32, 7, 82041
CURR, 581, 35828, 1101, 1366, 4712, 27.54043
CTUN, 581, 0.00, 1.52, 0.000000, 0.00, 0, 20, 581, 0
ATT, 0.00, -0.12, 0.00, -0.45, 0.00, 56.77, 63.65
GPS, 3, 460862400, 10, 1.67, -33.7840234, 151.0681790, 1.56, 93.53, 0.57, 86.40
CTUN, 583, 0.00, 1.56, 0.000000, 0.00, 0, 21, 581, 0
ATT, 0.00, -0.24, 0.00, -0.55, 0.00, 57.02, 63.65
CTUN, 584, 0.00, 1.62, 0.000000, 0.00, 0, 19, 584, 0
ATT, 0.00, -0.23, 0.00, -0.62, 0.00, 57.19, 63.65
GPS, 3, 460862600, 10, 1.67, -33.7840229, 151.0681801, 1.60, 93.62, 0.50, 86.40
CTUN, 584, 0.00, 1.67, 0.000000, 0.00, 0, 17, 584, 0
ATT, 0.00, -0.31, 0.00, -0.66, 0.00, 57.31, 63.65
CTUN, 582, 0.00, 1.70, 0.000000, 0.00, 0, 16, 582, 0
ATT, 0.00, -0.24, 0.11, -0.60, 0.00, 57.36, 63.65
GPS, 3, 460862800, 10, 1.67, -33.7840225, 151.0681811, 1.64, 93.72, 0.48, 86.40
CTUN, 582, 0.00, 1.58, 0.000000, 0.00, 0, 17, 582, 0
ATT, 0.00, -0.36, 2.10, -0.29, 0.00, 57.42, 63.65
CTUN, 582, 0.00, 1.64, 0.000000, 0.00, 0, 18, 582, 0
GPS, 3, 460863000, 10, 1.67, -33.7840224, 151.0681823, 1.68, 93.69, 0.44, 86.40
ATT, 0.00, -0.12, 3.39, 1.23, 0.00, 57.49, 63.65
CTUN, 584, 0.00, 1.56, 0.000000, 0.00, 0, 20, 584, 0
ATT, 0.00, 0.04, 1.52, 2.12, 0.00, 57.53, 63.65
CTUN, 583, 0.00, 1.70, 0.000000, 0.00, 0, 19, 584, 0
GPS, 3, 460863200, 10, 1.67, -33.7840225, 151.0681834, 1.71, 93.73, 0.40, 86.40
CTUN, 583, 0.00, 1.72, 0.000000, 0.00, 0, 17, 583, 0
ATT, 0.00, -0.20, 0.70, 1.44, 0.00, 57.67, 63.65
CTUN, 584, 0.00, 1.73, 0.000000, 0.00, 0, 16, 584, 0
ATT, 0.00, -0.35, 0.70, 0.63, 0.00, 57.75, 63.65
DU32, 7, 82041
CURR, 584, 41072, 1101, 1360, 4732, 31.33515
GPS, 3, 460863400, 10, 1.67, -33.7840224, 151.0681844, 1.74, 93.78, 0.37, 86.40
CTUN, 582, 0.00, 1.73, 0.000000, 0.00, 0, 14, 582, 0
ATT, 0.00, -0.39, 0.46, 0.13, 0.00, 57.80, 63.65
CTUN, 582, 0.00, 1.71, 0.000000, 0.00, 0, 14, 582, 0
ATT, 0.00, -0.41, 0.00, -0.37, 0.00, 57.83, 63.65
GPS, 3, 460863600, 10, 1.67, -33.7840226, 151.0681853, 1.77, 93.84, 0.30, 86.40
CTUN, 585, 0.00, 1.61, 0.000000, 0.00, 0, 14, 582, 0
ATT, 0.00, -0.55, 0.00, -0.85, 0.00, 57.87, 63.65
CTUN, 583, 0.00, 1.67, 0.000000, 0.00, 0, 15, 585, 0
ATT, 0.00, -0.41, 0.00, -1.01, 0.00, 57.83, 63.65
GPS, 3, 460863800, 10, 1.67, -33.7840227, 151.0681863, 1.78, 93.91, 0.26, 86.40
CTUN, 584, 0.00, 1.54, 0.000000, 0.00, 0, 16, 584, 0
ATT, 0.00, -0.37, 0.00, -1.02, 0.00, 57.82, 63.65
CTUN, 584, 0.00, 1.72, 0.000000, 0.00, 0, 16, 582, 0
GPS, 3, 460864000, 10, 1.67, -33.7840226, 151.0681871, 1.79, 93.93, 0.27, 86.40
ATT, 0.00, -0.35, 0.00, -0.97, 0.00, 57.82, 63.65
CTUN, 583, 0.00, 1.68, 0.000000, 0.00, 0, 16, 584, 0
ATT, 0.00, -0.33, 0.00, -0.98, 0.00, 57.83, 63.65
CTUN, 584, 0.00, 1.64, 0.000000, 0.00, 0, 16, 582, 0
GPS, 3, 460864200, 10, 1.67, -33.7840224, 151.0681879, 1.81, 93.95, 0.30, 86.40
CTUN, 583, 0.00, 1.66, 0.000000, 0.00, 0, 16, 583, 0
ATT, 0.00, -0.11, 0.00, -0.86, 0.00, 57.80, 63.65
CTUN, 583, 0.00, 1.59, 0.000000, 0.00, 0, 17, 582, 0
ATT, 0.00, -0.10, 0.00, -0.80, 0.00, 57.78, 63.65
DU32, 7, 82041
CURR, 583, 46322, 1094, 1350, 4732, 35.10395
GPS, 3, 460864400, 10, 1.67, -33.7840224, 151.0681889, 1.83, 93.97, 0.35, 86.40
CTUN, 583, 0.00, 1.61, 0.000000, 0.00, 0, 17, 583, 0
ATT, 0.00, -0.09, 0.00, -0.73, 0.00, 57.80, 63.65
CTUN, 585, 0.00, 1.63, 0.000000, 0.00, 0, 18, 585, 0
ATT, 0.00, -0.15, 0.00, -0.71, 0.00, 57.86, 63.65
GPS, 3, 460864600, 10, 1.67, -33.7840225, 151.0681897, 1.84, 93.98, 0.19, 86.40
CTUN, 586, 0.00, 1.60, 0.000000, 0.00, 0, 18, 585, 0
ATT, 0.00, -0.19, 0.00, -0.65, 0.00, 57.99, 63.65
CTUN, 585, 0.00, 1.59, 0.000000, 0.00, 0, 19, 585, 0
ATT, 0.00, -0.28, 0.00, -0.54, 0.00, 58.12, 63.65
GPS, 3, 460864800, 10, 1.67, -33.7840224, 151.0681904, 1.85, 94.01, 0.27, 86.40
CTUN, 587, 0.00, 1.69, 0.000000, 0.00, 0, 20, 587, 0
ATT, 0.00, -0.22, 0.00, -0.53, 0.00, 58.27, 63.65
CTUN, 589, 0.00, 1.58, 0.000000, 0.00, 0, 21, 587, 0
GPS, 3, 460865000, 10, 1.67, -33.7840220, 151.0681910, 1.86, 94.12, 0.28, 86.40
ATT, 0.00, -0.26, 0.00, -0.60, 0.00, 58.47, 63.65
CTUN, 588, 0.00, 1.54, 0.000000, 0.00, 0, 22, 588, 0
ATT, 0.00, -0.26, 0.00, -0.62, 0.00, 58.65, 63.65
CTUN, 587, 0.00, 1.57, 0.000000, 0.00, 0, 22, 587, 0
GPS, 3, 460865200, 10, 1.67, -33.7840222, 151.0681919, 1.87, 94.15, 0.38, 86.40
CTUN, 590, 0.00, 1.53, 0.000000, 0.00, 0, 24, 590, 0
ATT, 0.00, -0.25, 0.00, -0.67, 0.00, 58.80, 63.65
CTUN, 602, 0.00, 1.67, 0.000000, 0.00, 0, 24, 602, 0
ATT, 0.00, -0.12, 0.00, -0.61, 0.00, 58.90, 63.65
GPS, 3, 460865400, 10, 1.67, -33.7840223, 151.0681926, 1.88, 94.22, 0.32, 86.40
CTUN, 609, 0.00, 1.53, 0.000000, 0.00, 0, 27, 609, 0
DU32, 7, 82041
CURR, 609, 52210, 1087, 1435, 4712, 39.33291
ATT, 0.00, -0.18, 1.17, -0.44, 0.00, 58.95, 63.65
CTUN, 607, 0.00, 1.57, 0.000000, 0.00, 0, 29, 607, 0
ATT, 0.00, -0.18, 3.28, 0.14, 0.00, 58.93, 63.65
GPS, 3, 460865600, 10, 1.67, -33.7840225, 151.0681935, 1.91, 94.31, 0.36, 86.40
CTUN, 607, 0.00, 1.60, 0.000000, 0.00, 0, 31, 607, 0
ATT, 0.00, -0.30, 4.80, 1.75, 0.00, 58.89, 63.65
CTUN, 609, 0.00, 1.51, 0.000000, 0.00, 0, 35, 609, 0
ATT, 0.00, -0.33, 5.27, 2.96, 0.00, 58.87, 63.65
GPS, 3, 460865800, 10, 1.67, -33.7840231, 151.0681944, 1.93, 94.31, 0.31, 86.40
CTUN, 609, 0.00, 1.52, 0.000000, 0.00, 0, 38, 609, 0
ATT, 0.00, -0.46, 5.39, 3.92, 0.00, 58.84, 63.65
CTUN, 609, 0.00, 1.64, 0.000000, 0.00, 1, 38, 608, 0
GPS, 3, 460866000, 10, 1.67, -33.7840233, 151.0681950, 1.96, 94.31, 0.16, 86.40
ATT, 0.00, -0.48, 4.80, 4.28, 0.00, 58.80, 63.65
CTUN, 609, 0.00, 1.56, 0.000000, 0.00, 1, 42, 610, 0
ATT, 0.00, -0.71, 5.03, 3.93, 0.00, 58.76, 63.65
CTUN, 609, 0.00, 1.67, 0.000000, 0.00, 1, 44, 610, 0
PM, 0, 0, 50, 0, 1003, 10408, 0, 4
GPS, 3, 460866200, 10, 1.67, -33.7840235, 151.0681953, 2.01, 94.37, 0.07, 86.40
CTUN, 609, 0.00, 1.54, 0.000000, 0.00, 1, 47, 610, 0
ATT, 0.00, -0.64, 4.21, 3.70, 0.00, 58.63, 63.65
CTUN, 609, 0.00, 1.70, 0.000000, 0.00, 0, 48, 609, 0
ATT, 0.00, -0.55, 3.63, 3.20, 0.00, 58.51, 63.65
GPS, 3, 460866400, 10, 1.67, -33.7840251, 151.0681958, 2.06, 94.37, 0.15, 86.40
CTUN, 609, 0.00, 1.61, 0.000000, 0.00, 0, 51, 609, 0
DU32, 7, 82041
CURR, 609, 57690, 1083, 1448, 4732, 43.31268
ATT, 0.00, -0.24, 0.23, 2.36, 0.00, 58.35, 63.65
CTUN, 607, 0.00, 1.64, 0.000000, 0.00, 0, 52, 609, 0
ATT, 0.00, -0.11, 0.00, 0.94, 0.00, 58.23, 63.65
GPS, 3, 460866600, 10, 1.67, -33.7840275, 151.0681967, 2.11, 94.45, 0.19, 86.40
CTUN, 609, 0.00, 1.68, 0.000000, 0.00, 0, 55, 609, 0
ATT, 0.00, -0.06, 0.00, -0.32, 0.00, 58.11, 63.65
CTUN, 610, 0.00, 1.67, 0.000000, 0.00, 0, 57, 607, 0
ATT, 0.00, 0.28, 0.11, -0.60, 0.00, 58.01, 63.65
GPS, 3, 460866800, 10, 1.67, -33.7840293, 151.0681969, 2.17, 94.59, 0.31, 86.40
CTUN, 609, 0.00, 1.75, 0.000000, 0.00, 0, 59, 609, 0
ATT, 0.00, 0.44, 1.64, -0.59, 0.00, 57.95, 63.65
CTUN, 596, 0.00, 1.78, 0.000000, 0.00, 0, 62, 602, 0
GPS, 3, 460867000, 10, 1.67, -33.7840302, 151.0681970, 2.24, 94.67, 0.23, 86.40
ATT, 0.00, 0.47, 4.68, 0.41, 0.00, 57.91, 63.65
CTUN, 594, 0.00, 1.73, 0.000000, 0.00, 0, 63, 594, 0
ATT, 0.00, 0.90, 0.93, 2.25, 0.00, 57.88, 63.65
CTUN, 596, 0.00, 1.82, 0.000000, 0.00, 0, 63, 595, 0
GPS, 3, 460867200, 10, 1.67, -33.7840307, 151.0681969, 2.31, 94.76, 0.29, 86.40
CTUN, 596, 0.00, 1.91, 0.000000, 0.00, 0, 61, 596, 0
ATT, 0.00, 0.99, 0.00, 1.10, 0.00, 57.91, 63.65
CTUN, 594, 0.00, 1.91, 0.000000, 0.00, 0, 61, 595, 0
ATT, -1.27, 0.03, 0.00, -0.05, 0.00, 57.96, 63.65
GPS, 3, 460867400, 10, 1.67, -33.7840311, 151.0681967, 2.37, 94.92, 0.27, 86.40
CTUN, 594, 0.00, 1.96, 0.000000, 0.00, 0, 61, 594, 0
DU32, 7, 82041
CURR, 594, 63097, 1084, 1394, 4712, 47.32585
ATT, -1.39, -0.14, 0.00, -0.20, 0.00, 58.03, 63.65
CTUN, 595, 0.00, 1.95, 0.000000, 0.00, 0, 59, 594, 0
ATT, -1.74, -0.49, 0.00, -0.29, 0.00, 58.16, 63.65
GPS, 3, 460867600, 10, 1.67, -33.7840318, 151.0681964, 2.44, 94.97, 0.32, 86.40
CTUN, 592, 0.00, 2.00, 0.000000, 0.00, 0, 59, 596, 0
ATT, -3.13, -1.18, 0.00, -0.54, 0.00, 58.37, 63.65
CTUN, 595, 0.00, 1.97, 0.000000, 0.00, 0, 58, 595, 0
ATT, -3.48, -2.04, 0.00, -0.62, 0.00, 58.58, 63.65
GPS, 3, 460867800, 10, 1.67, -33.7840327, 151.0681964, 2.50, 95.07, 0.35, 144.60
CTUN, 595, 0.00, 1.98, 0.000000, 0.00, 0, 55, 595, 0
ATT, -5.58, -2.68, 0.00, -0.48, 0.00, 58.73, 63.65
CTUN, 595, 0.00, 2.09, 0.000000, 0.00, 0, 55, 595, 0
GPS, 3, 460868000, 10, 1.67, -33.7840332, 151.0681960, 2.55, 95.06, 0.29, 144.60
ATT, -5.34, -4.05, 0.00, -0.61, 0.00, 58.93, 63.65
CTUN, 595, 0.00, 2.25, 0.000000, 0.00, 1, 53, 597, 0
ATT, -4.88, -4.44, 0.00, -0.47, 0.00, 59.04, 63.65
CTUN, 598, 0.00, 2.08, 0.000000, 0.00, 1, 54, 596, 0
GPS, 3, 460868200, 10, 1.67, -33.7840342, 151.0681963, 2.61, 95.12, 0.21, 144.60
CTUN, 602, 0.00, 2.18, 0.000000, 0.00, 1, 52, 603, 0
ATT, -1.97, -3.99, 0.00, -0.43, 0.00, 59.15, 63.65
CTUN, 601, 0.00, 2.02, 0.000000, 0.00, 0, 52, 602, 0
ATT, 0.00, -2.66, 0.00, -0.46, 0.00, 59.23, 63.65
GPS, 3, 460868400, 10, 1.67, -33.7840348, 151.0681961, 2.66, 95.17, 0.25, 144.60
CTUN, 602, 0.00, 2.32, 0.000000, 0.00, 0, 53, 601, 0
DU32, 7, 82041
CURR, 602, 68473, 1085, 1427, 4752, 51.18388
ATT, 0.00, -0.70, 0.00, -0.29, 0.00, 59.24, 63.65
CTUN, 602, 0.00, 2.22, 0.000000, 0.00, 0, 52, 601, 0
ATT, 0.00, -0.09, 0.00, -0.11, 0.00, 59.26, 63.65
GPS, 3, 460868600, 10, 1.67, -33.7840362, 151.0681965, 2.71, 95.23, 0.21, 144.60
CTUN, 601, 0.00, 2.19, 0.000000, 0.00, 0, 53, 602, 0
ATT, 0.00, 0.34, 0.00, -0.06, 0.00, 59.25, 63.65
CTUN, 600, 0.00, 2.39, 0.000000, 0.00, 0, 52, 600, 0
ATT, 0.00, 0.48, 0.00, 0.06, 0.00, 59.17, 63.65
GPS, 3, 460868800, 10, 1.67, -33.7840369, 151.0681965, 2.76, 95.26, 0.25, 144.60
CTUN, 602, 0.00, 2.33, 0.000000, 0.00, 0, 52, 601, 0
ATT, 0.00, 0.45, 0.00, 0.12, 0.00, 59.08, 63.65
CTUN, 601, 0.00, 2.27, 0.000000, 0.00, 0, 52, 602, 0
GPS, 3, 460869000, 10, 1.67, -33.7840376, 151.0681967, 2.81, 95.35, 0.17, 144.60
ATT, 0.00, 0.29, 0.00, 0.25, 0.00, 59.00, 63.65
CTUN, 602, 0.00, 2.40, 0.000000, 0.00, 0, 53, 602, 0
ATT, 0.00, 0.23, 0.00, 0.32, 0.00, 58.95, 63.65
CTUN, 601, 0.00, 2.37, 0.000000, 0.00, 0, 52, 602, 0
GPS, 3, 460869200, 10, 1.67, -33.7840376, 151.0681963, 2.86, 95.37, 0.26, 144.60
CTUN, 600, 0.00, 2.46, 0.000000, 0.00, 0, 52, 600, 0
ATT, 0.00, -0.03, 0.00, 0.37, 0.00, 58.91, 63.65
CTUN, 600, 0.00, 2.45, 0.000000, 0.00, 0, 52, 602, 0
ATT, 0.00, -0.28, 0.00, 0.43, 0.00, 58.89, 63.65
GPS, 3, 460869400, 10, 1.67, -33.7840377, 151.0681961, 2.91, 95.42, 0.19, 144.60
CTUN, 602, 0.00, 2.53, 0.000000, 0.00, 0, 52, 602, 0
DU32, 7, 82041
CURR, 602, 73885, 1083, 1429, 4712, 55.14286
ATT, 0.00, -0.59, 0.00, 0.34, 0.00, 58.91, 63.65
CTUN, 600, 0.00, 2.47, 0.000000, 0.00, 0, 51, 602, 0
ATT, 0.00, -0.58, 0.00, 0.26, 0.00, 58.96, 63.65
GPS, 3, 460869600, 10, 1.67, -33.7840380, 151.0681960, 2.97, 95.50, 0.23, 144.60
CTUN, 601, 0.00, 2.63, 0.000000, 0.00, 0, 51, 602, 0
ATT, 0.00, -0.61, 0.00, 0.13, 0.00, 59.07, 63.65
CTUN, 602, 0.00, 2.63, 0.000000, 0.00, 0, 51, 602, 0
ATT, 0.00, -0.61, 0.00, 0.01, 0.00, 59.19, 63.65
GPS, 3, 460869800, 10, 1.67, -33.7840380, 151.0681958, 3.02, 95.59, 0.20, 144.60
CTUN, 602, 0.00, 2.76, 0.000000, 0.00, 0, 50, 602, 0
ATT, 0.00, -0.59, 0.00, 0.02, 0.00, 59.37, 63.65
CTUN, 602, 0.00, 2.83, 0.000000, 0.00, 0, 50, 600, 0
GPS, 3, 460870000, 10, 1.67, -33.7840385, 151.0681957, 3.09, 95.63, 0.24, 144.60
ATT, 0.00, -0.67, 0.00, 0.06, 0.00, 59.59, 63.65
CTUN, 601, 0.00, 2.84, 0.000000, 0.00, 0, 50, 602, 0
ATT, 0.00, -0.64, 0.00, 0.04, 0.00, 59.78, 63.65
CTUN, 600, 0.00, 2.75, 0.000000, 0.00, 0, 50, 600, 0
GPS, 3, 460870200, 10, 1.67, -33.7840385, 151.0681956, 3.15, 95.68, 0.22, 144.60
CTUN, 600, 0.00, 2.92, 0.000000, 0.00, 0, 48, 602, 0
ATT, 0.00, -0.61, 0.00, 0.00, 0.00, 60.03, 63.65
CTUN, 601, 0.00, 2.92, 0.000000, 0.00, 0, 48, 601, 0
ATT, 0.00, -0.58, 0.00, -0.12, 0.00, 60.25, 63.65
GPS, 3, 460870400, 10, 1.67, -33.7840391, 151.0681957, 3.22, 95.69, 0.26, 144.60
CTUN, 602, 0.00, 2.89, 0.000000, 0.00, 0, 47, 600, 0
DU32, 7, 82041
CURR, 602, 79296, 1083, 1414, 4772, 59.07042
ATT, 0.00, -0.47, 0.00, -0.13, 0.00, 60.48, 63.65
CTUN, 601, 0.00, 3.16, 0.000000, 0.00, 0, 46, 601, 0
ATT, 0.00, -0.39, -4.24, -0.20, 0.00, 60.64, 63.65
GPS, 3, 460870600, 10, 1.67, -33.7840392, 151.0681956, 3.28, 95.71, 0.18, 144.60
CTUN, 602, 0.00, 3.06, 0.000000, 0.00, 0, 46, 600, 0
ATT, 0.00, 0.05, -6.06, -2.29, 0.00, 60.82, 63.65
CTUN, 600, 0.00, 3.03, 0.000000, 0.00, 0, 47, 600, 0
ATT, 0.00, -0.45, -7.76, -4.20, 0.00, 60.95, 63.65
GPS, 3, 460870800, 10, 1.67, -33.7840393, 151.0681956, 3.34, 95.77, 0.17, 144.60
CTUN, 601, 0.00, 3.19, 0.000000, 0.00, 1, 45, 601, 0
ATT, 0.00, -0.15, -3.15, -5.67, 0.00, 61.01, 63.65
CTUN, 602, 0.00, 3.16, 0.000000, 0.00, 2, 45, 605, 0
ATT, 0.00, -0.11, 0.00, -3.93, 0.00, 61.01, 63.65
GPS, 3, 460871000, 10, 1.67, -33.7840393, 151.0681956, 3.41, 95.83, 0.12, 144.60
CTUN, 603, 0.00, 3.12, 0.000000, 0.00, 0, 45, 601, 0
ATT, 0.00, 0.51, 0.00, -1.49, 0.00, 61.05, 63.65
CTUN, 612, 0.00, 3.41, 0.000000, 0.00, 0, 43, 603, 0
GPS, 3, 460871200, 10, 1.67, -33.7840391, 151.0681957, 3.47, 95.86, 0.07, 144.60
ATT, 0.00, 0.59, 0.00, -0.27, 0.00, 61.17, 63.65
CTUN, 620, 0.00, 3.39, 0.000000, 0.00, 0, 42, 620, 0
ATT, 0.00, 0.52, 0.00, 0.28, 0.00, 61.21, 63.65
CTUN, 623, 0.00, 3.35, 0.000000, 0.00, 0, 44, 623, 0
GPS, 3, 460871400, 10, 1.67, -33.7840390, 151.0681963, 3.55, 95.91, 0.21, 144.60
DU32, 7, 82041
CURR, 623, 84751, 1075, 1490, 4772, 62.93108
ATT, 0.00, 0.57, 0.00, 0.64, 0.00, 61.18, 63.65
CTUN, 623, 0.00, 3.35, 0.000000, 0.00, 0, 46, 623, 0
ATT, 0.00, 0.40, 0.00, 0.74, 0.00, 61.08, 63.65
CTUN, 623, 0.00, 3.38, 0.000000, 0.00, 0, 48, 623, 0
GPS, 3, 460871600, 10, 1.67, -33.7840393, 151.0681971, 3.61, 95.97, 0.13, 144.60
CTUN, 623, 0.00, 3.50, 0.000000, 0.00, 0, 50, 623, 0
ATT, 0.00, 0.32, 0.00, 0.75, 0.00, 60.92, 63.65
CTUN, 623, 0.00, 3.45, 0.000000, 0.00, 0, 53, 623, 0
ATT, 0.00, 0.11, 0.00, 0.72, 0.00, 60.75, 63.65
GPS, 3, 460871800, 10, 1.67, -33.7840389, 151.0681974, 3.70, 96.05, 0.15, 144.60
CTUN, 623, 0.00, 3.51, 0.000000, 0.00, 0, 55, 623, 0
ATT, 0.00, -0.07, 0.00, 0.62, 0.00, 60.52, 63.65
CTUN, 623, 0.00, 3.61, 0.000000, 0.00, 0, 57, 623, 0
ATT, 0.00, -0.30, 0.00, 0.56, 0.00, 60.33, 63.65
GPS, 3, 460872000, 10, 1.67, -33.7840389, 151.0681984, 3.79, 96.08, 0.19, 144.60
CTUN, 623, 0.00, 3.58, 0.000000, 0.00, 0, 60, 623, 0
ATT, 0.00, -0.54, 0.00, 0.54, 0.00, 60.17, 63.65
CTUN, 625, 0.00, 3.65, 0.000000, 0.00, 0, 61, 623, 0
GPS, 3, 460872200, 10, 1.67, -33.7840391, 151.0681993, 3.88, 96.08, 0.05, 144.60
ATT, 0.00, -0.60, 0.00, 0.58, 0.00, 60.06, 63.65
CTUN, 623, 0.00, 3.69, 0.000000, 0.00, 0, 64, 623, 0
ATT, 0.00, -0.73, 0.00, 0.59, 0.00, 60.05, 63.65
CTUN, 623, 0.00, 3.86, 0.000000, 0.00, 0, 66, 624, 0
GPS, 3, 460872400, 10, 1.67, -33.7840398, 151.0682002, 3.99, 96.07, 0.12, 144.60
DU32, 7, 82041
CURR, 623, 90356, 1072, 1483, 4732, 67.06073
ATT, 0.00, -0.90, 0.00, 0.54, 0.00, 60.19, 63.65
CTUN, 624, 0.00, 3.89, 0.000000, 0.00, 0, 67, 624, 0
ATT, 0.00, -0.97, 0.00, 0.47, 0.00, 60.33, 63.65
CTUN, 623, 0.00, 3.96, 0.000000, 0.00, 0, 69, 623, 0
GPS, 3, 460872600, 10, 1.67, -33.7840398, 151.0682010, 4.11, 96.12, 0.10, 144.60
CTUN, 623, 0.00, 4.15, 0.000000, 0.00, 0, 72, 623, 0
ATT, 0.00, -0.88, 0.00, 0.38, 0.00, 60.47, 63.65
CTUN, 623, 0.00, 4.17, 0.000000, 0.00, 0, 73, 623, 0
ATT, 0.00, -0.84, 0.00, 0.29, 0.00, 60.55, 63.65
GPS, 3, 460872800, 10, 1.67, -33.7840402, 151.0682012, 4.25, 96.23, 0.12, 144.60
CTUN, 621, 0.00, 4.21, 0.000000, 0.00, 0, 76, 623, 0
ATT, 0.00, -0.87, 0.00, 0.35, 0.00, 60.56, 63.65
CTUN, 621, 0.00, 4.30, 0.000000, 0.00, 0, 76, 623, 0
ATT, 0.00, -0.81, 0.00, 0.45, 0.00, 60.52, 63.65
GPS, 3, 460873000, 10, 1.67, -33.7840403, 151.0682015, 4.40, 96.39, 0.02, 144.60
CTUN, 624, 0.00, 4.20, 0.000000, 0.00, 0, 77, 624, 0
ATT, 0.00, -0.68, 0.00, 0.40, 0.00, 60.52, 63.65
CTUN, 623, 0.00, 4.59, 0.000000, 0.00, 0, 79, 623, 0
GPS, 3, 460873200, 10, 1.67, -33.7840401, 151.0682012, 4.53, 96.58, 0.20, 144.60
ATT, 0.00, -0.41, 0.00, 0.33, 0.00, 60.54, 63.65
CTUN, 599, 0.00, 4.53, 0.000000, 0.00, 0, 80, 597, 0
ATT, 0.00, -0.39, -0.12, 0.39, 0.00, 60.58, 63.65
CTUN, 597, 0.00, 4.57, 0.000000, 0.00, 0, 79, 597, 0
GPS, 3, 460873400, 10, 1.67, -33.7840403, 151.0682010, 4.70, 96.79, 0.14, 144.60
DU32, 7, 82041
CURR, 597, 95911, 1077, 1373, 4732, 71.12429
ATT, 0.00, -0.09, -3.39, -0.03, 0.00, 60.67, 63.65
CTUN, 598, 0.00, 4.63, 0.000000, 0.00, 0, 78, 598, 0
ATT, 0.00, 0.01, -3.76, -1.62, 0.00, 60.78, 63.65
CTUN, 598, 0.00, 4.75, 0.000000, 0.00, 0, 77, 598, 0
GPS, 3, 460873600, 9, 1.70, -33.7840401, 151.0682005, 4.84, 96.96, 0.26, 144.60
CTUN, 598, 0.00, 4.80, 0.000000, 0.00, 0, 75, 598, 0
ATT, 0.00, -0.03, -3.88, -2.57, 0.00, 60.84, 63.65
CTUN, 598, 0.00, 4.96, 0.000000, 0.00, 0, 75, 598, 0
ATT, 0.00, -0.05, -4.85, -2.93, 0.00, 60.85, 63.65
GPS, 3, 460873800, 10, 1.67, -33.7840403, 151.0682005, 4.98, 97.14, 0.16, 144.60
CTUN, 598, 0.00, 5.04, 0.000000, 0.00, 0, 73, 599, 0
ATT, 0.00, -0.07, -4.48, -3.75, 0.00, 60.87, 63.65
CTUN, 597, 0.00, 5.07, 0.000000, 0.00, 1, 73, 598, 0
ATT, 0.00, -0.02, -2.42, -3.62, 0.00, 60.79, 63.65
GPS, 3, 460874000, 9, 1.70, -33.7840403, 151.0682005, 5.13, 97.30, 0.02, 144.60
CTUN, 599, 0.00, 5.09, 0.000000, 0.00, 0, 72, 599, 0
ATT, 0.00, 0.73, -1.09, -2.34, 0.00, 60.58, 63.65
CTUN, 599, 0.00, 5.22, 0.000000, 0.00, 0, 72, 597, 0
GPS, 3, 460874200, 10, 1.67, -33.7840401, 151.0682006, 5.27, 97.40, 0.12, 144.60
ATT, 0.00, 1.15, -1.57, -1.17, 0.00, 60.34, 63.65
CTUN, 597, 0.00, 5.37, 0.000000, 0.00, 0, 69, 597, 0
ATT, 0.00, 1.23, -1.33, -0.84, 0.00, 60.19, 63.65
CTUN, 599, 0.00, 5.47, 0.000000, 0.00, 0, 66, 599, 0
GPS, 3, 460874400, 9, 1.70, -33.7840399, 151.0682009, 5.41, 97.45, 0.17, 144.60
ATT, 0.11, 0.96, -1.94, -0.67, 0.00, 60.01, 63.65
CTUN, 598, 0.00, 5.38, 0.000000, 0.00, 0, 62, 599, 0
DU32, 7, 82041
CURR, 598, 101297, 1075, 1390, 4752, 74.99290
ATT, 2.65, 0.98, -1.57, -0.84, 0.00, 59.88, 63.65
CTUN, 597, 0.00, 5.47, 0.000000, 0.00, 0, 61, 597, 0
GPS, 3, 460874600, 10, 1.67, -33.7840402, 151.0682016, 5.52, 97.56, 0.13, 144.60
CTUN, 599, 0.00, 5.49, 0.000000, 0.00, 0, 60, 599, 0
ATT, 1.73, 1.86, -1.09, -1.20, 0.00, 59.77, 63.65
CTUN, 599, 0.00, 5.55, 0.000000, 0.00, 0, 58, 597, 0
ATT, 0.46, 1.98, -0.12, -0.80, 0.00, 59.75, 63.65
GPS, 3, 460874800, 10, 1.67, -33.7840404, 151.0682023, 5.64, 97.64, 0.14, 144.60
CTUN, 599, 0.00, 5.66, 0.000000, 0.00, 0, 56, 598, 0
ATT, 0.00, 1.29, -0.36, -0.30, 0.00, 59.81, 63.65
CTUN, 599, 0.00, 5.68, 0.000000, 0.00, 0, 54, 597, 0
ATT, 0.00, 0.82, -0.12, -0.05, 0.00, 59.86, 63.65
GPS, 3, 460875000, 10, 1.67, -33.7840405, 151.0682027, 5.75, 97.72, 0.06, 144.60
CTUN, 599, 0.00, 5.65, 0.000000, 0.00, 0, 55, 599, 0
ATT, 0.00, 0.39, -0.12, 0.16, 0.00, 59.92, 63.65
CTUN, 598, 0.00, 5.67, 0.000000, 0.00, 0, 54, 598, 0
GPS, 3, 460875200, 10, 1.67, -33.7840406, 151.0682033, 5.84, 97.80, 0.17, 144.60
ATT, 0.00, 0.24, -0.12, 0.32, 0.00, 59.93, 63.65
CTUN, 598, 0.00, 5.84, 0.000000, 0.00, 0, 54, 599, 0
ATT, 0.00, 0.05, 0.00, 0.21, 0.00, 60.00, 63.65
CTUN, 598, 0.00, 5.81, 0.000000, 0.00, 0, 53, 598, 0
GPS, 3, 460875400, 10, 1.67, -33.7840412, 151.0682034, 5.94, 97.97, 0.22, 143.03
ATT, 0.00, -0.20, 0.00, 0.07, 0.00, 60.14, 63.65
CTUN, 597, 0.00, 5.90, 0.000000, 0.00, 0, 51, 597, 0
DU32, 7, 82041
CURR, 597, 106681, 1072, 1397, 4772, 78.87787
ATT, 0.00, -0.34, 0.00, 0.00, 0.00, 60.32, 63.65
CTUN, 597, 0.00, 5.88, 0.000000, 0.00, 0, 49, 597, 0
GPS, 3, 460875600, 10, 1.67, -33.7840417, 151.0682038, 6.03, 98.05, 0.23, 155.94
CTUN, 598, 0.00, 5.93, 0.000000, 0.00, 0, 47, 599, 0
ATT, 0.00, -0.49, 0.00, 0.08, 0.00, 60.54, 63.65
CTUN, 597, 0.00, 5.99, 0.000000, 0.00, 0, 47, 597, 0
ATT, 0.00, -0.55, 0.00, 0.13, 0.00, 60.70, 63.65
GPS, 3, 460875800, 10, 1.67, -33.7840423, 151.0682041, 6.11, 98.12, 0.26, 164.57
CTUN, 598, 0.00, 5.95, 0.000000, 0.00, 0, 47, 599, 0
ATT, 0.00, -0.61, -0.36, 0.15, 0.00, 60.78, 63.65
CTUN, 599, 0.00, 6.02, 0.000000, 0.00, 0, 48, 599, 0
ATT, 0.00, -0.56, -3.63, -0.27, 0.00, 60.81, 63.65
GPS, 3, 460876000, 10, 1.67, -33.7840428, 151.0682044, 6.19, 98.19, 0.18, 167.57
CTUN, 599, 0.00, 6.08, 0.000000, 0.00, 0, 44, 598, 0
ATT, 0.00, -0.76, -3.76, -2.02, 0.00, 60.84, 63.65
CTUN, 599, 0.00, 6.29, 0.000000, 0.00, 0, 40, 597, 0
PM, 0, 0, 50, 0, 1000, 10424, 0, 4
GPS, 3, 460876200, 10, 1.67, -33.7840432, 151.0682044, 6.26, 98.27, 0.19, 167.57
ATT, -0.93, -0.81, -2.91, -3.11, 0.00, 60.75, 63.65
CTUN, 598, 0.00, 6.24, 0.000000, 0.00, 0, 36, 598, 0
ATT, -0.93, -0.89, -3.15, -2.82, 0.00, 60.55, 63.65
CTUN, 599, 0.00, 6.30, 0.000000, 0.00, 0, 34, 598, 0
GPS, 3, 460876400, 10, 1.67, -33.7840433, 151.0682047, 6.33, 98.32, 0.09, 167.57
ATT, -0.81, -0.92, -4.12, -2.95, 0.00, 60.31, 63.65
CTUN, 597, 0.00, 6.18, 0.000000, 0.00, 0, 31, 597, 0
DU32, 7, 82041
CURR, 597, 112060, 1074, 1396, 4772, 82.72842
ATT, -2.09, -1.12, -4.00, -3.32, 0.00, 60.15, 63.65
CTUN, 598, 0.00, 6.33, 0.000000, 0.00, 0, 29, 598, 0
GPS, 3, 460876600, 10, 1.67, -33.7840436, 151.0682049, 6.38, 98.37, 0.15, 167.57
ATT, -4.30, -1.60, -4.73, -3.51, 0.00, 60.02, 63.65
CTUN, 597, 0.00, 6.46, 0.000000, 0.00, 1, 27, 600, 0
ATT, -5.00, -2.58, -5.57, -3.76, 0.00, 59.99, 63.65
CTUN, 598, 0.00, 6.41, 0.000000, 0.00, 1, 25, 599, 0
GPS, 3, 460876800, 10, 1.67, -33.7840435, 151.0682055, 6.43, 98.43, 0.17, 167.57
CTUN, 599, 0.00, 6.31, 0.000000, 0.00, 2, 23, 601, 0
ATT, -5.23, -3.67, -6.18, -4.55, 0.00, 60.12, 63.65
CTUN, 597, 0.00, 6.45, 0.000000, 0.00, 2, 24, 601, 0
ATT, -3.37, -3.73, -6.54, -5.11, 0.00, 60.26, 63.65
GPS, 3, 460877000, 10, 1.67, -33.7840432, 151.0682060, 6.47, 98.46, 0.18, 167.57
CTUN, 599, 0.00, 6.37, 0.000000, 0.00, 2, 25, 601, 0
ATT, -0.93, -2.44, -6.06, -5.55, 0.00, 60.29, 63.65
CTUN, 599, 0.00, 6.35, 0.000000, 0.00, 2, 28, 601, 0
ATT, -0.93, -0.92, -5.09, -5.26, 0.00, 60.20, 63.65
GPS, 3, 460877200, 10, 1.67, -33.7840426, 151.0682070, 6.52, 98.48, 0.37, 87.53
CTUN, 598, 0.00, 6.45, 0.000000, 0.00, 1, 29, 598, 0
ATT, -2.09, -0.14, -1.81, -4.09, 0.00, 60.02, 63.65
CTUN, 597, 0.00, 6.47, 0.000000, 0.00, 0, 31, 597, 0
GPS, 3, 460877400, 10, 1.67, -33.7840419, 151.0682079, 6.57, 98.50, 0.46, 63.06
ATT, -2.20, -0.59, -1.09, -2.00, 0.00, 59.82, 63.65
CTUN, 597, 0.00, 6.55, 0.000000, 0.00, 0, 32, 597, 0
DU32, 7, 82041
CURR, 597, 117446, 1072, 1407, 4732, 86.52208
ATT, -1.51, -0.90, -0.60, -0.89, 0.00, 59.63, 63.65
CTUN, 598, 0.00, 6.48, 0.000000, 0.00, 0, 34, 597, 0
GPS, 3, 460877600, 10, 1.67, -33.7840412, 151.0682089, 6.62, 98.53, 0.53, 55.69
ATT, -2.20, -1.34, -0.12, 0.00, 0.00, 59.42, 63.65
CTUN, 599, 0.00, 6.47, 0.000000, 0.00, 0, 36, 599, 0
ATT, -2.09, -1.73, 0.00, 0.25, 0.00, 59.33, 63.65
CTUN, 599, 0.00, 6.62, 0.000000, 0.00, 0, 37, 598, 0
GPS, 3, 460877800, 10, 1.67, -33.7840404, 151.0682097, 6.68, 98.58, 0.47, 48.58
CTUN, 599, 0.00, 6.65, 0.000000, 0.00, 0, 38, 599, 0
ATT, -0.81, -1.97, 0.00, 0.47, 0.00, 59.25, 63.65
MODE, ALT_HOLD, 600
CTUN, 597, 0.00, 6.78, 7.120000, 0.00, 0, 39, 601, 0
ATT, 0.00, -1.66, 0.00, 0.15, 0.00, 59.18, 63.65
GPS, 3, 460878000, 10, 1.67, -33.7840397, 151.0682106, 6.76, 98.64, 0.49, 47.63
CTUN, 598, 0.00, 6.70, 7.120000, 0.00, 0, 39, 586, 0
ATT, 0.00, -1.02, 0.00, 0.17, 0.00, 59.07, 63.65
CTUN, 597, 0.00, 6.72, 7.120000, 0.00, 0, 39, 570, 0
ATT, 0.00, -0.14, 0.00, 0.10, 0.00, 58.99, 63.65
GPS, 3, 460878200, 10, 1.67, -33.7840388, 151.0682111, 6.83, 98.68, 0.43, 30.46
CTUN, 598, 0.00, 6.78, 7.120000, 0.00, 0, 34, 580, 0
ATT, 0.00, 0.34, 0.00, 0.03, 0.00, 58.99, 63.65
CTUN, 597, 0.00, 6.77, 7.120000, 0.00, 0, 28, 583, 0
ATT, 0.00, 0.75, 0.00, -0.05, 0.00, 59.07, 63.65
GPS, 3, 460878400, 10, 1.67, -33.7840381, 151.0682116, 6.88, 98.67, 0.40, 27.33
CTUN, 599, 0.00, 6.97, 7.120000, 0.00, 0, 22, 588, 0
DU32, 7, 82041
CURR, 599, 123341, 1071, 1349, 4732, 90.68657
ATT, 0.00, 0.86, 0.00, -0.08, 0.00, 59.19, 63.65
CTUN, 599, 0.00, 6.94, 7.120000, 0.00, 0, 18, 598, 0
ATT, 0.00, 1.06, 0.00, -0.09, 0.00, 59.27, 63.65
GPS, 3, 460878600, 10, 1.67, -33.7840373, 151.0682119, 6.92, 98.67, 0.40, 22.87
CTUN, 599, 0.00, 6.77, 7.120000, 0.00, 0, 18, 590, 0
ATT, 0.00, 1.20, 0.00, 0.00, 0.00, 59.32, 63.65
CTUN, 599, 0.00, 6.82, 7.120000, 0.00, 0, 17, 590, 0
GPS, 3, 460878800, 10, 1.67, -33.7840367, 151.0682122, 6.95, 98.69, 0.26, 21.10
ATT, 0.00, 1.17, 0.00, 0.17, 0.00, 59.30, 63.65
CTUN, 597, 0.00, 6.84, 7.120000, 0.00, 0, 16, 593, 0
ATT, 0.00, 1.10, 0.00, 0.24, 0.00, 59.29, 63.65
CTUN, 597, 0.00, 6.95, 7.120000, 0.00, 0, 13, 609, 0
GPS, 3, 460879000, 10, 1.67, -33.7840363, 151.0682124, 6.97, 98.69, 0.16, 21.10
ATT, 0.00, 0.80, 0.00, 0.25, 0.00, 59.32, 63.65
CTUN, 599, 0.00, 6.98, 7.120000, 0.00, 0, 12, 605, 0
ATT, 0.00, 0.54, 0.00, 0.14, 0.00, 59.35, 63.65
CTUN, 597, 0.00, 6.83, 7.120000, 0.00, 0, 14, 591, 0
GPS, 3, 460879200, 10, 1.67, -33.7840362, 151.0682125, 6.99, 98.70, 0.10, 21.10
ATT, 0.00, 0.64, 0.00, 0.18, 0.00, 59.36, 63.65
CTUN, 599, 0.00, 6.79, 7.120000, 0.00, 0, 14, 594, 0
ATT, 0.00, 0.63, 0.00, 0.22, 0.00, 59.39, 63.65
CTUN, 597, 0.00, 6.83, 7.120000, 0.00, 0, 13, 599, 0
GPS, 3, 460879400, 10, 1.67, -33.7840363, 151.0682124, 6.99, 98.72, 0.04, 21.10
ATT, 0.00, 0.34, 0.00, 0.08, 0.00, 59.48, 63.65
CTUN, 599, 0.00, 6.91, 7.120000, 0.00, 0, 11, 606, 0
DU32, 7, 82041
CURR, 599, 129322, 1068, 1418, 4693, 94.68324
ATT, 0.00, 0.09, 0.00, 0.03, 0.00, 59.56, 63.65
CTUN, 599, 0.00, 6.92, 7.120000, 0.00, 0, 9, 614, 0
GPS, 3, 460879600, 10, 1.67, -33.7840365, 151.0682122, 7.00, 98.72, 0.05, 21.10
ATT, 0.00, 0.16, 0.00, 0.04, 0.00, 59.62, 63.65
CTUN, 599, 0.00, 6.83, 7.120000, 0.00, 0, 10, 608, 0
ATT, 0.00, 0.13, 0.00, 0.04, 0.00, 59.66, 63.65
CTUN, 598, 0.00, 6.84, 7.120000, 0.00, 0, 13, 593, 0
GPS, 3, 460879800, 10, 1.67, -33.7840368, 151.0682118, 7.01, 98.73, 0.11, 21.10
ATT, 0.00, 0.00, 0.00, 0.00, 0.00, 59.74, 63.65
CTUN, 597, 0.00, 6.96, 7.120000, 0.00, 0, 12, 605, 0
ATT, 0.00, -0.15, 0.00, -0.30, 0.00, 59.86, 63.65
CTUN, 599, 0.00, 6.92, 7.120000, 0.00, 0, 11, 604, 0
GPS, 3, 460880000, 10, 1.67, -33.7840370, 151.0682114, 7.02, 98.72, 0.14, 21.10
ATT, 0.00, -0.34, 0.00, -0.50, 0.00, 59.98, 63.65
CTUN, 599, 0.00, 6.97, 7.120000, 0.00, 0, 9, 615, 0
ATT, 0.00, -0.34, 0.00, -0.52, 0.00, 60.11, 63.65
CTUN, 599, 0.00, 6.92, 7.120000, 0.00, 0, 9, 604, 0
GPS, 3, 460880200, 10, 1.67, -33.7840371, 151.0682111, 7.03, 98.71, 0.17, 21.10
ATT, 0.00, -0.36, 0.00, -0.38, 0.00, 60.25, 63.65
CTUN, 597, 0.00, 6.90, 7.120000, 0.00, 0, 10, 601, 0
ATT, 0.00, -0.32, 0.00, -0.31, 0.00, 60.38, 63.65
CTUN, 597, 0.00, 6.94, 7.120000, 0.00, 0, 10, 602, 0
MODE, LOITER, 600
NTUN, 0.00, 0.00, 0.000000, 0.000000, 0.000000, 0.000000, -4.881737, -16.06063, 0.000000, 0.000000, -0.27, -0.32
GPS, 3, 460880400, 10, 1.67, -33.7840372, 151.0682107, 7.04, 98.73, 0.16, 21.10
CTUN, 599, 0.00, 6.99, 7.120000, 0.00, 0, 10, 604, 0
ATT, 0.00, -0.44, 0.00, -0.37, 0.00, 60.59, 63.65
NTUN, 0.00, 0.57, 1.427597, 1.345093, -0.761658, -11.52504, -6.066142, -17.55615, 43.48413, 47.12640, 0.00, 0.00
DU32, 7, 82041
CURR, 599, 134768, 1070, 1408, 4712, 98.48564
CTUN, 599, 0.00, 6.95, 7.120000, 0.00, 0, 9, 608, 0
GPS, 3, 460880600, 10, 1.67, -33.7840374, 151.0682102, 7.05, 98.73, 0.21, 21.10
NTUN, 0.00, 0.57, 3.136551, 3.126129, 3.136551, -6.664847, -5.853194, -18.47113, 46.98209, 59.60192, -0.86, -3.64
ATT, 0.00, -0.43, 0.00, -1.49, 0.00, 60.75, 63.65
CTUN, 598, 0.00, 7.04, 7.120000, 0.00, 0, 5, 617, 0
NTUN, 0.04, 0.48, 4.423981, 4.771393, 4.423981, -2.078990, -5.079141, -18.50012, 22.87430, 62.85857, 0.62, -3.85
ATT, 0.00, -0.98, 0.00, -3.02, 0.00, 60.86, 63.65
CTUN, 599, 0.00, 6.90, 7.120000, 0.00, 0, 5, 619, 0
GPS, 3, 460880800, 10, 1.67, -33.7840375, 151.0682097, 7.05, 98.72, 0.25, 21.10
NTUN, 0.06, 0.49, 5.850998, 7.137573, 5.850998, 3.067375, -3.136380, -15.78092, 24.41431, 73.98348, 0.85, -4.46
CTUN, 598, 0.00, 7.09, 7.120000, 0.00, 0, 3, 613, 0
NTUN, 0.11, 0.54, 6.688980, 9.033325, 6.688980, 7.646286, -1.269198, -12.27929, 17.37982, 69.78911, 1.09, -4.04
ATT, 0.00, 0.17, 0.00, -3.50, 0.00, 60.84, 63.65
CTUN, 599, 0.00, 7.00, 7.120000, 0.00, 0, 6, 614, 0
GPS, 3, 460881000, 10, 1.67, -33.7840377, 151.0682093, 7.05, 98.72, 0.19, 21.10
NTUN, 0.13, 0.56, 7.535889, 11.09589, 7.535889, 11.09589, -0.153836, -8.361059, 17.46909, 58.49601, 0.77, -3.47
CTUN, 599, 0.00, 6.99, 7.120000, 0.00, 1, 6, 608, 0
ATT, 0.00, 0.41, 0.00, -3.77, 0.00, 60.85, 63.65
NTUN, 0.14, 0.56, 8.144836, 12.32791, 8.144836, 12.32791, 0.847171, -4.144399, 15.08948, 35.32025, 0.23, -2.23
CTUN, 598, 0.00, 7.01, 7.120000, 0.00, 0, 7, 611, 0
GPS, 3, 460881200, 10, 1.67, -33.7840380, 151.0682091, 7.06, 98.72, 0.10, 21.10
ATT, 0.00, 0.23, 0.00, -2.99, 0.00, 60.82, 63.65
CTUN, 599, 0.00, 6.98, 7.120000, 0.00, 0, 7, 609, 0
NTUN, 0.16, 0.56, 8.811661, 13.40002, 8.811661, 13.40002, 0.947976, -0.916894, 15.73560, 32.82943, 0.13, -2.12
ATT, 0.00, 0.12, 0.00, -2.48, 0.00, 60.71, 63.65
CTUN, 598, 0.00, 7.03, 7.120000, 0.00, 0, 6, 620, 0
NTUN, 0.16, 0.54, 9.499359, 13.86362, 9.499359, 13.86362, 1.913442, 0.233023, 17.80890, 25.59002, -0.17, -1.81
GPS, 3, 460881400, 10, 1.67, -33.7840384, 151.0682090, 7.07, 98.72, 0.06, 21.10
CTUN, 599, 0.00, 7.07, 7.120000, 0.00, 0, 6, 607, 0
NTUN, 0.17, 0.52, 11.27716, 14.32660, 11.27716, 14.32660, 1.825308, 1.642381, 19.40405, 23.46205, -0.31, -1.75
ATT, 0.00, -0.39, 0.00, -2.16, 0.00, 60.29, 63.65
CTUN, 598, 0.00, 7.13, 7.120000, 0.00, 0, 5, 597, 0
GPS, 3, 460881600, 10, 1.67, -33.7840387, 151.0682090, 7.08, 98.75, 0.06, 21.10
