dump 2

ArduCopter V3.1-rc2
Free RAM: 1157
APM 2
FMT, 128, 89, FMT, BBnNZ, Type,Length,Name,Format
FMT, 129, 23, PARM, Nf, Name,Value
FMT, 130, 35, GPS, BIBcLLeeEe, Status,Time,NSats,HDop,Lat,Lng,RelAlt,Alt,Spd,GCrs
FMT, 131, 27, IMU, ffffff, GyrX,GyrY,GyrZ,AccX,AccY,AccZ
FMT, 132, 67, MSG, Z, Message
FMT, 9, 19, CURR, hIhhhf, Thr,ThrInt,Volt,Curr,Vcc,CurrTot
FMT, 11, 11, MOT, hhhh, Mot1,Mot2,Mot3,Mot4
FMT, 12, 28, OF, hhBccffee, Dx,Dy,SQual,X,Y,Lat,Lng,Roll,Pitch
FMT, 5, 49, NTUN, Ecffffffffee, WPDst,WPBrg,PErX,PErY,DVelX,DVelY,VelX,VelY,DAcX,DAcY,DRol,DPit
FMT, 4, 25, CTUN, hcefchhhh, ThrIn,SonAlt,BarAlt,WPAlt,DesSonAlt,AngBst,CRate,ThrOut,DCRate
FMT, 15, 21, MAG, hhhhhhhhh, MagX,MagY,MagZ,OfsX,OfsY,OfsZ,MOfsX,MOfsY,MOfsZ
FMT, 6, 17, PM, BBBHHIhB, RenCnt,RenBlw,FixCnt,NLon,NLoop,MaxT,PMT,I2CErr
FMT, 8, 20, CMD, BBBBBeLL, CTot,CNum,CId,COpt,Prm1,Alt,Lat,Lng
FMT, 1, 17, ATT, cccccCC, RollIn,Roll,PitchIn,Pitch,YawIn,Yaw,NavYaw
FMT, 17, 37, INAV, cccfffiiff, BAlt,IAlt,IClb,ACorrX,ACorrY,ACorrZ,GLat,GLng,ILat,ILng
FMT, 3, 6, MODE, Mh, Mode,ThrCrs
FMT, 10, 3, STRT, , 
FMT, 13, 4, EV, B, Id
FMT, 20, 6, D16, Bh, Id,Value
FMT, 21, 6, DU16, BH, Id,Value
FMT, 22, 8, D32, Bi, Id,Value
FMT, 23, 8, DU32, BI, Id,Value
FMT, 24, 8, DFLT, Bf, Id,Value
FMT, 14, 28, PID, Biiiiif, Id,Error,P,I,D,Out,Gain
FMT, 16, 15, DMP, ccccCC, DCMRoll,DMPRoll,DCMPtch,DMPPtch,DCMYaw,DMPYaw
FMT, 18, 25, CAM, ILLeccC, GPSTime,Lat,Lng,Alt,Roll,Pitch,Yaw
FMT, 19, 5, ERR, BB, Subsys,ECode
D32, 9, 5636
CMD, 6, 0, 16, 0, 0, 0.00, -33.7840382, 151.0682260
EV, 10
GPS, 3, 544567000, 9, 1.65, -33.7840382, 151.0682258, -0.32, 93.75, 0.04, 141.50
CTUN, 0, 0.00, 0.06, 0.000000, 0.00, 0, -6, 0, 0
ATT, 0.00, -1.02, 0.00, 1.12, 0.00, 56.37, 56.37
GPS, 3, 544574400, 9, 1.65, -33.7840393, 151.0682212, -0.31, 94.66, 0.02, 141.50
CTUN, 0, 0.00, 0.03, 0.000000, 0.00, 0, -6, 0, 0
ATT, 0.00, -1.17, 0.00, 1.05, 0.00, 56.34, 56.34
CTUN, 0, 0.00, -0.01, 0.000000, 0.00, 0, -5, 0, 0
ATT, 0.00, -1.15, 0.00, 1.05, 0.00, 56.35, 56.35
GPS, 3, 544574600, 9, 1.65, -33.7840393, 151.0682210, -0.28, 94.69, 0.02, 141.50
CTUN, 0, 0.00, -0.01, 0.000000, 0.00, 0, -5, 0, 0
ATT, 0.00, -1.14, 0.00, 1.06, 0.00, 56.36, 56.36
CTUN, 0, 0.00, 0.00, 0.000000, 0.00, 0, -5, 0, 0
ATT, 0.00, -1.15, 0.00, 1.07, 0.00, 56.36, 56.36
GPS, 3, 544574800, 9, 1.65, -33.7840390, 151.0682208, -0.26, 94.75, 0.03, 141.50
CTUN, 0, 0.00, -0.06, 0.000000, 0.00, 0, -5, 0, 0
DU32, 7, 98393
CURR, 0, 0, 1211, 64, 4752, 1.051325
ATT, 0.00, -1.16, 0.00, 1.08, 0.00, 56.37, 56.37
CTUN, 0, 0.00, 0.00, 0.000000, 0.00, 0, -5, 0, 0
ATT, 0.00, -1.17, 0.00, 1.08, 0.00, 56.38, 56.38
GPS, 3, 544575000, 9, 1.65, -33.7840389, 151.0682206, -0.24, 94.81, 0.01, 141.50
CTUN, 0, 0.00, 0.02, 0.000000, 0.00, 0, -5, 0, 0
ATT, 0.00, -1.18, 0.00, 1.07, 0.00, 56.39, 56.39
CTUN, 0, 0.00, 0.00, 0.000000, 0.00, 0, -4, 0, 0
ATT, 0.00, -1.18, 0.00, 1.09, 0.00, 56.41, 56.41
GPS, 3, 544575200, 10, 1.57, -33.7840388, 151.0682205, -0.22, 94.86, 0.02, 141.50
CTUN, 0, 0.00, -0.05, 0.000000, 0.00, 0, -4, 0, 0
ATT, 0.00, -1.18, 0.00, 1.10, 0.00, 56.41, 56.41
CTUN, 0, 0.00, 0.11, 0.000000, 0.00, 0, -4, 0, 0
ATT, 0.00, -1.18, 0.00, 1.10, 0.00, 56.42, 56.42
GPS, 3, 544575400, 10, 1.57, -33.7840387, 151.0682202, -0.20, 94.92, 0.02, 141.50
CTUN, 0, 0.00, -0.11, 0.000000, 0.00, 0, -4, 0, 0
ATT, 0.00, -1.17, 0.00, 1.10, 0.00, 56.43, 56.43
CTUN, 0, 0.00, -0.08, 0.000000, 0.00, 0, -4, 0, 0
ATT, 0.00, -1.19, 0.00, 1.11, 0.00, 56.42, 56.42
GPS, 3, 544575600, 10, 1.57, -33.7840385, 151.0682200, -0.19, 95.00, 0.01, 141.50
CTUN, 0, 0.00, -0.10, 0.000000, 0.00, 0, -3, 0, 0
ATT, 0.00, -1.20, 0.00, 1.13, 0.00, 56.43, 56.43
CTUN, 0, 0.00, -0.08, 0.000000, 0.00, 0, -3, 0, 0
PM, 0, 0, 50, 3, 1000, 7347620, 0, 4
ATT, 0.00, -1.20, 0.00, 1.13, 0.00, 56.43, 56.43
GPS, 3, 544575800, 10, 1.57, -33.7840383, 151.0682198, -0.19, 95.05, 0.01, 141.50
CTUN, 0, 0.00, 0.01, 0.000000, 0.00, 0, -3, 0, 0
DU32, 7, 98393
CURR, 0, 0, 1212, 66, 4813, 1.226470
ATT, 0.00, -1.20, 0.00, 1.12, 0.00, 56.43, 56.43
CTUN, 0, 0.00, 0.01, 0.000000, 0.00, 0, -3, 0, 0
ATT, 0.00, -1.21, 0.00, 1.13, 0.00, 56.44, 56.44
GPS, 3, 544576000, 10, 1.57, -33.7840382, 151.0682196, -0.18, 95.10, 0.01, 141.50
CTUN, 0, 0.00, 0.01, 0.000000, 0.00, 0, -3, 0, 0
ATT, 0.00, -1.21, 0.00, 1.14, 0.00, 56.45, 56.45
CTUN, 0, 0.00, -0.08, 0.000000, 0.00, 0, -3, 0, 0
ATT, 0.00, -1.22, 0.00, 1.13, 0.00, 56.45, 56.45
GPS, 3, 544576200, 10, 1.57, -33.7840380, 151.0682193, -0.16, 95.14, 0.02, 141.50
CTUN, 0, 0.00, -0.07, 0.000000, 0.00, 0, -3, 0, 0
ATT, 0.00, -1.22, 0.00, 1.14, 0.00, 56.46, 56.46
CTUN, 0, 0.00, 0.00, 0.000000, 0.00, 0, -3, 0, 0
ATT, 0.00, -1.22, 0.00, 1.15, 0.00, 56.47, 56.47
GPS, 3, 544576400, 10, 1.57, -33.7840378, 151.0682191, -0.16, 95.18, 0.01, 141.50
CTUN, 0, 0.00, -0.07, 0.000000, 0.00, 0, -3, 0, 0
ATT, 0.00, -1.23, 0.00, 1.14, 0.00, 56.47, 56.47
CTUN, 0, 0.00, -0.05, 0.000000, 0.00, 0, -2, 0, 0
ATT, 0.00, -1.23, 0.00, 1.14, 0.00, 56.48, 56.48
GPS, 3, 544576600, 10, 1.57, -33.7840376, 151.0682188, -0.15, 95.22, 0.01, 141.50
CTUN, 0, 0.00, 0.07, 0.000000, 0.00, 0, -2, 0, 0
ATT, 0.00, -1.22, 0.00, 1.16, 0.00, 56.49, 56.49
CTUN, 0, 0.00, -0.11, 0.000000, 0.00, 0, -2, 0, 0
ATT, 0.00, -1.23, 0.00, 1.17, 0.00, 56.50, 56.50
GPS, 3, 544576800, 10, 1.57, -33.7840374, 151.0682185, -0.14, 95.27, 0.05, 141.50
CTUN, 0, 0.00, -0.08, 0.000000, 0.00, 0, -2, 0, 0
DU32, 7, 98393
CURR, 0, 0, 1214, 66, 4752, 1.401539
ATT, 0.00, -1.24, 0.00, 1.17, 0.00, 56.50, 56.50
CTUN, 0, 0.00, 0.04, 0.000000, 0.00, 0, -2, 0, 0
ATT, 0.00, -1.27, 0.00, 1.18, 0.00, 56.51, 56.51
GPS, 3, 544577000, 10, 1.57, -33.7840372, 151.0682183, -0.13, 95.33, 0.01, 141.50
CTUN, 0, 0.00, -0.01, 0.000000, 0.00, 0, -2, 0, 0
ATT, 0.00, -1.27, 0.00, 1.18, 0.00, 56.51, 56.51
CTUN, 0, 0.00, 0.02, 0.000000, 0.00, 0, -2, 0, 0
ATT, 0.00, -1.25, 0.00, 1.18, 0.00, 56.52, 56.52
GPS, 3, 544577200, 10, 1.57, -33.7840371, 151.0682181, -0.12, 95.39, 0.03, 141.50
CTUN, 0, 0.00, -0.04, 0.000000, 0.00, 0, -2, 0, 0
ATT, 0.00, -1.24, 0.00, 1.19, 0.00, 56.52, 56.52
EV, 15
CTUN, 155, 0.00, -0.10, 0.000000, 0.00, 0, -2, 149, 0
EV, 28
ATT, 0.00, -1.23, 0.00, 1.19, 0.00, 56.53, 56.53
GPS, 3, 544577400, 10, 1.57, -33.7840369, 151.0682180, -0.12, 95.44, 0.02, 141.50
CTUN, 184, 0.00, -0.14, 0.000000, 0.00, 0, -2, 160, 0
ATT, 0.00, -1.25, 0.00, 1.18, 0.00, 56.52, 56.53
CTUN, 204, 0.00, -0.37, 0.000000, 0.00, 0, -2, 204, 0
ATT, 0.00, -1.27, 0.00, 1.18, 0.00, 56.53, 56.53
GPS, 3, 544577600, 10, 1.57, -33.7840367, 151.0682177, -0.13, 95.50, 0.05, 141.50
CTUN, 214, 0.00, -0.33, 0.000000, 0.00, 0, -2, 214, 0
ATT, 0.00, -1.27, 0.00, 1.19, 0.00, 56.55, 56.53
CTUN, 214, 0.00, -0.47, 0.000000, 0.00, 0, -2, 214, 0
ATT, 0.00, -1.33, 0.00, 1.20, 0.00, 56.57, 56.53
GPS, 3, 544577800, 10, 1.57, -33.7840365, 151.0682175, -0.17, 95.55, 0.02, 141.50
CTUN, 213, 0.00, -0.64, 0.000000, 0.00, 0, -3, 213, 0
DU32, 7, 65657
CURR, 214, 1139, 1195, 345, 4772, 1.984787
ATT, 0.00, -1.31, 0.00, 1.18, 0.00, 56.59, 56.53
CTUN, 214, 0.00, -0.74, 0.000000, 0.00, 0, -3, 214, 0
GPS, 3, 544578000, 10, 1.57, -33.7840362, 151.0682173, -0.23, 95.58, 0.10, 141.50
ATT, 0.00, -1.28, 0.00, 1.19, 0.00, 56.60, 56.53
CTUN, 213, 0.00, -0.42, 0.000000, 0.00, 0, -4, 214, 0
ATT, 0.00, -1.31, 0.00, 1.18, 0.00, 56.61, 56.53
CTUN, 214, 0.00, -0.62, 0.000000, 0.00, 0, -5, 213, 0
GPS, 3, 544578200, 11, 1.50, -33.7840360, 151.0682171, -0.28, 95.63, 0.04, 141.50
ATT, 0.00, -1.39, 0.00, 1.21, 0.00, 56.63, 56.53
CTUN, 213, 0.00, -0.50, 0.000000, 0.00, 0, -5, 212, 0
ATT, 0.00, -1.36, 0.00, 1.20, 0.00, 56.63, 56.53
CTUN, 240, 0.00, -0.54, 0.000000, 0.00, 0, -5, 240, 0
GPS, 3, 544578400, 10, 1.57, -33.7840359, 151.0682170, -0.31, 95.67, 0.02, 141.50
CTUN, 313, 0.00, -0.51, 0.000000, 0.00, 0, -6, 290, 0
ATT, 0.00, -1.37, 0.00, 1.20, 0.00, 56.62, 56.53
CTUN, 370, 0.00, -0.74, 0.000000, 0.00, 0, -5, 358, 0
ATT, 0.00, -1.33, 0.00, 1.20, 0.00, 56.61, 56.53
GPS, 3, 544578600, 10, 1.57, -33.7840357, 151.0682168, -0.36, 95.72, 0.02, 141.50
CTUN, 385, 0.00, -0.79, 0.000000, 0.00, 0, -5, 385, 0
ATT, 0.00, -1.34, 0.00, 1.20, 0.00, 56.62, 56.53
CTUN, 385, 0.00, -0.82, 0.000000, 0.00, 0, -6, 385, 0
ATT, 0.00, -1.37, 0.00, 1.20, 0.00, 56.64, 56.53
GPS, 3, 544578800, 11, 1.50, -33.7840353, 151.0682166, -0.42, 95.74, 0.12, 141.50
CTUN, 385, 0.00, -0.73, 0.000000, 0.00, 0, -6, 384, 0
DU32, 7, 65657
CURR, 414, 3749, 1175, 746, 4732, 3.374094
ATT, 0.00, -1.38, 0.00, 1.20, 0.00, 56.64, 56.53
CTUN, 457, 0.00, -0.98, 0.000000, 0.00, 0, -7, 443, 0
EV, 16
GPS, 3, 544579000, 11, 1.50, -33.7840349, 151.0682162, -0.48, 95.76, 0.20, 141.50
ATT, 0.00, -1.42, 0.00, 1.13, 0.00, 56.47, 56.53
CTUN, 502, 0.00, -1.09, 0.000000, 0.00, 0, -8, 498, 0
ATT, 0.00, -1.43, 0.00, 1.10, 0.00, 55.56, 56.53
CTUN, 541, 0.00, -1.07, 0.000000, 0.00, 0, -7, 529, 0
GPS, 3, 544579200, 11, 1.50, -33.7840347, 151.0682160, -0.56, 95.82, 0.06, 141.50
ATT, 0.00, 0.64, 0.00, 1.42, 0.00, 53.59, 56.53
CTUN, 597, 0.00, -1.19, 0.000000, 0.00, 0, -1, 582, 0
ATT, 0.00, 1.71, 0.00, 2.20, 0.00, 51.63, 56.53
CTUN, 609, 0.00, -1.52, 0.000000, 0.00, 0, 11, 609, 0
GPS, 3, 544579400, 11, 1.50, -33.7840342, 151.0682157, -0.63, 95.83, 0.23, 141.50
CTUN, 628, 0.00, -0.85, 0.000000, 0.00, 0, 30, 628, 0
ATT, 0.00, 2.61, 0.00, 2.44, 0.00, 49.25, 56.53
CTUN, 628, 0.00, -0.45, 0.000000, 0.00, 1, 45, 629, 0
ATT, 0.00, 2.68, 0.00, 2.73, 0.00, 47.53, 56.53
GPS, 3, 544579600, 10, 1.57, -33.7840335, 151.0682150, -0.59, 95.73, 0.38, 141.50
CTUN, 628, 0.00, -0.08, 0.000000, 0.00, 1, 60, 629, 0
ATT, 0.00, 2.70, 0.00, 3.03, 0.00, 45.82, 55.82
CTUN, 628, 0.00, 0.18, 0.000000, 0.00, 0, 73, 628, 0
ATT, -0.23, 1.97, 0.00, 2.31, 0.00, 44.62, 54.62
GPS, 3, 544579800, 11, 1.50, -33.7840326, 151.0682126, -0.40, 95.78, 0.88, 204.96
CTUN, 628, 0.00, 0.27, 0.000000, 0.00, 0, 83, 627, 0
ATT, -4.06, 1.36, -0.84, 1.89, 0.00, 43.08, 53.08
DU32, 7, 82041
CURR, 604, 8959, 1125, 1614, 4732, 7.244482
CTUN, 582, 0.00, 0.41, 0.000000, 0.00, 0, 91, 604, 0
GPS, 3, 544580000, 11, 1.50, -33.7840323, 151.0682106, -0.16, 95.82, 0.94, 241.98
ATT, -12.55, -2.24, -3.27, 1.35, 0.00, 41.74, 51.74
CTUN, 578, 0.00, 0.56, 0.000000, 0.00, 0, 94, 578, 0
ATT, -11.51, -7.20, -5.09, -1.23, 0.00, 41.33, 51.33
CTUN, 563, 0.00, 0.62, 0.000000, 0.00, 4, 91, 577, 0
GPS, 3, 544580200, 11, 1.50, -33.7840325, 151.0682093, 0.10, 95.81, 0.65, 241.98
ATT, -12.90, -9.29, -6.06, -4.36, 0.00, 41.22, 51.22
CTUN, 553, 0.00, 0.73, 0.000000, 0.00, 6, 87, 559, 0
ATT, -10.11, -9.45, -8.00, -5.64, 0.00, 41.06, 51.06
CTUN, 553, 0.00, 0.82, 0.000000, 0.00, 7, 81, 560, 0
GPS, 3, 544580400, 12, 1.42, -33.7840327, 151.0682083, 0.33, 95.78, 0.49, 241.98
CTUN, 553, 0.00, 0.97, 0.000000, 0.00, 8, 74, 561, 0
ATT, -5.81, -7.82, -12.85, -8.15, 0.00, 41.09, 51.06
CTUN, 551, 0.00, 1.11, 0.000000, 0.00, 9, 69, 562, 0
ATT, -3.13, -4.83, -14.07, -11.09, 0.00, 41.07, 51.06
GPS, 3, 544580600, 12, 1.42, -33.7840326, 151.0682075, 0.54, 95.95, 0.45, 241.98
CTUN, 551, 0.00, 1.13, 0.000000, 0.00, 10, 63, 561, 0
ATT, -2.20, -1.61, -13.70, -12.70, 0.00, 40.76, 50.76
CTUN, 552, 0.00, 1.21, 0.000000, 0.00, 11, 58, 564, 0
ATT, -0.11, 0.50, -14.07, -13.13, 0.00, 40.34, 50.34
GPS, 3, 544580800, 12, 1.42, -33.7840324, 151.0682066, 0.73, 96.11, 0.43, 241.98
CTUN, 565, 0.00, 1.23, 0.000000, 0.00, 12, 54, 577, 0
ATT, -0.46, 2.27, -14.07, -12.91, 0.00, 39.68, 49.68
DU32, 7, 82041
CURR, 570, 14091, 1133, 1373, 4693, 11.08700
CTUN, 574, 0.00, 1.26, 0.000000, 0.00, 11, 51, 582, 0
GPS, 3, 544581000, 12, 1.42, -33.7840317, 151.0682062, 0.88, 96.17, 0.17, 241.98
ATT, -0.46, 2.52, -12.61, -12.00, 0.00, 38.90, 48.90
CTUN, 585, 0.00, 1.31, 0.000000, 0.00, 10, 51, 594, 0
ATT, -0.46, 2.67, -11.28, -10.55, 0.00, 38.18, 48.18
CTUN, 590, 0.00, 1.45, 0.000000, 0.00, 8, 52, 596, 0
GPS, 3, 544581200, 12, 1.42, -33.7840307, 151.0682067, 1.04, 96.17, 0.49, 326.40
ATT, -0.46, 2.23, -8.49, -8.98, 0.00, 37.15, 47.15
CTUN, 596, 0.00, 1.34, 0.000000, 0.00, 6, 56, 601, 0
ATT, -0.46, 1.72, -6.54, -7.51, 0.00, 36.38, 46.38
CTUN, 594, 0.00, 1.48, 0.000000, 0.00, 4, 61, 598, 0
GPS, 3, 544581400, 12, 1.42, -33.7840295, 151.0682081, 1.20, 96.23, 0.74, 21.40
CTUN, 594, 0.00, 1.52, 0.000000, 0.00, 2, 64, 596, 0
ATT, -1.16, 2.06, -5.33, -4.83, 0.00, 35.72, 45.72
CTUN, 594, 0.00, 1.69, 0.000000, 0.00, 1, 67, 595, 0
ATT, -1.39, 1.93, -4.60, -3.22, 0.00, 35.38, 45.38
GPS, 3, 544581600, 12, 1.42, -33.7840281, 151.0682097, 1.37, 96.30, 0.96, 41.63
CTUN, 594, 0.00, 1.73, 0.000000, 0.00, 0, 68, 594, 0
ATT, -1.74, 1.66, -4.24, -2.55, 0.00, 35.12, 45.12
CTUN, 557, 0.00, 1.84, 0.000000, 0.00, 0, 71, 563, 0
ATT, -2.32, 1.46, -2.91, -2.21, 0.00, 35.04, 45.03
GPS, 3, 544581800, 12, 1.42, -33.7840275, 151.0682116, 1.55, 96.32, 0.94, 54.57
CTUN, 555, 0.00, 1.97, 0.000000, 0.00, 0, 68, 555, 0
ATT, -5.34, 0.74, -1.45, -1.20, 0.00, 35.14, 45.03
DU32, 7, 82041
CURR, 556, 19385, 1131, 1311, 4732, 15.13235
CTUN, 556, 0.00, 2.14, 0.000000, 0.00, 0, 61, 556, 0
GPS, 3, 544582000, 12, 1.42, -33.7840267, 151.0682140, 1.72, 96.38, 1.16, 66.61
ATT, -6.97, -1.12, -1.45, 0.39, 0.00, 34.47, 44.47
CTUN, 557, 0.00, 2.17, 0.000000, 0.00, 0, 57, 557, 0
ATT, -7.32, -4.62, -1.45, -0.17, 0.00, 33.52, 43.52
CTUN, 556, 0.00, 2.09, 0.000000, 0.00, 1, 55, 557, 0
GPS, 3, 544582200, 12, 1.42, -33.7840263, 151.0682165, 1.88, 96.44, 1.14, 74.08
ATT, -9.41, -7.96, 0.00, -1.85, 0.00, 32.27, 42.27
CTUN, 556, 0.00, 2.01, 0.000000, 0.00, 4, 51, 560, 0
ATT, -10.69, -8.96, 0.00, -1.44, 0.00, 31.10, 41.10
CTUN, 558, 0.00, 2.12, 0.000000, 0.00, 5, 50, 561, 0
GPS, 3, 544582400, 10, 1.57, -33.7840263, 151.0682187, 2.00, 96.21, 1.12, 75.08
CTUN, 556, 0.00, 2.21, 0.000000, 0.00, 5, 48, 561, 0
ATT, -8.60, -8.76, -0.60, -0.97, 0.00, 29.70, 39.70
CTUN, 558, 0.00, 2.31, 0.000000, 0.00, 5, 48, 563, 0
ATT, -6.74, -8.16, -1.45, -1.39, 0.00, 28.72, 38.72
GPS, 3, 544582600, 10, 1.57, -33.7840267, 151.0682206, 2.12, 96.10, 0.89, 82.30
CTUN, 556, 0.00, 2.36, 0.000000, 0.00, 3, 45, 559, 0
ATT, -6.39, -6.42, -1.33, -1.78, 0.00, 27.56, 37.56
CTUN, 556, 0.00, 2.33, 0.000000, 0.00, 2, 38, 558, 0
ATT, -4.30, -4.72, -1.33, -2.07, 0.00, 26.40, 36.40
GPS, 3, 544582800, 11, 1.48, -33.7840264, 151.0682216, 2.22, 96.11, 0.46, 82.30
CTUN, 558, 0.00, 2.46, 0.000000, 0.00, 1, 35, 557, 0
ATT, -1.86, -2.86, 0.00, -1.87, 0.00, 25.21, 35.21
DU32, 7, 82041
CURR, 556, 24411, 1124, 1345, 4732, 18.89347
CTUN, 556, 0.00, 2.28, 0.000000, 0.00, 0, 30, 556, 0
GPS, 3, 544583000, 11, 1.48, -33.7840257, 151.0682233, 2.30, 96.16, 0.67, 76.55
ATT, 0.00, -0.91, 0.00, -1.96, 0.00, 24.10, 34.10
CTUN, 556, 0.00, 2.49, 0.000000, 0.00, 0, 25, 556, 0
ATT, 0.00, 0.09, 0.00, -1.79, 0.00, 23.11, 33.11
CTUN, 556, 0.00, 2.47, 0.000000, 0.00, 0, 21, 556, 0
GPS, 3, 544583200, 11, 1.50, -33.7840251, 151.0682244, 2.36, 96.07, 0.68, 59.28
ATT, -9.06, 0.81, 0.00, -1.32, 0.00, 21.74, 31.74
CTUN, 556, 0.00, 2.60, 0.000000, 0.00, 0, 17, 556, 0
ATT, -10.11, -3.38, 0.00, -0.09, 0.00, 20.79, 30.79
CTUN, 556, 0.00, 2.57, 0.000000, 0.00, 0, 16, 556, 0
GPS, 3, 544583400, 12, 1.42, -33.7840249, 151.0682256, 2.42, 95.90, 0.76, 56.82
CTUN, 556, 0.00, 2.56, 0.000000, 0.00, 2, 12, 558, 0
ATT, -6.74, -6.69, 0.00, -1.95, 0.00, 20.37, 30.37
CTUN, 556, 0.00, 2.51, 0.000000, 0.00, 3, 8, 560, 0
ATT, -2.09, -6.38, 0.00, -2.65, 0.00, 20.23, 30.23
GPS, 3, 544583600, 11, 1.48, -33.7840248, 151.0682269, 2.45, 95.76, 0.70, 58.67
CTUN, 556, 0.00, 2.54, 0.000000, 0.00, 1, 4, 557, 0
ATT, -1.51, -3.49, 0.00, -2.08, 0.00, 20.01, 30.01
CTUN, 558, 0.00, 2.57, 0.000000, 0.00, 0, 1, 556, 0
ATT, -1.51, -2.74, 0.00, -0.75, 0.00, 19.73, 29.73
GPS, 3, 544583800, 11, 1.48, -33.7840245, 151.0682277, 2.47, 95.67, 0.64, 52.71
CTUN, 556, 0.00, 2.62, 0.000000, 0.00, 0, -1, 556, 0
ATT, -1.27, -3.16, 0.00, 0.09, 0.00, 19.02, 29.02
DU32, 7, 82041
CURR, 556, 29424, 1128, 1335, 4732, 22.61391
CTUN, 556, 0.00, 2.60, 0.000000, 0.00, 0, -9, 556, 0
GPS, 3, 544584000, 11, 1.48, -33.7840242, 151.0682286, 2.47, 95.54, 0.65, 49.89
ATT, -1.16, -4.00, 0.00, -0.21, 3.84, 18.01, 28.01
CTUN, 556, 0.00, 2.51, 0.000000, 0.00, 1, -13, 557, 0
ATT, -1.27, -4.35, 0.00, -0.78, 15.00, 17.72, 27.72
CTUN, 556, 0.00, 2.53, 0.000000, 0.00, 1, -13, 557, 0
GPS, 3, 544584200, 11, 1.48, -33.7840239, 151.0682292, 2.45, 95.36, 0.65, 43.39
ATT, -1.51, -4.48, 0.00, -0.90, 14.52, 19.48, 29.48
CTUN, 556, 0.00, 2.42, 0.000000, 0.00, 1, -6, 557, 0
ATT, -2.55, -3.51, 0.00, -0.28, 14.16, 21.76, 31.76
CTUN, 557, 0.00, 2.50, 0.000000, 0.00, 0, -4, 556, 0
GPS, 3, 544584400, 11, 1.48, -33.7840238, 151.0682295, 2.44, 95.11, 0.54, 36.46
CTUN, 557, 0.00, 2.47, 0.000000, 0.00, 1, -2, 558, 0
ATT, -2.44, -4.17, 0.00, -0.44, 11.52, 24.71, 34.71
CTUN, 557, 0.00, 2.53, 0.000000, 0.00, 1, -3, 558, 0
ATT, -0.93, -5.20, 0.00, -1.15, 5.28, 27.11, 37.10
GPS, 3, 544584600, 10, 1.57, -33.7840236, 151.0682294, 2.44, 94.84, 0.46, 27.23
CTUN, 555, 0.00, 2.39, 0.000000, 0.00, 1, -5, 556, 0
ATT, 0.00, -4.37, 0.00, -1.07, 2.04, 28.86, 38.49
CTUN, 557, 0.00, 2.40, 0.000000, 0.00, 0, -9, 556, 0
ATT, 0.00, -3.40, 0.00, -0.57, 2.04, 29.86, 39.39
GPS, 3, 544584800, 11, 1.48, -33.7840234, 151.0682294, 2.43, 94.58, 0.42, 27.23
CTUN, 557, 0.00, 2.35, 0.000000, 0.00, 0, -11, 557, 0
ATT, 0.00, -1.76, 0.00, -0.33, 2.88, 31.40, 40.62
CTUN, 557, 0.00, 2.39, 0.000000, 0.00, 0, -13, 557, 0
DU32, 7, 82041
CURR, 556, 34996, 1123, 1341, 4693, 26.93651
GPS, 3, 544585000, 10, 1.57, -33.7840232, 151.0682292, 2.40, 94.49, 0.30, 27.23
ATT, -0.46, -0.45, 0.00, 0.63, 12.24, 34.03, 44.03
CTUN, 557, 0.00, 2.36, 0.000000, 0.00, 0, -16, 557, 0
ATT, -0.81, 0.31, 0.00, 1.01, 17.04, 38.37, 48.37
CTUN, 557, 0.00, 2.34, 0.000000, 0.00, 0, -15, 557, 0
GPS, 3, 544585200, 11, 1.48, -33.7840229, 151.0682291, 2.36, 94.50, 0.25, 27.23
ATT, -0.81, 0.39, 0.00, 0.86, 13.92, 46.03, 55.97
CTUN, 557, 0.00, 2.37, 0.000000, 0.00, 0, -16, 557, 0
ATT, -0.58, 0.20, 0.00, 0.46, 6.60, 52.93, 60.02
CTUN, 557, 0.00, 2.31, 0.000000, 0.00, 0, -20, 557, 0
GPS, 3, 544585400, 10, 1.57, -33.7840225, 151.0682286, 2.32, 94.49, 0.32, 27.23
CTUN, 557, 0.00, 2.32, 0.000000, 0.00, 0, -29, 557, 0
ATT, 0.00, 0.29, 0.00, -0.69, 0.12, 59.19, 61.50
CTUN, 557, 0.00, 2.19, 0.000000, 0.00, 0, -34, 557, 0
ATT, 0.00, 0.83, 0.00, -1.05, 0.00, 62.27, 61.50
GPS, 3, 544585600, 11, 1.50, -33.7840225, 151.0682282, 2.26, 94.42, 0.19, 27.23
CTUN, 557, 0.00, 2.06, 0.000000, 0.00, 0, -39, 557, 0
ATT, 0.00, 0.99, 0.00, -1.09, 0.00, 64.16, 61.50
PM, 0, 0, 50, 0, 1000, 10412, 0, 4
CTUN, 557, 0.00, 2.01, 0.000000, 0.00, 0, -47, 557, 0
ATT, 0.00, 1.41, 0.00, -0.81, 0.00, 64.67, 61.50
GPS, 3, 544585800, 11, 1.50, -33.7840223, 151.0682280, 2.14, 94.36, 0.21, 27.23
CTUN, 581, 0.00, 2.05, 0.000000, 0.00, 0, -51, 578, 0
ATT, 0.00, 1.40, 0.00, -0.81, 0.00, 64.30, 61.50
CTUN, 585, 0.00, 2.09, 0.000000, 0.00, 0, -54, 585, 0
DU32, 7, 82041
CURR, 590, 40058, 1120, 1358, 4712, 30.57421
ATT, 0.00, 1.44, 0.00, -0.70, 0.00, 63.35, 61.50
GPS, 3, 544586000, 12, 1.42, -33.7840225, 151.0682281, 2.03, 94.24, 0.14, 27.23
CTUN, 596, 0.00, 1.89, 0.000000, 0.00, 0, -54, 596, 0
ATT, -0.11, 1.52, 0.00, -0.48, 0.00, 62.02, 61.50
CTUN, 599, 0.00, 1.68, 0.000000, 0.00, 0, -54, 598, 0
GPS, 3, 544586200, 12, 1.42, -33.7840238, 151.0682280, 1.90, 93.94, 0.13, 27.23
ATT, -0.46, 1.58, 0.00, -0.24, 0.00, 60.21, 61.50
CTUN, 598, 0.00, 1.76, 0.000000, 0.00, 0, -51, 598, 0
ATT, -1.86, 1.19, 0.00, -0.06, 0.00, 58.70, 61.50
CTUN, 598, 0.00, 1.81, 0.000000, 0.00, 0, -49, 599, 0
GPS, 3, 544586400, 12, 1.42, -33.7840244, 151.0682282, 1.79, 93.84, 0.19, 27.23
CTUN, 598, 0.00, 1.72, 0.000000, 0.00, 0, -46, 597, 0
ATT, -4.18, 0.08, 0.00, 0.05, 0.00, 56.97, 61.50
CTUN, 598, 0.00, 1.61, 0.000000, 0.00, 0, -43, 598, 0
ATT, -7.20, -1.73, -1.33, 0.05, 0.00, 55.74, 61.50
GPS, 3, 544586600, 12, 1.42, -33.7840254, 151.0682283, 1.70, 93.62, 0.21, 27.23
CTUN, 598, 0.00, 1.60, 0.000000, 0.00, 1, -40, 599, 0
ATT, -7.44, -4.53, -1.09, -1.23, 0.00, 54.85, 61.50
CTUN, 598, 0.00, 1.62, 0.000000, 0.00, 2, -37, 600, 0
ATT, -9.41, -6.20, 0.00, -2.03, 0.00, 54.43, 61.50
GPS, 3, 544586800, 12, 1.42, -33.7840260, 151.0682289, 1.61, 93.58, 0.31, 27.23
CTUN, 598, 0.00, 1.55, 0.000000, 0.00, 3, -34, 601, 0
ATT, -9.06, -7.57, 0.00, -1.56, 0.00, 54.07, 61.50
CTUN, 598, 0.00, 1.39, 0.000000, 0.00, 4, -32, 602, 0
DU32, 7, 82041
CURR, 599, 45447, 1105, 1474, 4752, 34.58288
ATT, -7.55, -8.00, 0.00, -1.45, 0.00, 53.90, 61.50
GPS, 3, 544587000, 12, 1.42, -33.7840266, 151.0682292, 1.54, 93.54, 0.32, 72.44
CTUN, 598, 0.00, 1.37, 0.000000, 0.00, 4, -28, 602, 0
ATT, -4.41, -7.51, 0.00, -1.19, 0.00, 53.73, 61.50
CTUN, 598, 0.00, 1.38, 0.000000, 0.00, 3, -25, 601, 0
ATT, -2.55, -5.85, 0.00, -1.16, 0.00, 53.63, 61.50
GPS, 3, 544587200, 12, 1.42, -33.7840265, 151.0682294, 1.47, 93.48, 0.10, 72.44
CTUN, 599, 0.00, 1.41, 0.000000, 0.00, 2, -22, 600, 0
ATT, -1.74, -3.60, 0.00, -1.22, 0.00, 53.80, 61.50
CTUN, 598, 0.00, 1.48, 0.000000, 0.00, 0, -17, 598, 0
GPS, 3, 544587400, 12, 1.42, -33.7840267, 151.0682293, 1.43, 93.47, 0.13, 72.44
ATT, -1.86, -2.53, 0.00, -0.78, 0.00, 54.37, 61.50
CTUN, 598, 0.00, 1.42, 0.000000, 0.00, 0, -13, 598, 0
ATT, -1.86, -2.29, 0.00, -0.80, 0.00, 55.11, 61.50
CTUN, 598, 0.00, 1.40, 0.000000, 0.00, 0, -10, 598, 0
GPS, 3, 544587600, 12, 1.42, -33.7840266, 151.0682292, 1.40, 93.45, 0.13, 72.44
ATT, -2.20, -1.81, 0.00, -0.37, 0.00, 56.08, 61.50
CTUN, 598, 0.00, 1.36, 0.000000, 0.00, 0, -8, 598, 0
ATT, -2.20, -1.89, 0.00, -0.44, 0.00, 57.10, 61.50
CTUN, 598, 0.00, 1.47, 0.000000, 0.00, 0, -7, 598, 0
GPS, 3, 544587800, 12, 1.42, -33.7840262, 151.0682292, 1.39, 93.42, 0.22, 72.44
CTUN, 598, 0.00, 1.24, 0.000000, 0.00, 0, -7, 598, 0
ATT, -2.20, -2.02, 0.00, -0.83, 0.00, 58.45, 61.50
CTUN, 598, 0.00, 1.37, 0.000000, 0.00, 0, -7, 598, 0
ATT, -2.20, -2.32, 0.00, -0.86, 0.00, 59.47, 61.50
DU32, 7, 82041
CURR, 598, 50838, 1110, 1418, 4752, 38.53513
GPS, 3, 544588000, 12, 1.42, -33.7840259, 151.0682290, 1.37, 93.39, 0.16, 72.44
CTUN, 598, 0.00, 1.29, 0.000000, 0.00, 0, -5, 598, 0
ATT, -2.20, -2.41, 0.00, -0.64, 0.00, 60.39, 61.50
CTUN, 598, 0.00, 1.32, 0.000000, 0.00, 0, -4, 598, 0
ATT, -2.20, -2.31, 0.00, -0.98, 0.00, 60.91, 61.50
GPS, 3, 544588200, 12, 1.42, -33.7840255, 151.0682287, 1.35, 93.33, 0.17, 72.44
CTUN, 600, 0.00, 1.23, 0.000000, 0.00, 0, -5, 598, 0
ATT, -2.20, -2.35, 0.00, -1.30, 0.00, 61.08, 61.50
CTUN, 599, 0.00, 1.19, 0.000000, 0.00, 0, -6, 598, 0
GPS, 3, 544588400, 12, 1.42, -33.7840252, 151.0682286, 1.33, 93.27, 0.10, 72.44
ATT, -1.86, -2.40, 0.00, -1.41, 0.00, 61.01, 61.50
CTUN, 598, 0.00, 1.21, 0.000000, 0.00, 0, -5, 598, 0
ATT, -1.86, -2.20, 0.00, -1.77, 0.00, 60.80, 61.50
CTUN, 598, 0.00, 1.27, 0.000000, 0.00, 0, -4, 598, 0
GPS, 3, 544588600, 12, 1.42, -33.7840247, 151.0682286, 1.31, 93.21, 0.16, 72.44
ATT, -1.86, -2.24, 0.00, -1.98, 0.00, 60.45, 61.50
CTUN, 598, 0.00, 1.23, 0.000000, 0.00, 0, -4, 598, 0
ATT, -1.86, -2.33, 0.00, -1.79, 0.00, 60.19, 61.50
CTUN, 598, 0.00, 1.29, 0.000000, 0.00, 0, -4, 598, 0
GPS, 3, 544588800, 12, 1.42, -33.7840244, 151.0682287, 1.29, 93.13, 0.16, 72.44
ATT, -1.74, -2.64, 0.00, -1.45, 0.00, 59.90, 61.50
CTUN, 599, 0.00, 1.36, 0.000000, 0.00, 0, -2, 599, 0
ATT, -0.46, -2.44, 0.00, -1.38, 0.00, 59.68, 61.50
CTUN, 598, 0.00, 1.22, 0.000000, 0.00, 0, -1, 598, 0
DU32, 7, 82041
CURR, 598, 56221, 1111, 1428, 4752, 42.37743
GPS, 3, 544589000, 12, 1.42, -33.7840241, 151.0682289, 1.29, 93.07, 0.18, 72.44
CTUN, 598, 0.00, 1.37, 0.000000, 0.00, 0, 0, 598, 0
ATT, -0.46, -1.84, 0.00, -1.09, 0.00, 59.45, 61.50
CTUN, 598, 0.00, 1.28, 0.000000, 0.00, 0, 0, 598, 0
ATT, -0.34, -1.39, 0.00, -0.75, 0.00, 59.29, 61.50
GPS, 3, 544589200, 12, 1.42, -33.7840238, 151.0682291, 1.29, 93.07, 0.13, 72.44
CTUN, 598, 0.00, 1.25, 0.000000, 0.00, 0, -1, 598, 0
ATT, 0.00, -1.18, 0.00, -0.62, 0.00, 59.14, 61.50
CTUN, 598, 0.00, 1.27, 0.000000, 0.00, 0, -1, 598, 0
ATT, 0.00, -0.97, 0.00, -0.45, 0.00, 58.97, 61.50
GPS, 3, 544589400, 11, 1.49, -33.7840236, 151.0682296, 1.29, 93.05, 0.20, 72.44
CTUN, 598, 0.00, 1.27, 0.000000, 0.00, 0, -2, 598, 0
ATT, 0.00, -0.74, 0.00, -0.18, 0.00, 58.69, 61.50
CTUN, 598, 0.00, 1.27, 0.000000, 0.00, 0, -1, 598, 0
ATT, 0.00, -0.46, 0.00, -0.01, 0.00, 58.34, 61.50
GPS, 3, 544589600, 12, 1.42, -33.7840229, 151.0682300, 1.28, 93.09, 0.24, 72.44
CTUN, 598, 0.00, 1.38, 0.000000, 0.00, 0, -1, 598, 0
ATT, 0.00, 0.00, 0.00, 0.12, 0.00, 57.98, 61.50
CTUN, 607, 0.00, 1.21, 0.000000, 0.00, 0, 0, 607, 0
GPS, 3, 544589800, 12, 1.42, -33.7840221, 151.0682305, 1.28, 93.10, 0.33, 72.44
ATT, 0.00, 0.33, 0.00, 0.27, 0.00, 57.69, 61.50
CTUN, 630, 0.00, 1.28, 0.000000, 0.00, 0, 1, 620, 0
ATT, 0.00, 0.36, 0.00, 0.28, 0.00, 57.47, 61.50
CTUN, 634, 0.00, 1.26, 0.000000, 0.00, 0, 5, 636, 0
GPS, 3, 544590000, 12, 1.42, -33.7840218, 151.0682311, 1.29, 93.14, 0.16, 72.44
DU32, 7, 82041
CURR, 640, 62269, 1099, 1588, 4732, 46.71772
ATT, 0.00, 0.34, 0.00, 0.19, 0.00, 57.21, 61.50
CTUN, 643, 0.00, 1.34, 0.000000, 0.00, 0, 14, 644, 0
ATT, 0.00, 0.50, 0.00, 0.07, 0.00, 57.02, 61.50
CTUN, 644, 0.00, 1.36, 0.000000, 0.00, 0, 22, 644, 0
GPS, 3, 544590200, 12, 1.42, -33.7840215, 151.0682318, 1.32, 93.21, 0.22, 72.44
CTUN, 644, 0.00, 1.39, 0.000000, 0.00, 0, 34, 643, 0
ATT, 0.00, 0.49, 0.00, -0.19, 0.00, 56.83, 61.50
CTUN, 643, 0.00, 1.37, 0.000000, 0.00, 0, 43, 642, 0
ATT, 0.00, 0.35, 0.00, -0.41, 0.00, 56.71, 61.50
GPS, 3, 544590400, 12, 1.42, -33.7840210, 151.0682327, 1.41, 93.37, 0.28, 72.44
CTUN, 643, 0.00, 1.42, 0.000000, 0.00, 0, 51, 642, 0
ATT, 0.00, 0.15, 0.00, -0.38, 0.00, 56.64, 61.50
CTUN, 644, 0.00, 1.55, 0.000000, 0.00, 0, 60, 642, 0
ATT, 0.00, 0.28, 0.00, 0.00, 0.00, 56.62, 61.50
GPS, 3, 544590600, 12, 1.42, -33.7840208, 151.0682332, 1.53, 93.51, 0.16, 72.44
CTUN, 645, 0.00, 1.54, 0.000000, 0.00, 0, 67, 643, 0
ATT, 0.00, -0.04, 0.00, -0.08, 0.00, 56.73, 61.50
CTUN, 642, 0.00, 1.68, 0.000000, 0.00, 0, 75, 642, 0
GPS, 3, 544590800, 12, 1.42, -33.7840212, 151.0682340, 1.67, 93.60, 0.42, 72.44
ATT, 0.00, -0.30, 0.00, -0.29, 0.00, 57.04, 61.50
CTUN, 642, 0.00, 1.64, 0.000000, 0.00, 0, 83, 643, 0
ATT, 0.00, -0.27, 0.00, -0.41, 0.00, 57.42, 61.50
CTUN, 643, 0.00, 1.74, 0.000000, 0.00, 0, 88, 643, 0
GPS, 3, 544591000, 12, 1.42, -33.7840209, 151.0682348, 1.84, 93.80, 0.33, 72.44
DU32, 7, 82041
CURR, 643, 68058, 1097, 1610, 4752, 51.20005
ATT, 0.00, -0.26, 1.17, -0.18, 0.00, 57.89, 61.50
CTUN, 643, 0.00, 1.76, 0.000000, 0.00, 0, 95, 643, 0
ATT, 0.00, -0.25, 1.87, 0.48, 0.00, 58.25, 61.50
CTUN, 643, 0.00, 1.85, 0.000000, 0.00, 0, 102, 643, 0
GPS, 3, 544591200, 11, 1.50, -33.7840201, 151.0682360, 2.01, 94.05, 0.44, 72.44
CTUN, 643, 0.00, 1.90, 0.000000, 0.00, 0, 108, 643, 0
ATT, 0.00, -0.50, 2.10, 1.36, 0.00, 58.59, 61.50
CTUN, 643, 0.00, 2.08, 0.000000, 0.00, 0, 114, 643, 0
ATT, 0.00, -0.80, 3.04, 1.85, 0.00, 58.73, 61.50
GPS, 3, 544591400, 11, 1.50, -33.7840199, 151.0682369, 2.23, 94.31, 0.40, 72.44
CTUN, 643, 0.00, 2.31, 0.000000, 0.00, 0, 119, 643, 0
ATT, 0.00, -1.40, 3.75, 2.74, 0.00, 58.83, 61.50
CTUN, 643, 0.00, 2.30, 0.000000, 0.00, 0, 124, 643, 0
ATT, 0.00, -1.06, 3.39, 3.43, 0.00, 58.95, 61.50
GPS, 3, 544591600, 12, 1.42, -33.7840197, 151.0682382, 2.47, 94.64, 0.52, 72.44
CTUN, 643, 0.00, 2.51, 0.000000, 0.00, 1, 127, 644, 0
ATT, -2.67, -1.32, 3.39, 3.04, 0.00, 59.06, 61.50
CTUN, 643, 0.00, 2.56, 0.000000, 0.00, 0, 132, 643, 0
GPS, 3, 544591800, 11, 1.50, -33.7840193, 151.0682389, 2.72, 95.03, 0.28, 72.44
ATT, -3.02, -3.19, 0.00, 2.62, 0.00, 59.12, 61.50
CTUN, 643, 0.00, 2.75, 0.000000, 0.00, 1, 137, 644, 0
ATT, -0.46, -3.96, 0.00, 0.87, 0.00, 59.16, 61.50
CTUN, 620, 0.00, 2.88, 0.000000, 0.00, 1, 140, 633, 0
GPS, 3, 544592000, 11, 1.50, -33.7840196, 151.0682395, 2.99, 95.37, 0.40, 72.44
DU32, 7, 82041
CURR, 605, 73825, 1092, 1583, 4712, 55.64147
ATT, -0.34, -2.83, 0.00, -0.06, 0.00, 58.99, 61.50
CTUN, 605, 0.00, 2.94, 0.000000, 0.00, 0, 144, 605, 0
ATT, -0.46, -2.51, 0.00, -0.61, 0.00, 58.88, 61.50
CTUN, 603, 0.00, 3.09, 0.000000, 0.00, 0, 142, 605, 0
GPS, 3, 544592200, 12, 1.42, -33.7840198, 151.0682397, 3.22, 95.61, 0.19, 72.44
CTUN, 603, 0.00, 3.31, 0.000000, 0.00, 0, 140, 603, 0
ATT, -0.58, -1.98, 0.00, -0.99, 0.00, 58.87, 61.50
CTUN, 605, 0.00, 3.41, 0.000000, 0.00, 0, 137, 605, 0
ATT, 0.00, -1.60, 0.00, -0.97, 0.00, 58.82, 61.50
GPS, 3, 544592400, 12, 1.42, -33.7840196, 151.0682404, 3.53, 95.99, 0.25, 72.44
CTUN, 605, 0.00, 3.59, 0.000000, 0.00, 0, 136, 605, 0
ATT, 0.00, -0.88, 0.00, -0.48, 0.00, 58.77, 61.50
CTUN, 582, 0.00, 3.74, 0.000000, 0.00, 0, 133, 582, 0
ATT, 0.00, -0.75, 0.00, -0.11, 0.00, 58.76, 61.50
GPS, 3, 544592600, 12, 1.42, -33.7840192, 151.0682410, 3.79, 96.40, 0.22, 72.44
CTUN, 574, 0.00, 3.91, 0.000000, 0.00, 0, 130, 574, 0
ATT, 0.00, -0.82, 0.00, 0.04, 0.00, 58.87, 61.50
CTUN, 570, 0.00, 4.13, 0.000000, 0.00, 0, 121, 570, 0
GPS, 3, 544592800, 12, 1.42, -33.7840187, 151.0682416, 4.05, 96.72, 0.18, 72.44
ATT, 0.00, -1.15, 0.00, -0.14, 0.00, 59.08, 61.50
CTUN, 570, 0.00, 4.11, 0.000000, 0.00, 0, 114, 570, 0
ATT, 0.00, -0.88, 0.00, -0.04, 0.00, 59.19, 61.50
CTUN, 570, 0.00, 4.24, 0.000000, 0.00, 0, 106, 570, 0
GPS, 3, 544593000, 10, 1.59, -33.7840187, 151.0682420, 4.27, 96.96, 0.16, 72.44
DU32, 7, 82041
CURR, 570, 79113, 1113, 1319, 4772, 59.50238
ATT, 0.00, -0.78, 0.00, 0.31, 0.00, 59.26, 61.50
CTUN, 570, 0.00, 4.33, 0.000000, 0.00, 0, 100, 570, 0
ATT, 0.00, -0.90, 0.00, 0.40, 0.00, 59.33, 61.50
CTUN, 570, 0.00, 4.47, 0.000000, 0.00, 0, 94, 570, 0
GPS, 3, 544593200, 10, 1.59, -33.7840190, 151.0682426, 4.45, 97.19, 0.26, 72.44
CTUN, 570, 0.00, 4.60, 0.000000, 0.00, 0, 85, 570, 0
ATT, 0.00, -0.75, 0.00, 0.47, 0.00, 59.39, 61.50
CTUN, 571, 0.00, 4.80, 0.000000, 0.00, 0, 78, 570, 0
ATT, 0.00, -0.37, 0.00, 0.36, 0.00, 59.39, 61.50
GPS, 3, 544593400, 10, 1.59, -33.7840189, 151.0682432, 4.64, 97.46, 0.22, 72.44
CTUN, 570, 0.00, 4.73, 0.000000, 0.00, 0, 72, 570, 0
ATT, 0.00, 0.11, 0.00, 0.31, 0.00, 59.27, 61.50
CTUN, 570, 0.00, 4.88, 0.000000, 0.00, 0, 66, 570, 0
ATT, 0.00, 0.64, 0.00, 0.11, 0.00, 59.04, 61.50
GPS, 3, 544593600, 11, 1.49, -33.7840192, 151.0682434, 4.79, 97.62, 0.15, 72.44
CTUN, 570, 0.00, 5.07, 0.000000, 0.00, 0, 62, 571, 0
ATT, 0.00, 0.90, 0.00, 0.10, 0.00, 58.83, 61.50
CTUN, 570, 0.00, 5.09, 0.000000, 0.00, 0, 55, 570, 0
GPS, 3, 544593800, 12, 1.42, -33.7840194, 151.0682442, 4.93, 97.76, 0.31, 72.44
ATT, -1.39, 0.99, 0.00, 0.41, 0.00, 58.64, 61.50
CTUN, 570, 0.00, 5.07, 0.000000, 0.00, 0, 52, 570, 0
ATT, -2.20, 0.69, 0.00, 0.48, 0.00, 58.49, 61.50
CTUN, 570, 0.00, 5.22, 0.000000, 0.00, 0, 46, 570, 0
GPS, 3, 544594000, 12, 1.42, -33.7840200, 151.0682446, 5.05, 97.76, 0.30, 72.44
DU32, 7, 82041
CURR, 570, 84244, 1103, 1322, 4732, 63.16016
ATT, -2.44, 0.12, 0.00, 0.06, 0.00, 58.35, 61.50
CTUN, 571, 0.00, 5.28, 0.000000, 0.00, 0, 41, 571, 0
ATT, -4.30, -0.47, 0.00, -0.45, 0.00, 58.42, 61.50
CTUN, 570, 0.00, 5.26, 0.000000, 0.00, 0, 35, 570, 0
GPS, 3, 544594200, 12, 1.42, -33.7840205, 151.0682449, 5.15, 97.76, 0.29, 72.44
CTUN, 570, 0.00, 5.25, 0.000000, 0.00, 0, 27, 570, 0
ATT, -3.83, -1.91, 0.00, -0.93, 0.00, 58.87, 61.50
CTUN, 570, 0.00, 5.44, 0.000000, 0.00, 0, 20, 570, 0
ATT, -4.53, -2.56, 0.00, -1.49, 0.00, 59.49, 61.50
GPS, 3, 544594400, 11, 1.47, -33.7840211, 151.0682451, 5.21, 97.76, 0.39, 119.08
CTUN, 570, 0.00, 5.34, 0.000000, 0.00, 0, 13, 571, 0
ATT, -4.88, -3.56, 0.00, -1.76, 0.00, 60.39, 61.50
CTUN, 570, 0.00, 5.33, 0.000000, 0.00, 1, 5, 571, 0
ATT, -4.88, -3.76, 0.00, -1.91, 0.00, 61.11, 61.50
GPS, 3, 544594600, 11, 1.47, -33.7840222, 151.0682456, 5.24, 97.62, 0.46, 127.36
CTUN, 570, 0.00, 5.38, 0.000000, 0.00, 1, 0, 571, 0
ATT, -5.46, -3.41, 0.00, -1.62, 0.00, 61.56, 61.50
CTUN, 571, 0.00, 5.26, 0.000000, 0.00, 0, -3, 570, 0
ATT, -4.76, -2.66, 0.00, -1.44, 0.00, 61.78, 61.50
GPS, 3, 544594800, 12, 1.42, -33.7840233, 151.0682462, 5.25, 97.47, 0.48, 132.00
CTUN, 570, 0.00, 5.30, 0.000000, 0.00, 0, -7, 570, 0
ATT, -5.81, -2.17, 0.00, -1.00, 0.00, 61.71, 61.50
CTUN, 574, 0.00, 5.42, 0.000000, 0.00, 0, -11, 570, 0
GPS, 3, 544595000, 12, 1.42, -33.7840239, 151.0682467, 5.24, 97.32, 0.36, 132.00
ATT, -5.81, -2.85, 0.00, -0.71, 0.00, 61.33, 61.50
DU32, 7, 82041
CURR, 578, 89376, 1110, 1299, 4712, 66.69352
CTUN, 578, 0.00, 5.30, 0.000000, 0.00, 0, -16, 578, 0
ATT, -5.58, -3.26, 0.00, -0.36, 0.00, 60.80, 61.50
CTUN, 578, 0.00, 5.42, 0.000000, 0.00, 0, -20, 578, 0
GPS, 3, 544595200, 12, 1.42, -33.7840242, 151.0682472, 5.22, 97.12, 0.40, 114.40
ATT, -5.81, -4.07, 0.00, -0.28, 0.00, 60.15, 61.50
CTUN, 584, 0.00, 5.40, 0.000000, 0.00, 1, -23, 585, 0
ATT, -2.55, -4.66, 0.00, -0.34, 0.00, 59.79, 61.50
CTUN, 584, 0.00, 5.33, 0.000000, 0.00, 1, -25, 585, 0
GPS, 3, 544595400, 12, 1.42, -33.7840247, 151.0682480, 5.19, 96.92, 0.38, 104.97
CTUN, 600, 0.00, 5.29, 0.000000, 0.00, 1, -29, 599, 0
ATT, -6.62, -3.75, 0.00, 0.12, 0.00, 59.42, 61.50
CTUN, 602, 0.00, 5.22, 0.000000, 0.00, 1, -28, 603, 0
ATT, -5.81, -5.10, 0.00, 1.10, 0.00, 59.28, 61.50
GPS, 3, 544595600, 12, 1.42, -33.7840256, 151.0682487, 5.14, 96.65, 0.35, 87.18
CTUN, 602, 0.00, 5.23, 0.000000, 0.00, 2, -30, 605, 0
ATT, -5.81, -5.81, 0.00, 1.04, 0.00, 59.17, 61.50
PM, 0, 0, 50, 1, 1001, 13132, 0, 4
CTUN, 604, 0.00, 5.25, 0.000000, 0.00, 2, -29, 606, 0
ATT, -4.76, -5.49, 0.00, 1.33, 0.00, 58.90, 61.50
GPS, 3, 544595800, 12, 1.42, -33.7840258, 151.0682493, 5.09, 96.44, 0.36, 66.30
CTUN, 604, 0.00, 5.18, 0.000000, 0.00, 2, -29, 606, 0
ATT, -2.32, -5.03, 0.00, 1.30, 0.00, 58.53, 61.50
CTUN, 606, 0.00, 5.15, 0.000000, 0.00, 1, -28, 605, 0
GPS, 3, 544596000, 12, 1.42, -33.7840255, 151.0682496, 5.05, 96.27, 0.27, 55.21
ATT, -1.86, -3.32, 0.00, 1.13, 0.00, 58.10, 61.50
DU32, 7, 82041
CURR, 606, 94726, 1099, 1431, 4732, 70.53283
CTUN, 606, 0.00, 5.19, 0.000000, 0.00, 0, -26, 606, 0
ATT, -2.09, -1.84, 0.46, 1.49, 0.00, 57.70, 61.50
CTUN, 606, 0.00, 5.18, 0.000000, 0.00, 0, -23, 606, 0
GPS, 3, 544596200, 12, 1.42, -33.7840252, 151.0682498, 5.02, 96.10, 0.36, 22.53
ATT, -2.55, -1.99, 1.40, 1.09, 0.00, 57.45, 61.50
CTUN, 606, 0.00, 5.13, 0.000000, 0.00, 0, -20, 606, 0
ATT, -2.20, -2.21, 2.22, 1.30, 0.00, 57.37, 61.50
CTUN, 606, 0.00, 5.07, 0.000000, 0.00, 0, -18, 605, 0
GPS, 3, 544596400, 12, 1.42, -33.7840248, 151.0682497, 4.99, 95.99, 0.34, 9.25
ATT, -2.20, -2.36, 2.57, 1.60, 0.00, 57.41, 61.50
CTUN, 606, 0.00, 5.11, 0.000000, 0.00, 0, -15, 606, 0
ATT, -2.20, -2.47, 2.57, 1.95, 0.00, 57.54, 61.50
CTUN, 606, 0.00, 5.11, 0.000000, 0.00, 0, -13, 606, 0
GPS, 3, 544596600, 12, 1.42, -33.7840241, 151.0682496, 4.98, 95.95, 0.30, 354.80
ATT, -2.32, -2.50, 2.81, 2.01, 0.00, 57.95, 61.50
CTUN, 606, 0.00, 5.13, 0.000000, 0.00, 0, -10, 606, 0
ATT, -2.20, -2.73, 2.81, 2.17, 0.00, 58.41, 61.50
CTUN, 606, 0.00, 5.05, 0.000000, 0.00, 0, -8, 606, 0
GPS, 3, 544596800, 12, 1.42, -33.7840233, 151.0682492, 4.97, 95.94, 0.34, 337.00
CTUN, 606, 0.00, 5.09, 0.000000, 0.00, 0, -6, 606, 0
ATT, -0.34, -2.38, 1.64, 1.99, 0.00, 59.08, 61.50
CTUN, 606, 0.00, 5.02, 0.000000, 0.00, 0, -4, 606, 0
ATT, 0.00, -1.81, 0.11, 1.44, 0.00, 59.69, 61.50
GPS, 3, 544597000, 12, 1.42, -33.7840227, 151.0682487, 4.97, 95.89, 0.42, 329.37
CTUN, 606, 0.00, 5.02, 0.000000, 0.00, 0, -3, 606, 0
DU32, 7, 82041
CURR, 606, 100785, 1098, 1419, 4732, 74.91363
ATT, 0.00, -1.19, 0.00, 0.45, 0.00, 60.20, 61.50
CTUN, 606, 0.00, 5.03, 0.000000, 0.00, 0, -2, 606, 0
GPS, 3, 544597200, 12, 1.42, -33.7840225, 151.0682477, 4.97, 95.74, 0.42, 318.01
ATT, 0.00, -1.08, 0.00, -0.44, 0.00, 60.67, 61.50
CTUN, 606, 0.00, 4.97, 0.000000, 0.00, 0, -1, 606, 0
ATT, 0.00, -1.05, 0.00, -0.88, 0.00, 60.94, 61.50
CTUN, 606, 0.00, 5.04, 0.000000, 0.00, 0, 0, 606, 0
GPS, 3, 544597400, 12, 1.42, -33.7840219, 151.0682467, 4.97, 95.68, 0.49, 313.44
ATT, 0.00, -0.87, 0.00, -1.06, 0.00, 61.22, 61.50
CTUN, 606, 0.00, 4.98, 0.000000, 0.00, 0, 0, 606, 0
ATT, 0.00, -0.78, 0.00, -1.22, 0.00, 61.48, 61.50
CTUN, 606, 0.00, 5.04, 0.000000, 0.00, 0, 2, 606, 0
GPS, 3, 544597600, 12, 1.42, -33.7840223, 151.0682461, 4.98, 95.55, 0.37, 310.40
ATT, 0.00, -0.30, 0.00, -1.05, 0.00, 61.79, 61.50
CTUN, 609, 0.00, 5.07, 0.000000, 0.00, 0, 3, 606, 0
ATT, 0.00, -0.26, 0.00, -0.73, 0.00, 61.98, 61.50
CTUN, 609, 0.00, 5.12, 0.000000, 0.00, 0, 4, 609, 0
GPS, 3, 544597800, 12, 1.42, -33.7840212, 151.0682456, 5.00, 95.61, 0.47, 313.91
CTUN, 609, 0.00, 5.08, 0.000000, 0.00, 0, 6, 609, 0
ATT, 0.00, -0.37, 1.52, -0.47, 0.00, 62.00, 61.50
CTUN, 609, 0.00, 5.18, 0.000000, 0.00, 0, 10, 609, 0
ATT, 0.00, -0.47, 1.52, 0.49, 0.00, 61.77, 61.50
GPS, 3, 544598000, 12, 1.42, -33.7840210, 151.0682451, 5.03, 95.55, 0.34, 316.29
CTUN, 609, 0.00, 5.07, 0.000000, 0.00, 0, 13, 609, 0
DU32, 7, 82041
CURR, 609, 106251, 1099, 1444, 4732, 78.87041
ATT, 0.00, -0.16, 1.17, 1.12, 0.00, 61.31, 61.50
CTUN, 609, 0.00, 5.11, 0.000000, 0.00, 0, 16, 609, 0
GPS, 3, 544598200, 12, 1.42, -33.7840206, 151.0682445, 5.07, 95.56, 0.34, 317.32
ATT, 0.00, -0.41, 1.17, 1.04, 0.00, 60.69, 61.50
CTUN, 609, 0.00, 5.13, 0.000000, 0.00, 0, 18, 609, 0
ATT, 0.00, -0.61, 1.05, 1.06, 0.00, 60.25, 61.50
CTUN, 609, 0.00, 5.19, 0.000000, 0.00, 0, 21, 609, 0
GPS, 3, 544598400, 12, 1.42, -33.7840203, 151.0682442, 5.11, 95.55, 0.36, 318.44
ATT, 0.00, -0.80, 0.00, 0.79, 0.00, 59.96, 61.50
CTUN, 609, 0.00, 5.13, 0.000000, 0.00, 0, 24, 609, 0
ATT, 0.00, -0.90, 0.00, 0.38, 0.00, 59.87, 61.50
CTUN, 609, 0.00, 5.27, 0.000000, 0.00, 0, 26, 609, 0
GPS, 3, 544598600, 12, 1.42, -33.7840200, 151.0682439, 5.16, 95.58, 0.38, 321.27
ATT, 0.00, -0.97, 0.00, 0.17, 0.00, 59.88, 61.50
CTUN, 609, 0.00, 5.22, 0.000000, 0.00, 0, 27, 609, 0
ATT, 0.00, -1.11, 0.00, 0.15, 0.00, 59.94, 61.50
CTUN, 609, 0.00, 5.21, 0.000000, 0.00, 0, 28, 609, 0
GPS, 3, 544598800, 12, 1.42, -33.7840195, 151.0682434, 5.23, 95.67, 0.26, 321.27
CTUN, 609, 0.00, 5.42, 0.000000, 0.00, 0, 27, 609, 0
ATT, 0.00, -1.11, 0.00, 0.31, 0.00, 60.06, 61.50
CTUN, 609, 0.00, 5.36, 0.000000, 0.00, 0, 29, 609, 0
ATT, 0.00, -1.16, 0.00, 0.42, 0.00, 60.14, 61.50
GPS, 3, 544599000, 12, 1.42, -33.7840192, 151.0682430, 5.30, 95.74, 0.36, 317.01
CTUN, 607, 0.00, 5.39, 0.000000, 0.00, 0, 29, 607, 0
DU32, 7, 82041
CURR, 609, 111733, 1099, 1427, 4712, 82.85980
ATT, 0.00, -1.12, 0.00, 0.32, 0.00, 60.20, 61.50
CTUN, 609, 0.00, 5.33, 0.000000, 0.00, 0, 31, 609, 0
GPS, 3, 544599200, 12, 1.42, -33.7840194, 151.0682424, 5.36, 95.71, 0.31, 312.07
ATT, 0.00, -0.83, 0.00, 0.36, 0.00, 60.13, 61.50
CTUN, 607, 0.00, 5.30, 0.000000, 0.00, 0, 32, 609, 0
ATT, 0.00, -0.76, 0.00, 0.07, 0.00, 59.91, 61.50
CTUN, 609, 0.00, 5.47, 0.000000, 0.00, 0, 33, 609, 0
GPS, 3, 544599400, 12, 1.42, -33.7840191, 151.0682419, 5.42, 95.74, 0.31, 314.95
ATT, 0.00, -0.75, 0.00, -0.25, 0.00, 59.54, 61.50
CTUN, 609, 0.00, 5.40, 0.000000, 0.00, 0, 36, 609, 0
ATT, 0.00, -0.68, 0.00, -0.34, 0.00, 59.25, 61.50
CTUN, 609, 0.00, 5.46, 0.000000, 0.00, 0, 38, 609, 0
GPS, 3, 544599600, 11, 1.59, -33.7840192, 151.0682414, 5.49, 95.72, 0.32, 314.16
ATT, 0.00, -0.52, 0.00, -0.63, 0.00, 58.91, 61.50
CTUN, 609, 0.00, 5.54, 0.000000, 0.00, 0, 40, 609, 0
ATT, 0.00, -0.61, -0.84, -0.70, 0.00, 58.64, 61.50
CTUN, 609, 0.00, 5.58, 0.000000, 0.00, 0, 41, 609, 0
GPS, 3, 544599800, 12, 1.42, -33.7840192, 151.0682408, 5.58, 95.71, 0.28, 314.16
CTUN, 609, 0.00, 5.65, 0.000000, 0.00, 0, 43, 609, 0
ATT, 0.00, -0.32, -1.21, -0.76, 0.00, 58.34, 61.50
CTUN, 609, 0.00, 5.68, 0.000000, 0.00, 0, 43, 609, 0
ATT, 0.34, 0.13, -1.21, -1.03, 0.00, 58.17, 61.50
GPS, 3, 544600000, 12, 1.42, -33.7840193, 151.0682403, 5.67, 95.71, 0.29, 314.16
CTUN, 609, 0.00, 5.71, 0.000000, 0.00, 0, 45, 609, 0
ATT, 0.00, 0.24, 0.00, -1.15, 0.00, 58.03, 61.50
DU32, 7, 82041
CURR, 609, 117214, 1093, 1445, 4732, 86.85844
CTUN, 609, 0.00, 5.79, 0.000000, 0.00, 0, 46, 609, 0
GPS, 3, 544600200, 12, 1.42, -33.7840194, 151.0682400, 5.76, 95.74, 0.21, 314.16
ATT, 0.00, 0.15, 0.00, -0.65, 0.00, 57.86, 61.50
CTUN, 609, 0.00, 5.80, 0.000000, 0.00, 0, 47, 609, 0
ATT, 0.00, 0.26, 0.00, -0.40, 0.00, 57.69, 61.50
CTUN, 609, 0.00, 5.91, 0.000000, 0.00, 0, 50, 609, 0
GPS, 3, 544600400, 12, 1.42, -33.7840193, 151.0682397, 5.86, 95.78, 0.22, 324.89
ATT, 0.00, 0.20, -0.24, -0.37, 0.00, 57.55, 61.50
CTUN, 609, 0.00, 5.90, 0.000000, 0.00, 0, 51, 609, 0
ATT, 0.00, 0.14, -0.60, -0.25, 0.00, 57.51, 61.50
CTUN, 609, 0.00, 6.00, 0.000000, 0.00, 0, 52, 609, 0
GPS, 3, 544600600, 12, 1.42, -33.7840191, 151.0682396, 5.97, 95.88, 0.17, 324.89
ATT, 0.00, 0.18, 0.00, -0.27, 0.00, 57.50, 61.50
CTUN, 609, 0.00, 6.00, 0.000000, 0.00, 0, 53, 609, 0
ATT, 0.00, 0.09, 0.00, -0.03, 0.00, 57.52, 61.50
CTUN, 609, 0.00, 6.05, 0.000000, 0.00, 0, 53, 609, 0
GPS, 3, 544600800, 12, 1.42, -33.7840189, 151.0682394, 6.08, 96.02, 0.08, 324.89
CTUN, 609, 0.00, 6.14, 0.000000, 0.00, 0, 54, 609, 0
ATT, 0.00, 0.11, 0.00, 0.19, 0.00, 57.52, 61.50
CTUN, 607, 0.00, 6.16, 0.000000, 0.00, 0, 54, 609, 0
ATT, 0.00, 0.03, 0.00, 0.17, 0.00, 57.55, 61.50
GPS, 3, 544601000, 12, 1.42, -33.7840182, 151.0682395, 6.18, 96.20, 0.19, 324.89
CTUN, 609, 0.00, 6.19, 0.000000, 0.00, 0, 55, 609, 0
ATT, 0.00, 0.35, 0.00, -0.07, 0.00, 57.56, 61.50
DU32, 7, 82041
CURR, 609, 122696, 1094, 1454, 4732, 90.88936
CTUN, 609, 0.00, 6.21, 0.000000, 0.00, 0, 56, 609, 0
GPS, 3, 544601200, 12, 1.42, -33.7840182, 151.0682394, 6.29, 96.31, 0.02, 324.89
ATT, 0.00, 0.67, 0.00, 0.05, 0.00, 57.69, 61.50
CTUN, 609, 0.00, 6.42, 0.000000, 0.00, 0, 56, 609, 0
ATT, 0.00, 0.72, 0.00, 0.36, 0.00, 57.68, 61.50
CTUN, 609, 0.00, 6.39, 0.000000, 0.00, 0, 56, 609, 0
GPS, 3, 544601400, 12, 1.42, -33.7840186, 151.0682396, 6.41, 96.46, 0.10, 324.89
ATT, 0.00, 0.92, 0.00, 0.24, 0.00, 57.40, 61.50
CTUN, 609, 0.00, 6.49, 0.000000, 0.00, 0, 58, 609, 0
ATT, 0.00, 0.91, 0.00, 0.30, 0.00, 57.02, 61.50
CTUN, 609, 0.00, 6.57, 0.000000, 0.00, 0, 58, 609, 0
GPS, 3, 544601600, 12, 1.42, -33.7840189, 151.0682397, 6.51, 96.52, 0.08, 324.89
ATT, 0.00, 0.88, 0.00, 0.40, 0.00, 56.46, 61.50
CTUN, 609, 0.00, 6.67, 0.000000, 0.00, 0, 58, 609, 0
ATT, 0.00, 0.83, 0.00, 0.11, 0.00, 56.00, 61.50
CTUN, 609, 0.00, 6.81, 0.000000, 0.00, 0, 59, 609, 0
GPS, 3, 544601800, 12, 1.42, -33.7840194, 151.0682399, 6.65, 96.62, 0.15, 324.89
CTUN, 609, 0.00, 6.66, 0.000000, 0.00, 0, 59, 609, 0
ATT, 0.00, 1.13, 0.00, 0.20, 0.00, 55.64, 61.50
CTUN, 609, 0.00, 6.82, 0.000000, 0.00, 0, 61, 609, 0
ATT, 0.00, 1.47, 0.00, 0.29, 0.00, 55.44, 61.50
GPS, 3, 544602000, 12, 1.42, -33.7840201, 151.0682400, 6.78, 96.75, 0.25, 228.31
CTUN, 609, 0.00, 6.86, 0.000000, 0.00, 0, 61, 609, 0
ATT, 0.00, 1.63, 0.00, 0.08, 0.00, 55.43, 61.50
DU32, 7, 82041
CURR, 609, 128177, 1091, 1472, 4732, 94.93402
CTUN, 609, 0.00, 6.86, 0.000000, 0.00, 0, 61, 609, 0
GPS, 3, 544602200, 12, 1.42, -33.7840208, 151.0682406, 6.91, 96.85, 0.35, 181.86
ATT, 0.00, 1.60, 0.00, -0.01, 0.00, 55.63, 61.50
CTUN, 609, 0.00, 6.88, 0.000000, 0.00, 0, 62, 609, 0
ATT, 0.00, 1.38, 0.00, 0.05, 0.00, 56.02, 61.50
CTUN, 609, 0.00, 6.88, 0.000000, 0.00, 0, 61, 609, 0
GPS, 3, 544602400, 12, 1.42, -33.7840215, 151.0682410, 7.02, 96.95, 0.36, 161.29
ATT, -1.39, 0.93, 0.00, 0.08, 0.00, 56.69, 61.50
CTUN, 609, 0.00, 7.06, 0.000000, 0.00, 0, 60, 609, 0
ATT, -4.76, 0.29, 0.00, 0.10, 0.00, 57.30, 61.50
CTUN, 609, 0.00, 7.14, 0.000000, 0.00, 0, 60, 609, 0
GPS, 3, 544602600, 12, 1.42, -33.7840227, 151.0682416, 7.14, 97.03, 0.58, 151.78
ATT, -5.46, -2.42, 0.00, -0.15, 0.00, 58.07, 61.50
CTUN, 607, 0.00, 7.17, 0.000000, 0.00, 0, 61, 607, 0
ATT, -4.65, -3.61, 0.00, -0.18, 0.00, 58.61, 61.50
CTUN, 609, 0.00, 7.35, 0.000000, 0.00, 0, 59, 609, 0
GPS, 3, 544602800, 12, 1.42, -33.7840239, 151.0682426, 7.26, 97.09, 0.74, 148.48
CTUN, 609, 0.00, 7.25, 0.000000, 0.00, 1, 61, 610, 0
ATT, -3.13, -3.72, 0.00, 0.04, 0.00, 59.03, 61.50
CTUN, 609, 0.00, 7.40, 0.000000, 0.00, 0, 61, 609, 0
ATT, -3.02, -3.12, 0.00, 0.12, 0.00, 59.24, 61.50
GPS, 3, 544603000, 12, 1.42, -33.7840252, 151.0682434, 7.38, 97.24, 0.61, 146.60
CTUN, 609, 0.00, 7.51, 0.000000, 0.00, 0, 61, 609, 0
ATT, -3.48, -3.25, 0.00, 0.05, 0.00, 59.50, 61.50
DU32, 7, 82041
CURR, 609, 133659, 1096, 1438, 4732, 98.94409
CTUN, 609, 0.00, 7.50, 0.000000, 0.00, 0, 62, 609, 0
GPS, 3, 544603200, 11, 1.47, -33.7840263, 151.0682443, 7.51, 97.36, 0.58, 145.07
ATT, -4.65, -3.57, 0.00, -0.08, 0.00, 59.77, 61.50
CTUN, 609, 0.00, 7.61, 0.000000, 0.00, 0, 62, 609, 0
ATT, -6.04, -4.28, 0.00, -0.38, 0.00, 59.92, 61.50
CTUN, 609, 0.00, 7.78, 0.000000, 0.00, 1, 63, 608, 0
GPS, 3, 544603400, 12, 1.42, -33.7840275, 151.0682448, 7.64, 97.45, 0.51, 147.48
ATT, -7.09, -5.23, 0.00, -0.84, 0.00, 60.02, 61.50
CTUN, 609, 0.00, 7.79, 0.000000, 0.00, 2, 63, 611, 0
ATT, -7.44, -5.74, 0.00, -0.84, 0.00, 59.93, 61.50
CTUN, 609, 0.00, 7.76, 0.000000, 0.00, 2, 65, 611, 0
GPS, 3, 544603600, 12, 1.42, -33.7840285, 151.0682452, 7.78, 97.55, 0.45, 150.77
ATT, -7.55, -6.15, 0.00, -0.73, 0.00, 59.65, 61.50
CTUN, 609, 0.00, 7.82, 0.000000, 0.00, 2, 64, 611, 0
ATT, -7.20, -6.35, 0.00, -0.69, 0.00, 59.38, 61.50
CTUN, 609, 0.00, 7.89, 0.000000, 0.00, 3, 66, 612, 0
GPS, 3, 544603800, 12, 1.42, -33.7840288, 151.0682458, 7.91, 97.67, 0.31, 150.77
CTUN, 609, 0.00, 8.05, 0.000000, 0.00, 2, 66, 611, 0
ATT, -5.46, -5.88, 0.00, -0.62, 0.00, 59.12, 61.50
CTUN, 609, 0.00, 8.06, 0.000000, 0.00, 2, 67, 611, 0
ATT, -5.46, -5.21, 0.00, -0.46, 0.00, 59.07, 61.50
GPS, 3, 544604000, 12, 1.42, -33.7840291, 151.0682459, 8.05, 97.78, 0.13, 150.77
CTUN, 609, 0.00, 8.13, 0.000000, 0.00, 1, 67, 610, 0
ATT, -4.65, -4.91, 0.00, 0.00, 0.00, 59.16, 61.50
DU32, 7, 82041
CURR, 609, 139761, 1094, 1435, 4712, 103.3242
CTUN, 609, 0.00, 8.16, 0.000000, 0.00, 1, 66, 610, 0
GPS, 3, 544604200, 11, 1.50, -33.7840291, 151.0682461, 8.19, 97.87, 0.19, 150.77
ATT, -2.32, -4.58, 0.00, 0.16, 0.00, 59.41, 61.50
CTUN, 609, 0.00, 8.34, 0.000000, 0.00, 1, 67, 610, 0
ATT, -1.27, -3.86, 0.00, -0.28, 0.00, 59.73, 61.50
CTUN, 609, 0.00, 8.41, 0.000000, 0.00, 0, 66, 609, 0
GPS, 3, 544604400, 11, 1.50, -33.7840290, 151.0682463, 8.33, 97.98, 0.18, 150.77
ATT, 0.00, -2.27, 0.00, -0.51, 0.00, 60.18, 61.50
CTUN, 609, 0.00, 8.44, 0.000000, 0.00, 0, 67, 609, 0
ATT, 0.00, -1.01, 0.00, -0.55, 0.00, 60.62, 61.50
CTUN, 609, 0.00, 8.45, 0.000000, 0.00, 0, 65, 609, 0
GPS, 3, 544604600, 11, 1.50, -33.7840287, 151.0682463, 8.47, 98.06, 0.26, 91.83
ATT, 0.00, -0.76, 0.00, -0.93, 0.00, 60.96, 61.50
CTUN, 609, 0.00, 8.48, 0.000000, 0.00, 0, 62, 609, 0
ATT, 0.00, -0.57, 0.00, -1.20, 0.00, 61.08, 61.50
CTUN, 609, 0.00, 8.60, 0.000000, 0.00, 0, 60, 609, 0
GPS, 3, 544604800, 12, 1.42, -33.7840282, 151.0682465, 8.59, 98.18, 0.41, 46.48
CTUN, 609, 0.00, 8.64, 0.000000, 0.00, 0, 60, 609, 0
ATT, 0.00, -0.56, 0.00, -1.18, 0.00, 60.82, 61.50
CTUN, 609, 0.00, 8.85, 0.000000, 0.00, 0, 60, 610, 0
ATT, 0.00, -0.32, 0.00, -1.05, 0.00, 60.37, 61.50
GPS, 3, 544605000, 12, 1.42, -33.7840278, 151.0682468, 8.71, 98.23, 0.31, 42.79
CTUN, 609, 0.00, 8.79, 0.000000, 0.00, 0, 58, 609, 0
ATT, 0.00, -0.23, 0.00, -0.73, 0.00, 59.70, 61.50
CTUN, 609, 0.00, 8.78, 0.000000, 0.00, 0, 57, 609, 0
GPS, 3, 544605200, 12, 1.42, -33.7840273, 151.0682473, 8.83, 98.32, 0.38, 46.20
ATT, 0.00, 0.15, 0.00, -0.28, 0.00, 58.89, 61.50
DU32, 7, 82041
CURR, 609, 145243, 1088, 1433, 4752, 107.2782
CTUN, 609, 0.00, 8.88, 0.000000, 0.00, 0, 58, 609, 0
ATT, 0.00, 0.76, 0.00, 0.22, 0.00, 58.31, 61.50
CTUN, 609, 0.00, 9.08, 0.000000, 0.00, 0, 56, 609, 0
GPS, 3, 544605400, 11, 1.50, -33.7840272, 151.0682479, 8.94, 98.42, 0.34, 48.31
ATT, 0.00, 0.94, 0.00, 0.47, 0.00, 57.87, 61.50
CTUN, 609, 0.00, 9.03, 0.000000, 0.00, 0, 57, 609, 0
MODE, LOITER, 607
NTUN, 0.00, 0.00, 0.000000, 0.000000, 0.000000, 0.000000, -6.521101, 43.13489, 0.000000, 0.000000, 0.65, 0.61
ATT, 0.00, 0.61, 0.00, 0.68, 0.00, 57.75, 61.50
CTUN, 609, 0.00, 9.06, 9.611000, 0.00, 0, 58, 602, 5
GPS, 3, 544605600, 12, 1.42, -33.7840270, 151.0682484, 9.05, 98.50, 0.36, 48.05
NTUN, 0.00, 2.67, -0.358512, 0.326309, -4.086164, 39.02013, -11.49537, 44.11735, 31.54361, -42.89825, -0.04, -0.03
ATT, 0.00, 0.12, 0.00, 0.96, 0.00, 57.85, 61.50
CTUN, 609, 0.00, 9.11, 9.612999, 0.00, 0, 58, 583, 5
NTUN, 0.00, 2.55, -0.112289, 0.573150, -1.198874, 35.06816, -14.52171, 43.66340, 42.16455, -47.91884, -2.89, 1.14
CTUN, 609, 0.00, 9.20, 9.616999, 0.00, 0, 56, 575, 5
PM, 0, 0, 50, 1, 1005, 10888, 0, 4
ATT, 0.00, -1.35, 0.00, 1.22, 0.00, 58.13, 61.50
GPS, 3, 544605800, 12, 1.42, -33.7840265, 151.0682493, 9.19, 98.58, 0.52, 47.35
NTUN, 0.00, 2.76, 0.242294, 0.412078, 0.242294, 30.85481, -14.99164, 42.57961, 30.41169, -55.13348, -3.19, 1.81
CTUN, 609, 0.00, 9.20, 9.618998, 0.00, 0, 49, 558, 5
NTUN, 0.00, 2.74, 0.135284, -0.168655, 0.135284, 26.40416, -12.29351, 40.57315, 12.92990, -59.50657, -2.44, 2.57
ATT, 0.00, -3.71, 0.00, 0.74, 0.00, 58.76, 61.50
CTUN, 610, 0.00, 9.32, 9.621997, 0.00, 0, 40, 550, 5
GPS, 3, 544606000, 12, 1.42, -33.7840262, 151.0682498, 9.27, 98.67, 0.29, 49.97
NTUN, 0.00, 2.45, -0.413551, -0.815231, -0.413551, 22.09876, -8.115094, 38.03089, 4.456204, -61.48884, -2.07, 2.94
ATT, 0.00, -3.74, 0.00, 1.08, 0.00, 59.05, 61.50
CTUN, 609, 0.00, 9.39, 9.624996, 0.00, 0, 30, 556, 5
MODE, ALT_HOLD, 607
CTUN, 609, 0.00, 9.48, 9.628995, 0.00, 0, 22, 588, 5
GPS, 3, 544606200, 12, 1.42, -33.7840257, 151.0682506, 9.34, 98.76, 0.39, 61.53
ATT, 0.00, -2.95, 0.00, 1.30, 0.00, 59.20, 61.50
DU32, 7, 82041
CURR, 609, 149936, 1097, 1252, 4712, 111.0256
CTUN, 609, 0.00, 9.46, 9.631994, 0.00, 0, 16, 584, 5
ATT, 0.00, -1.66, 0.00, -0.25, 0.00, 59.23, 61.50
CTUN, 609, 0.00, 9.41, 9.635994, 0.00, 0, 13, 608, 5
GPS, 3, 544606400, 12, 1.42, -33.7840256, 151.0682511, 9.39, 98.78, 0.36, 60.91
ATT, 0.00, -1.08, 0.00, -0.91, 0.00, 59.17, 61.50
CTUN, 609, 0.00, 9.53, 9.639194, 0.00, 0, 12, 615, 6
ATT, 0.00, -0.54, 0.00, -1.01, 0.00, 59.02, 61.50
GPS, 3, 544606600, 12, 1.42, -33.7840252, 151.0682517, 9.42, 98.79, 0.34, 58.00
CTUN, 609, 0.00, 9.45, 9.643192, 0.00, 0, 13, 617, 5
ATT, 0.00, 0.13, 0.00, -1.08, 0.00, 58.85, 61.50
CTUN, 609, 0.00, 9.57, 9.648190, 0.00, 0, 15, 605, 5
ATT, 0.00, 0.18, 0.00, -0.90, 0.00, 58.67, 61.50
GPS, 3, 544606800, 12, 1.42, -33.7840248, 151.0682523, 9.46, 98.80, 0.42, 54.92
CTUN, 610, 0.00, 9.41, 9.651190, 0.00, 0, 15, 610, 5
ATT, 0.00, 0.50, 0.00, -0.56, 0.00, 58.50, 61.50
CTUN, 609, 0.00, 9.52, 9.656389, 0.00, 0, 15, 609, 5
ATT, 0.00, 0.65, 0.00, -0.23, 0.00, 58.50, 61.50
GPS, 3, 544607000, 12, 1.42, -33.7840245, 151.0682529, 9.49, 98.77, 0.37, 59.31
CTUN, 609, 0.00, 9.56, 9.659589, 0.00, 0, 16, 601, 5
ATT, 0.00, 0.29, 0.00, -0.31, 0.00, 58.65, 61.50
CTUN, 609, 0.00, 9.46, 9.664587, 0.00, 0, 14, 605, 5
ATT, 0.00, -0.23, 0.00, -0.59, 0.00, 58.80, 61.50
GPS, 3, 544607200, 12, 1.42, -33.7840243, 151.0682537, 9.53, 98.77, 0.48, 65.08
CTUN, 609, 0.00, 9.52, 9.668587, 0.00, 0, 11, 604, 5
ATT, 0.00, -0.55, 0.00, -0.54, 0.00, 58.79, 61.50
DU32, 7, 82041
CURR, 609, 156011, 1090, 1432, 4752, 115.2819
CTUN, 609, 0.00, 9.67, 9.672585, 0.00, 0, 11, 620, 5
ATT, 0.00, -0.58, 0.00, -0.30, 0.00, 58.67, 61.50
GPS, 3, 544607400, 12, 1.42, -33.7840243, 151.0682547, 9.55, 98.73, 0.53, 69.41
CTUN, 609, 0.00, 9.54, 9.676584, 0.00, 0, 10, 616, 5
ATT, 0.00, -0.20, 0.00, 0.08, 0.00, 58.47, 61.50
CTUN, 609, 0.00, 9.55, 9.680584, 0.00, 0, 8, 612, 5
ATT, 0.00, 0.11, 0.00, 0.31, 0.00, 58.25, 61.50
GPS, 3, 544607600, 12, 1.42, -33.7840240, 151.0682557, 9.57, 98.70, 0.59, 74.57
CTUN, 609, 0.00, 9.58, 9.684583, 0.00, 0, 8, 618, 5
ATT, 0.00, 0.05, 0.00, 0.17, 0.00, 58.11, 61.50
CTUN, 609, 0.00, 9.61, 9.688581, 0.00, 0, 8, 620, 5
GPS, 3, 544607800, 12, 1.42, -33.7840241, 151.0682569, 9.59, 98.68, 0.60, 77.99
ATT, 0.00, -0.18, 0.00, 0.00, 0.00, 58.12, 61.50
CTUN, 609, 0.00, 9.73, 9.692580, 0.00, 0, 8, 620, 5
ATT, 0.00, 0.01, 0.11, -0.02, 0.00, 58.14, 61.50
CTUN, 609, 0.00, 9.64, 9.696580, 0.00, 0, 7, 612, 5
GPS, 3, 544608000, 12, 1.42, -33.7840242, 151.0682582, 9.61, 98.67, 0.64, 80.90
ATT, 0.00, 0.24, 2.10, 0.25, 0.00, 57.97, 61.50
CTUN, 609, 0.00, 9.64, 9.700579, 0.00, 0, 6, 616, 5
ATT, 0.00, 1.27, 2.10, 1.30, 0.00, 57.67, 61.50
CTUN, 609, 0.00, 9.65, 9.705578, 0.00, 0, 6, 620, 5
GPS, 3, 544608200, 12, 1.42, -33.7840245, 151.0682594, 9.63, 98.66, 0.62, 82.75
ATT, 0.00, 1.10, 3.28, 1.48, 0.00, 57.46, 61.50
CTUN, 609, 0.00, 9.66, 9.709577, 0.00, 0, 5, 625, 5
ATT, 0.00, 0.27, 4.57, 1.34, 0.00, 57.55, 61.50
CTUN, 609, 0.00, 9.69, 9.714575, 0.00, 0, 4, 628, 5
GPS, 3, 544608400, 12, 1.42, -33.7840246, 151.0682608, 9.64, 98.62, 0.71, 86.89
ATT, 0.00, -0.11, 5.03, 2.13, 0.00, 57.81, 61.50
CTUN, 609, 0.00, 9.74, 9.718575, 0.00, 0, 5, 617, 5
DU32, 7, 82041
CURR, 609, 163426, 1089, 1476, 4712, 120.3822
ATT, 0.00, 0.00, 6.32, 3.20, 0.00, 58.27, 61.50
CTUN, 609, 0.00, 9.64, 9.723573, 0.00, 0, 5, 617, 5
GPS, 3, 544608600, 12, 1.42, -33.7840248, 151.0682623, 9.66, 98.60, 0.75, 90.38
ATT, 0.00, 0.64, 6.56, 4.82, 0.00, 58.73, 61.50
CTUN, 609, 0.00, 9.70, 9.727372, 0.00, 1, 4, 626, 5
ATT, 0.00, 1.21, 7.61, 5.90, 0.00, 59.09, 61.50
CTUN, 609, 0.00, 9.81, 9.731372, 0.00, 2, 2, 623, 5
GPS, 3, 544608800, 12, 1.42, -33.7840253, 151.0682636, 9.67, 98.57, 0.69, 96.58
ATT, -0.93, 0.78, 9.96, 7.05, 0.00, 59.33, 61.50
CTUN, 609, 0.00, 9.81, 9.735371, 0.00, 3, 5, 633, 5
ATT, -2.44, -0.10, 12.42, 8.27, 0.00, 59.38, 61.50
CTUN, 609, 0.00, 9.76, 9.740369, 0.00, 5, 3, 636, 5
GPS, 3, 544609000, 12, 1.42, -33.7840261, 151.0682648, 9.70, 98.52, 0.69, 108.15
CTUN, 609, 0.00, 9.65, 9.743568, 0.00, 7, 2, 643, 5
ATT, -3.02, -1.55, 11.71, 10.04, 0.00, 59.25, 61.50
CTUN, 609, 0.00, 9.86, 9.747568, 0.00, 8, 1, 633, 5
ATT, -3.48, -2.85, 11.48, 9.94, 0.00, 59.10, 61.50
GPS, 3, 544609200, 12, 1.42, -33.7840269, 151.0682656, 9.70, 98.51, 0.59, 119.13
CTUN, 609, 0.00, 9.88, 9.751567, 0.00, 7, 2, 637, 5
ATT, -5.46, -3.96, 11.01, 9.21, 0.00, 58.97, 61.50
CTUN, 609, 0.00, 10.01, 9.756565, 0.00, 7, 5, 620, 5
ATT, -6.51, -5.00, 9.37, 8.54, 0.00, 58.64, 61.50
GPS, 3, 544609400, 12, 1.42, -33.7840280, 151.0682657, 9.74, 98.49, 0.58, 144.21
CTUN, 610, 0.00, 9.95, 9.760765, 0.00, 6, 8, 597, 6
ATT, -8.25, -5.34, 8.55, 7.74, 0.00, 58.14, 61.50
CTUN, 609, 0.00, 9.92, 9.765964, 0.00, 6, 5, 601, 5
ATT, -9.06, -6.45, 6.44, 7.48, 0.00, 57.75, 61.50
GPS, 3, 544609600, 12, 1.42, -33.7840292, 151.0682651, 9.77, 98.47, 0.70, 169.48
CTUN, 609, 0.00, 9.90, 9.768963, 0.00, 6, 4, 594, 5
ATT, -8.72, -7.87, 4.33, 5.48, 0.00, 57.61, 61.50
CTUN, 609, 0.00, 9.92, 9.772962, 0.00, 6, 1, 603, 5
ATT, -9.41, -8.90, 4.33, 3.21, 0.00, 57.53, 61.50
GPS, 3, 544609800, 12, 1.42, -33.7840301, 151.0682641, 9.80, 98.43, 0.64, 189.30
DU32, 7, 82041
CURR, 610, 170885, 1087, 1383, 4732, 125.5366
CTUN, 609, 0.00, 10.02, 9.777162, 0.00, 6, 0, 599, 6
ATT, -9.41, -8.89, 4.92, 2.51, 0.00, 57.31, 61.50
CTUN, 609, 0.00, 9.96, 9.782160, 0.00, 5, 0, 590, 5
ATT, -9.41, -8.56, 4.57, 2.62, 0.00, 57.13, 61.50
GPS, 3, 544610000, 12, 1.42, -33.7840306, 151.0682627, 9.82, 98.41, 0.65, 208.87
CTUN, 609, 0.00, 10.02, 9.786160, 0.00, 5, -2, 606, 5
ATT, -8.25, -8.46, 3.86, 2.12, 0.00, 57.10, 61.50
CTUN, 609, 0.00, 10.02, 9.791158, 0.00, 4, -4, 605, 5
ATT, -5.58, -7.45, 3.16, 1.36, 0.00, 57.07, 61.50
GPS, 3, 544610200, 12, 1.42, -33.7840309, 151.0682612, 9.83, 98.38, 0.67, 229.64
CTUN, 609, 0.00, 10.05, 9.795156, 0.00, 2, -3, 583, 5
ATT, -5.58, -5.70, 2.57, 1.49, 0.00, 56.97, 61.50
CTUN, 609, 0.00, 10.05, 9.800156, 0.00, 1, -3, 589, 5
ATT, -5.34, -4.70, 2.10, 1.20, 0.00, 56.99, 61.50
GPS, 3, 544610400, 12, 1.42, -33.7840307, 151.0682595, 9.85, 98.38, 0.73, 238.60
CTUN, 609, 0.00, 10.28, 9.804154, 0.00, 1, -2, 584, 5
ATT, -4.18, -4.27, 1.28, 0.27, 0.00, 57.14, 61.50
CTUN, 609, 0.00, 10.36, 9.809154, 0.00, 0, -3, 591, 5
ATT, -4.18, -3.18, 0.70, 0.11, 0.00, 57.30, 61.50
GPS, 3, 544610600, 12, 1.42, -33.7840304, 151.0682580, 9.89, 98.35, 0.66, 252.86
CTUN, 609, 0.00, 10.30, 9.813152, 0.00, 0, -7, 597, 5
ATT, -3.25, -2.93, 0.11, 0.11, 0.00, 57.60, 61.50
CTUN, 609, 0.00, 10.33, 9.818151, 0.00, 0, -10, 599, 5
ATT, -2.20, -2.57, 0.11, -0.92, 0.00, 57.91, 61.50
GPS, 3, 544610800, 12, 1.42, -33.7840296, 151.0682567, 9.92, 98.30, 0.62, 274.36
CTUN, 609, 0.00, 10.32, 9.821151, 0.00, 0, -12, 582, 5
DU32, 7, 82041
CURR, 609, 177448, 1093, 1394, 4732, 129.8612
ATT, -1.16, -2.09, 0.00, -0.98, 0.00, 58.23, 61.50
CTUN, 609, 0.00, 10.28, 9.825150, 0.00, 0, -9, 577, 5
GPS, 3, 544611000, 12, 1.42, -33.7840292, 151.0682553, 9.94, 98.24, 0.61, 286.85
ATT, -1.16, -1.29, 0.00, -0.70, 0.00, 58.44, 61.50
CTUN, 609, 0.00, 10.25, 9.829349, 0.00, 0, -12, 603, 5
ATT, -1.39, -0.81, 0.00, -0.42, 0.00, 58.52, 61.50
CTUN, 609, 0.00, 10.20, 9.833347, 0.00, 0, -14, 596, 5
GPS, 3, 544611200, 12, 1.42, -33.7840287, 151.0682540, 9.95, 98.19, 0.55, 288.85
ATT, -1.27, -0.67, 0.00, -0.55, 0.00, 58.62, 61.50
CTUN, 609, 0.00, 10.24, 9.837347, 0.00, 0, -14, 596, 5
ATT, -0.93, -0.78, 0.00, -0.28, 0.00, 58.71, 61.50
CTUN, 609, 0.00, 10.18, 9.841346, 0.00, 0, -15, 616, 5
GPS, 3, 544611400, 12, 1.42, -33.7840282, 151.0682530, 9.96, 98.10, 0.47, 295.52
ATT, -0.93, -0.71, 0.00, -0.07, 0.00, 58.73, 61.50
CTUN, 609, 0.00, 9.98, 9.845345, 0.00, 0, -15, 615, 5
ATT, -0.93, -1.06, 0.00, -0.32, 0.00, 58.75, 61.50
CTUN, 609, 0.00, 10.06, 9.849344, 0.00, 0, -14, 605, 5
GPS, 3, 544611600, 12, 1.42, -33.7840278, 151.0682523, 9.94, 98.01, 0.32, 300.10
ATT, 0.00, -1.13, 0.00, -0.13, 0.00, 58.78, 61.50
CTUN, 609, 0.00, 9.86, 9.853343, 0.00, 0, -10, 606, 5
ATT, 0.00, -1.15, 0.00, -0.21, 0.00, 58.88, 61.50
CTUN, 609, 0.00, 9.89, 9.858341, 0.00, 0, -10, 618, 5
GPS, 3, 544611800, 12, 1.42, -33.7840272, 151.0682516, 9.92, 97.94, 0.35, 310.81
ATT, 0.00, -1.03, 0.00, -0.42, 0.00, 58.95, 61.50
CTUN, 609, 0.00, 9.91, 9.862341, 0.00, 0, -11, 627, 5
DU32, 7, 82041
CURR, 609, 183510, 1084, 1469, 4712, 133.7877
ATT, 0.00, -1.00, 0.00, -0.26, 0.00, 58.97, 61.50
CTUN, 609, 0.00, 9.81, 9.867339, 0.00, 0, -5, 617, 5
GPS, 3, 544612000, 12, 1.42, -33.7840269, 151.0682513, 9.90, 97.85, 0.20, 310.81
ATT, 0.00, -0.69, 0.00, 0.00, 0.00, 58.89, 61.50
CTUN, 609, 0.00, 9.89, 9.871339, 0.00, 0, -4, 628, 5
ATT, 0.00, -0.22, 0.00, 0.45, 0.00, 58.83, 61.50
CTUN, 609, 0.00, 9.89, 9.875338, 0.00, 0, -3, 619, 5
GPS, 3, 544612200, 12, 1.42, -33.7840264, 151.0682511, 9.88, 97.81, 0.23, 325.05
ATT, 0.00, -0.24, 0.23, 0.82, 0.00, 58.83, 61.50
CTUN, 609, 0.00, 9.86, 9.879137, 0.00, 0, -3, 623, 5
ATT, 0.00, -0.23, 0.93, 0.71, 0.00, 58.84, 61.50
CTUN, 609, 0.00, 9.78, 9.883136, 0.00, 0, -1, 619, 5
GPS, 3, 544612400, 12, 1.42, -33.7840262, 151.0682510, 9.88, 97.77, 0.16, 325.05
ATT, 0.00, -0.23, 1.52, 1.34, 0.00, 58.91, 61.50
CTUN, 609, 0.00, 9.74, 9.887135, 0.00, 0, 0, 629, 5
ATT, -0.11, 0.30, 2.57, 1.94, 0.00, 58.86, 61.50
CTUN, 609, 0.00, 9.69, 9.891134, 0.00, 0, -1, 633, 5
ATT, -0.46, 0.04, 3.39, 2.40, 0.00, 58.87, 61.50
GPS, 3, 544612600, 12, 1.42, -33.7840260, 151.0682511, 9.86, 97.71, 0.16, 325.05
CTUN, 610, 0.00, 9.68, 9.896333, 0.00, 0, 2, 620, 5
ATT, -0.93, 0.09, 4.45, 3.06, 0.00, 58.85, 61.50
CTUN, 610, 0.00, 9.66, 9.901133, 0.00, 0, 2, 625, 6
GPS, 3, 544612800, 11, 1.48, -33.7840259, 151.0682512, 9.85, 97.68, 0.13, 325.05
ATT, -0.93, -0.30, 5.03, 3.88, 0.00, 58.71, 61.50
CTUN, 610, 0.00, 9.69, 9.905932, 0.00, 1, 5, 620, 6
ATT, -1.27, -0.73, 5.39, 4.22, 0.00, 58.38, 61.50
CTUN, 610, 0.00, 9.67, 9.911932, 0.00, 1, 8, 615, 6
GPS, 3, 544613000, 10, 1.56, -33.7840259, 151.0682512, 9.84, 97.67, 0.11, 325.05
ATT, -1.86, -0.84, 5.74, 4.31, 0.00, 58.02, 61.50
CTUN, 610, 0.00, 9.84, 9.916732, 0.00, 1, 10, 613, 6
ATT, -4.18, -1.17, 5.74, 5.05, 0.00, 57.71, 61.50
CTUN, 609, 0.00, 9.88, 9.922532, 0.00, 2, 12, 611, 5
ATT, -4.88, -2.53, 6.09, 4.98, 0.00, 57.66, 61.50
GPS, 3, 544613200, 10, 1.56, -33.7840262, 151.0682512, 9.85, 97.67, 0.15, 325.05
CTUN, 610, 0.00, 9.51, 9.927332, 0.00, 2, 13, 592, 6
