dump 4

ArduCopter V3.1-rc3.1
Free RAM: 1142
APM 2
FMT, 128, 89, FMT, BBnNZ, Type,Length,Name,Format
FMT, 129, 23, PARM, Nf, Name,Value
FMT, 130, 35, GPS, BIBcLLeeEe, Status,Time,NSats,HDop,Lat,Lng,RelAlt,Alt,Spd,GCrs
FMT, 131, 27, IMU, ffffff, GyrX,GyrY,GyrZ,AccX,AccY,AccZ
FMT, 132, 67, MSG, Z, Message
FMT, 9, 19, CURR, hIhhhf, Thr,ThrInt,Volt,Curr,Vcc,CurrTot
FMT, 11, 11, MOT, hhhh, Mot1,Mot2,Mot3,Mot4
FMT, 12, 28, OF, hhBccffee, Dx,Dy,SQual,X,Y,Lat,Lng,Roll,Pitch
FMT, 5, 49, NTUN, Ecffffffffee, WPDst,WPBrg,PErX,PErY,DVelX,DVelY,VelX,VelY,DAcX,DAcY,DRol,DPit
FMT, 4, 25, CTUN, hcefchhhh, ThrIn,SonAlt,BarAlt,WPAlt,DesSonAlt,AngBst,CRate,ThrOut,DCRate
FMT, 15, 21, MAG, hhhhhhhhh, MagX,MagY,MagZ,OfsX,OfsY,OfsZ,MOfsX,MOfsY,MOfsZ
FMT, 6, 17, PM, BBBHHIhB, RenCnt,RenBlw,FixCnt,NLon,NLoop,MaxT,PMT,I2CErr
FMT, 8, 20, CMD, BBBBBeLL, CTot,CNum,CId,COpt,Prm1,Alt,Lat,Lng
FMT, 1, 17, ATT, cccccCC, RollIn,Roll,PitchIn,Pitch,YawIn,Yaw,NavYaw
FMT, 17, 37, INAV, cccfffiiff, BAlt,IAlt,IClb,ACorrX,ACorrY,ACorrZ,GLat,GLng,ILat,ILng
FMT, 3, 6, MODE, Mh, Mode,ThrCrs
FMT, 10, 3, STRT, , 
FMT, 13, 4, EV, B, Id
FMT, 20, 6, D16, Bh, Id,Value
FMT, 21, 6, DU16, BH, Id,Value
FMT, 22, 8, D32, Bi, Id,Value
FMT, 23, 8, DU32, BI, Id,Value
FMT, 24, 8, DFLT, Bf, Id,Value
FMT, 14, 28, PID, Biiiiif, Id,Error,P,I,D,Out,Gain
FMT, 18, 25, CAM, ILLeccC, GPSTime,Lat,Lng,Alt,Roll,Pitch,Yaw
FMT, 19, 5, ERR, BB, Subsys,ECode
D32, 9, 7478
EV, 10
GPS, 3, 18319400, 12, 1.60, -33.7840645, 151.0681858, 1.15, 95.28, 0.05, 151.98
EV, 25
CMD, 6, 0, 16, 0, 0, 0.00, -33.7840645, 151.0681858
ATT, 0.00, -0.17, 0.00, 0.14, 0.00, 74.77, 74.77
CTUN, 0, 0.00, 0.00, 0.000000, 0.00, 0, 9, 0, 0
ATT, 0.00, -0.04, 0.00, -0.06, 0.00, 74.77, 74.77
CTUN, 0, 0.00, -0.01, 0.000000, 0.00, 0, 8, 0, 0
GPS, 3, 18326800, 12, 1.60, -33.7840639, 151.0681802, 1.09, 96.34, 0.07, 151.98
ATT, 0.00, 0.04, 0.00, -0.17, 0.00, 74.76, 74.76
CTUN, 0, 0.00, -0.04, 0.000000, 0.00, 0, 7, 0, 0
ATT, 0.00, 0.03, 0.00, -0.16, 0.00, 74.76, 74.76
CTUN, 0, 0.00, -0.05, 0.000000, 0.00, 0, 6, 0, 0
GPS, 3, 18327000, 12, 1.60, -33.7840639, 151.0681801, 0.96, 96.37, 0.04, 151.98
ATT, 0.00, 0.02, 0.00, -0.15, 0.00, 74.75, 74.75
CTUN, 0, 0.00, -0.05, 0.000000, 0.00, 0, 5, 0, 0
ATT, 0.00, 0.00, 0.00, -0.14, 0.00, 74.74, 74.74
CTUN, 0, 0.00, -0.02, 0.000000, 0.00, 0, 4, 0, 0
GPS, 3, 18327200, 12, 1.60, -33.7840638, 151.0681797, 0.85, 96.39, 0.11, 151.98
ATT, 0.00, -0.01, 0.00, -0.13, 0.00, 74.73, 74.73
CTUN, 0, 0.00, 0.00, 0.000000, 0.00, 0, 3, 0, 0
DU32, 7, 1625
CURR, 0, 0, 0, 0, 4732, 0.000000
ATT, 0.00, -0.02, 0.00, -0.12, 0.00, 74.72, 74.72
CTUN, 0, 0.00, -0.04, 0.000000, 0.00, 0, 2, 0, 0
GPS, 3, 18327400, 12, 1.60, -33.7840637, 151.0681794, 0.75, 96.42, 0.07, 151.98
ATT, 0.00, -0.03, 0.00, -0.10, 0.00, 74.71, 74.71
CTUN, 0, 0.00, -0.07, 0.000000, 0.00, 0, 2, 0, 0
ATT, 0.00, -0.02, 0.00, -0.10, 0.00, 74.72, 74.72
CTUN, 0, 0.00, -0.05, 0.000000, 0.00, 0, 1, 0, 0
GPS, 3, 18327600, 12, 1.60, -33.7840637, 151.0681793, 0.66, 96.44, 0.01, 151.98
ATT, 0.00, -0.01, 0.00, -0.12, 0.00, 74.70, 74.70
CTUN, 0, 0.00, 0.03, 0.000000, 0.00, 0, 0, 0, 0
ATT, 0.00, 0.00, 0.00, -0.14, 0.00, 74.71, 74.71
CTUN, 0, 0.00, -0.05, 0.000000, 0.00, 0, 0, 0, 0
GPS, 3, 18327800, 12, 1.60, -33.7840637, 151.0681791, 0.59, 96.47, 0.04, 151.98
ATT, 0.00, 0.00, 0.00, -0.14, 0.00, 74.69, 74.69
CTUN, 0, 0.00, -0.08, 0.000000, 0.00, 0, 0, 0, 0
ATT, 0.00, 0.00, 0.00, -0.12, 0.00, 74.70, 74.70
CTUN, 0, 0.00, 0.00, 0.000000, 0.00, 0, 0, 0, 0
GPS, 3, 18328000, 12, 1.60, -33.7840637, 151.0681790, 0.51, 96.48, 0.04, 151.98
ATT, 0.00, 0.00, 0.00, -0.11, 0.00, 74.68, 74.68
CTUN, 0, 0.00, -0.02, 0.000000, 0.00, 0, 0, 0, 0
ATT, 0.00, -0.02, 0.00, -0.12, 0.00, 74.68, 74.68
CTUN, 0, 0.00, 0.00, 0.000000, 0.00, 0, -1, 0, 0
GPS, 3, 18328200, 12, 1.60, -33.7840639, 151.0681790, 0.45, 96.53, 0.03, 151.98
ATT, 0.00, -0.02, 0.00, -0.12, 0.00, 74.68, 74.68
CTUN, 0, 0.00, 0.03, 0.000000, 0.00, 0, -1, 0, 0
DU32, 7, 1625
CURR, 0, 0, 0, 0, 4732, 0.000000
ATT, 0.00, -0.01, 0.00, -0.13, 0.00, 74.67, 74.67
CTUN, 0, 0.00, -0.04, 0.000000, 0.00, 0, -2, 0, 0
GPS, 3, 18328400, 12, 1.60, -33.7840639, 151.0681789, 0.40, 96.53, 0.05, 151.98
ATT, 0.00, 0.00, 0.00, -0.12, 0.00, 74.67, 74.67
CTUN, 0, 0.00, -0.08, 0.000000, 0.00, 0, -2, 0, 0
ATT, 0.00, 0.00, 0.00, -0.12, 0.00, 74.67, 74.67
CTUN, 0, 0.00, -0.04, 0.000000, 0.00, 0, -2, 0, 0
GPS, 3, 18328600, 12, 1.60, -33.7840638, 151.0681785, 0.33, 96.57, 0.06, 151.98
ATT, 0.00, 0.00, 0.00, -0.11, 0.00, 74.66, 74.66
CTUN, 0, 0.00, 0.00, 0.000000, 0.00, 0, -3, 0, 0
ATT, 0.00, -0.03, 0.00, -0.10, 0.00, 74.66, 74.66
CTUN, 0, 0.00, 0.00, 0.000000, 0.00, 0, -3, 0, 0
GPS, 3, 18328800, 12, 1.60, -33.7840637, 151.0681781, 0.28, 96.60, 0.03, 151.98
ATT, 0.00, -0.04, 0.00, -0.09, 0.00, 74.65, 74.65
CTUN, 0, 0.00, -0.01, 0.000000, 0.00, 0, -3, 0, 0
ATT, 0.00, -0.02, 0.00, -0.08, 0.00, 74.65, 74.65
CTUN, 0, 0.00, 0.05, 0.000000, 0.00, 0, -3, 0, 0
GPS, 3, 18329000, 12, 1.60, -33.7840637, 151.0681778, 0.24, 96.62, 0.02, 151.98
ATT, 0.00, -0.01, 0.00, -0.08, 0.00, 74.64, 74.64
CTUN, 0, 0.00, 0.02, 0.000000, 0.00, 0, -3, 0, 0
ATT, 0.00, -0.02, 0.00, -0.07, 0.00, 74.64, 74.64
CTUN, 0, 0.00, -0.09, 0.000000, 0.00, 0, -3, 0, 0
GPS, 3, 18329200, 12, 1.60, -33.7840635, 151.0681774, 0.21, 96.66, 0.02, 151.98
ATT, 0.00, -0.02, 0.00, -0.09, 0.00, 74.64, 74.64
CTUN, 0, 0.00, 0.05, 0.000000, 0.00, 0, -3, 0, 0
DU32, 7, 1625
CURR, 0, 0, 0, 0, 4772, 0.000000
ATT, 0.00, -0.03, 0.00, -0.08, 0.00, 74.64, 74.64
CTUN, 0, 0.00, -0.01, 0.000000, 0.00, 0, -3, 0, 0
GPS, 3, 18329400, 12, 1.60, -33.7840633, 151.0681770, 0.18, 96.67, 0.08, 151.98
ATT, 0.00, -0.04, 0.00, -0.09, 0.00, 74.64, 74.64
CTUN, 0, 0.00, -0.14, 0.000000, 0.00, 0, -3, 0, 0
ATT, 0.00, -0.05, 0.00, -0.04, 0.00, 74.63, 74.63
CTUN, 0, 0.00, -0.05, 0.000000, 0.00, 0, -4, 0, 0
GPS, 3, 18329600, 12, 1.60, -33.7840632, 151.0681766, 0.14, 96.70, 0.01, 151.98
ATT, 0.00, -0.06, 0.00, -0.05, 0.00, 74.64, 74.64
CTUN, 0, 0.00, 0.03, 0.000000, 0.00, 0, -4, 0, 0
ATT, 0.00, -0.05, 0.00, -0.05, 0.00, 74.63, 74.63
CTUN, 0, 0.00, -0.09, 0.000000, 0.00, 0, -4, 0, 0
GPS, 3, 18329800, 12, 1.60, -33.7840632, 151.0681763, 0.11, 96.71, 0.06, 151.98
ATT, 0.00, -0.04, 0.00, -0.06, 0.00, 74.63, 74.63
CTUN, 0, 0.00, 0.00, 0.000000, 0.00, 0, -4, 0, 0
ATT, 0.00, -0.01, 0.00, -0.04, 0.00, 74.62, 74.62
CTUN, 0, 0.00, 0.01, 0.000000, 0.00, 0, -4, 0, 0
GPS, 3, 18330000, 12, 1.60, -33.7840632, 151.0681759, 0.09, 96.74, 0.07, 151.98
ATT, 0.00, -0.01, 0.00, -0.04, 0.00, 74.63, 74.63
CTUN, 0, 0.00, 0.12, 0.000000, 0.00, 0, -4, 0, 0
ATT, 0.00, -0.01, 0.00, -0.02, 0.00, 74.62, 74.62
CTUN, 0, 0.00, 0.02, 0.000000, 0.00, 0, -3, 0, 0
GPS, 3, 18330200, 12, 1.60, -33.7840631, 151.0681757, 0.08, 96.76, 0.01, 151.98
ATT, 0.00, -0.02, 0.00, -0.02, 0.00, 74.62, 74.62
CTUN, 0, 0.00, -0.03, 0.000000, 0.00, 0, -3, 0, 0
DU32, 7, 1625
CURR, 0, 0, 0, 0, 4732, 0.000000
ATT, 0.00, -0.04, 0.00, -0.04, 0.00, 74.62, 74.62
CTUN, 0, 0.00, -0.03, 0.000000, 0.00, 0, -3, 0, 0
GPS, 3, 18330400, 12, 1.60, -33.7840630, 151.0681753, 0.06, 96.78, 0.06, 151.98
ATT, 0.00, -0.06, 0.00, -0.03, 0.00, 74.62, 74.62
CTUN, 0, 0.00, 0.03, 0.000000, 0.00, 0, -3, 0, 0
ATT, 0.00, -0.07, 0.00, -0.03, 0.00, 74.61, 74.61
CTUN, 0, 0.00, 0.02, 0.000000, 0.00, 0, -3, 0, 0
GPS, 3, 18330600, 12, 1.60, -33.7840628, 151.0681750, 0.05, 96.82, 0.08, 151.98
ATT, 0.00, -0.09, 0.00, -0.01, 0.00, 74.62, 74.62
CTUN, 0, 0.00, -0.02, 0.000000, 0.00, 0, -2, 0, 0
ATT, 0.00, -0.09, 0.00, -0.02, 0.00, 74.61, 74.61
CTUN, 0, 0.00, -0.04, 0.000000, 0.00, 0, -2, 0, 0
GPS, 3, 18330800, 12, 1.60, -33.7840628, 151.0681747, 0.03, 96.81, 0.06, 151.98
ATT, 0.00, -0.10, 0.00, 0.00, 0.00, 74.61, 74.61
CTUN, 0, 0.00, -0.01, 0.000000, 0.00, 0, -2, 0, 0
ATT, 0.00, -0.10, 0.00, 0.00, 0.00, 74.61, 74.61
CTUN, 0, 0.00, -0.08, 0.000000, 0.00, 0, -2, 0, 0
GPS, 3, 18331000, 12, 1.60, -33.7840629, 151.0681746, 0.02, 96.82, 0.03, 151.98
ATT, 0.00, -0.09, 0.00, 0.00, 0.00, 74.61, 74.61
CTUN, 0, 0.00, -0.07, 0.000000, 0.00, 0, -2, 0, 0
ATT, 0.00, -0.07, 0.00, -0.01, 0.00, 74.61, 74.61
CTUN, 0, 0.00, 0.01, 0.000000, 0.00, 0, -2, 0, 0
GPS, 3, 18331200, 12, 1.60, -33.7840626, 151.0681741, 0.00, 96.86, 0.12, 151.98
ATT, 0.00, -0.07, 0.00, 0.00, 0.00, 74.60, 74.60
CTUN, 0, 0.00, 0.04, 0.000000, 0.00, 0, -2, 0, 0
DU32, 7, 1625
CURR, 0, 0, 0, 0, 4752, 0.000000
ATT, 0.00, -0.11, 0.00, 0.01, 0.00, 74.61, 74.61
CTUN, 0, 0.00, -0.03, 0.000000, 0.00, 0, -2, 0, 0
GPS, 3, 18331400, 12, 1.60, -33.7840627, 151.0681740, 0.00, 96.86, 0.04, 151.98
ATT, 0.00, -0.12, 0.00, 0.02, 0.00, 74.59, 74.59
CTUN, 0, 0.00, -0.02, 0.000000, 0.00, 0, -1, 0, 0
ATT, 0.00, -0.11, 0.00, 0.02, 0.00, 74.60, 74.60
CTUN, 0, 0.00, 0.03, 0.000000, 0.00, 0, -1, 0, 0
GPS, 3, 18331600, 12, 1.60, -33.7840628, 151.0681739, 0.00, 96.88, 0.03, 151.98
ATT, 0.00, -0.08, 0.00, 0.00, 0.00, 74.59, 74.59
CTUN, 0, 0.00, 0.00, 0.000000, 0.00, 0, -1, 0, 0
ATT, 0.00, -0.09, 0.00, 0.01, 0.00, 74.59, 74.59
CTUN, 0, 0.00, -0.05, 0.000000, 0.00, 0, -1, 0, 0
GPS, 3, 18331800, 12, 1.60, -33.7840627, 151.0681735, 0.00, 96.90, 0.14, 151.98
CTUN, 0, 0.00, 0.03, 0.000000, 0.00, 0, -1, 0, 0
ATT, 0.00, -0.10, 0.00, 0.01, 0.00, 74.59, 74.59
CTUN, 0, 0.00, 0.04, 0.000000, 0.00, 0, 0, 0, 0
ATT, 0.00, -0.14, 0.00, 0.03, 0.00, 74.58, 74.58
GPS, 3, 18332000, 12, 1.60, -33.7840627, 151.0681733, 0.00, 96.91, 0.09, 151.98
CTUN, 0, 0.00, 0.02, 0.000000, 0.00, 0, 0, 0, 0
ATT, 0.00, -0.16, 0.00, 0.05, 0.00, 74.58, 74.58
CTUN, 0, 0.00, -0.09, 0.000000, 0.00, 0, 0, 0, 0
ATT, 0.00, -0.14, 0.00, 0.03, 0.00, 74.58, 74.58
GPS, 3, 18332200, 12, 1.60, -33.7840627, 151.0681734, 0.00, 96.88, 0.03, 151.98
CTUN, 0, 0.00, -0.05, 0.000000, 0.00, 0, 0, 0, 0
ATT, 0.00, -0.14, 0.00, 0.02, 0.00, 74.58, 74.58
DU32, 7, 1625
CURR, 0, 0, 0, 0, 4752, 0.000000
CTUN, 0, 0.00, 0.05, 0.000000, 0.00, 0, 0, 0, 0
ATT, 0.00, -0.13, 0.00, 0.00, 0.00, 74.58, 74.58
GPS, 3, 18332400, 12, 1.60, -33.7840628, 151.0681733, 0.00, 96.88, 0.06, 151.98
CTUN, 0, 0.00, 0.00, 0.000000, 0.00, 0, 0, 0, 0
ATT, 0.00, -0.13, 0.00, 0.01, 0.00, 74.58, 74.58
CTUN, 0, 0.00, 0.00, 0.000000, 0.00, 0, 0, 0, 0
ATT, 0.00, -0.13, 0.00, 0.02, 0.00, 74.57, 74.57
GPS, 3, 18332600, 12, 1.60, -33.7840629, 151.0681734, 0.00, 96.86, 0.01, 151.98
CTUN, 0, 0.00, 0.04, 0.000000, 0.00, 0, 0, 0, 0
ATT, 0.00, -0.13, 0.00, 0.01, 0.00, 74.58, 74.58
CTUN, 0, 0.00, -0.04, 0.000000, 0.00, 0, 0, 0, 0
ATT, 0.00, -0.12, 0.00, 0.00, 0.00, 74.58, 74.58
GPS, 3, 18332800, 12, 1.60, -33.7840631, 151.0681737, 0.00, 96.81, 0.08, 151.98
CTUN, 0, 0.00, -0.02, 0.000000, 0.00, 0, 0, 0, 0
ATT, 0.00, -0.11, 0.00, 0.00, 0.00, 74.59, 74.59
CTUN, 0, 0.00, 0.01, 0.000000, 0.00, 0, 0, 0, 0
ATT, 0.00, -0.09, 0.00, -0.01, 0.00, 74.58, 74.58
GPS, 3, 18333000, 12, 1.60, -33.7840632, 151.0681737, 0.00, 96.81, 0.04, 151.98
CTUN, 0, 0.00, 0.00, 0.000000, 0.00, 0, 0, 0, 0
ATT, 0.00, -0.09, 0.00, 0.00, 0.00, 74.58, 74.58
CTUN, 0, 0.00, -0.05, 0.000000, 0.00, 0, 1, 0, 0
ATT, 0.00, -0.11, 0.00, 0.00, 0.00, 74.56, 74.56
GPS, 3, 18333200, 12, 1.60, -33.7840632, 151.0681737, 0.00, 96.79, 0.04, 151.98
CTUN, 0, 0.00, 0.00, 0.000000, 0.00, 0, 1, 0, 0
ATT, 0.00, -0.12, 0.00, 0.02, 0.00, 74.57, 74.57
DU32, 7, 1625
CURR, 0, 0, 0, 0, 4752, 0.000000
CTUN, 0, 0.00, -0.05, 0.000000, 0.00, 0, 1, 0, 0
ATT, 0.00, -0.15, 0.00, 0.02, 0.00, 74.56, 74.56
GPS, 3, 18333400, 12, 1.60, -33.7840633, 151.0681739, 0.00, 96.76, 0.07, 151.98
CTUN, 0, 0.00, 0.01, 0.000000, 0.00, 0, 1, 0, 0
ATT, 0.00, -0.14, 0.00, 0.02, 0.00, 74.56, 74.56
CTUN, 0, 0.00, -0.08, 0.000000, 0.00, 0, 1, 0, 0
ATT, 0.00, -0.12, 0.00, 0.01, 0.00, 74.56, 74.56
GPS, 3, 18333600, 12, 1.60, -33.7840635, 151.0681740, 0.00, 96.77, 0.11, 151.98
CTUN, 0, 0.00, -0.01, 0.000000, 0.00, 0, 1, 0, 0
ATT, 0.00, -0.10, 0.00, 0.02, 0.00, 74.56, 74.56
CTUN, 0, 0.00, -0.14, 0.000000, 0.00, 0, 2, 0, 0
ATT, 0.00, -0.09, 0.00, 0.01, 0.00, 74.56, 74.56
GPS, 3, 18333800, 12, 1.60, -33.7840635, 151.0681738, 0.00, 96.79, 0.05, 151.98
CTUN, 0, 0.00, -0.02, 0.000000, 0.00, 0, 2, 0, 0
ATT, 0.00, -0.10, 0.00, 0.05, 0.00, 74.55, 74.55
CTUN, 0, 0.00, -0.12, 0.000000, 0.00, 0, 2, 0, 0
ATT, 0.00, -0.13, 0.00, 0.05, 0.00, 74.56, 74.56
GPS, 3, 18334000, 12, 1.60, -33.7840636, 151.0681738, 0.00, 96.80, 0.04, 151.98
CTUN, 0, 0.00, 0.01, 0.000000, 0.00, 0, 2, 0, 0
ATT, 0.00, -0.14, 0.00, 0.08, 0.00, 74.56, 74.56
CTUN, 0, 0.00, -0.08, 0.000000, 0.00, 0, 2, 0, 0
ATT, 0.00, -0.12, 0.00, 0.05, 0.00, 74.56, 74.56
GPS, 3, 18334200, 12, 1.60, -33.7840638, 151.0681740, 0.00, 96.81, 0.11, 151.98
CTUN, 0, 0.00, -0.07, 0.000000, 0.00, 0, 2, 0, 0
ATT, 0.00, -0.11, 0.00, 0.06, 0.00, 74.56, 74.56
PM, 0, 0, 49, 14, 1000, 8084292, 0, 4
CTUN, 0, 0.00, -0.03, 0.000000, 0.00, 0, 2, 0, 0
DU32, 7, 1625
CURR, 0, 0, 0, 0, 4732, 0.000000
ATT, 0.00, -0.10, 0.00, 0.04, 0.00, 74.56, 74.56
GPS, 3, 18334400, 12, 1.60, -33.7840639, 151.0681740, -0.01, 96.83, 0.05, 151.98
CTUN, 0, 0.00, -0.01, 0.000000, 0.00, 0, 3, 0, 0
ATT, 0.00, -0.10, 0.00, 0.07, 0.00, 74.56, 74.56
CTUN, 0, 0.00, 0.11, 0.000000, 0.00, 0, 3, 0, 0
ATT, 0.00, -0.13, 0.00, 0.08, 0.00, 74.56, 74.56
GPS, 3, 18334600, 12, 1.60, -33.7840640, 151.0681741, 0.00, 96.84, 0.04, 151.98
CTUN, 0, 0.00, 0.00, 0.000000, 0.00, 0, 3, 0, 0
ATT, 0.00, -0.14, 0.00, 0.08, 0.00, 74.56, 74.56
CTUN, 0, 0.00, -0.04, 0.000000, 0.00, 0, 3, 0, 0
ATT, 0.00, -0.14, 0.00, 0.08, 0.00, 74.56, 74.56
GPS, 3, 18334800, 12, 1.60, -33.7840640, 151.0681741, 0.00, 96.85, 0.00, 151.98
CTUN, 0, 0.00, 0.02, 0.000000, 0.00, 0, 4, 0, 0
ATT, 0.00, -0.16, 0.00, 0.09, 0.00, 74.56, 74.56
CTUN, 0, 0.00, -0.02, 0.000000, 0.00, 0, 3, 0, 0
ATT, 0.00, -0.17, 0.00, 0.08, 0.00, 74.56, 74.56
GPS, 3, 18335000, 12, 1.60, -33.7840641, 151.0681739, 0.01, 96.89, 0.06, 151.98
CTUN, 0, 0.00, 0.04, 0.000000, 0.00, 0, 4, 0, 0
ATT, 0.00, -0.17, 0.00, 0.11, 0.00, 74.56, 74.56
CTUN, 0, 0.00, -0.04, 0.000000, 0.00, 0, 4, 0, 0
ATT, 0.00, -0.18, 0.00, 0.12, 0.00, 74.56, 74.56
GPS, 3, 18335200, 12, 1.60, -33.7840643, 151.0681739, 0.02, 96.92, 0.04, 151.98
CTUN, 0, 0.00, -0.02, 0.000000, 0.00, 0, 4, 0, 0
ATT, 0.00, -0.17, 0.00, 0.13, 0.00, 74.57, 74.57
CTUN, 0, 0.00, -0.07, 0.000000, 0.00, 0, 5, 0, 0
DU32, 7, 1625
CURR, 0, 0, 0, 0, 4752, 0.000000
GPS, 3, 18335400, 12, 1.60, -33.7840643, 151.0681738, 0.02, 96.95, 0.03, 151.98
ATT, 0.00, -0.17, 0.00, 0.12, 0.00, 74.56, 74.56
CTUN, 0, 0.00, -0.08, 0.000000, 0.00, 0, 5, 0, 0
ATT, 0.00, -0.18, 0.00, 0.13, 0.00, 74.56, 74.56
CTUN, 0, 0.00, -0.11, 0.000000, 0.00, 0, 4, 0, 0
GPS, 3, 18335600, 12, 1.60, -33.7840646, 151.0681738, 0.02, 96.96, 0.08, 151.98
ATT, 0.00, -0.19, 0.00, 0.12, 0.00, 74.56, 74.56
CTUN, 0, 0.00, -0.09, 0.000000, 0.00, 0, 4, 0, 0
ATT, 0.00, -0.17, 0.00, 0.13, 0.00, 74.56, 74.56
CTUN, 0, 0.00, -0.03, 0.000000, 0.00, 0, 4, 0, 0
GPS, 3, 18335800, 12, 1.60, -33.7840647, 151.0681737, 0.01, 96.96, 0.08, 151.98
ATT, 0.00, -0.14, 0.00, 0.11, 0.00, 74.57, 74.57
CTUN, 0, 0.00, 0.00, 0.000000, 0.00, 0, 4, 0, 0
ATT, 0.00, -0.15, 0.00, 0.14, 0.00, 74.56, 74.56
CTUN, 0, 0.00, 0.01, 0.000000, 0.00, 0, 5, 0, 0
GPS, 3, 18336000, 12, 1.60, -33.7840647, 151.0681736, 0.02, 96.97, 0.02, 151.98
ATT, 0.00, -0.16, 0.00, 0.15, 0.00, 74.56, 74.56
CTUN, 0, 0.00, 0.02, 0.000000, 0.00, 0, 5, 0, 0
ATT, 0.00, -0.19, 0.00, 0.15, 0.00, 74.56, 74.56
CTUN, 0, 0.00, -0.06, 0.000000, 0.00, 0, 5, 0, 0
GPS, 3, 18336200, 12, 1.60, -33.7840648, 151.0681735, 0.03, 96.98, 0.05, 151.98
ATT, 0.00, -0.22, 0.00, 0.13, 0.00, 74.57, 74.57
CTUN, 0, 0.00, -0.05, 0.000000, 0.00, 0, 5, 0, 0
ATT, 0.00, -0.20, 0.00, 0.14, 0.00, 74.56, 74.56
CTUN, 0, 0.00, -0.09, 0.000000, 0.00, 0, 5, 0, 0
DU32, 7, 1625
CURR, 0, 0, 0, 0, 4752, 0.000000
GPS, 3, 18336400, 12, 1.60, -33.7840650, 151.0681735, 0.03, 96.99, 0.12, 151.98
ATT, 0.00, -0.19, 0.00, 0.14, 0.00, 74.57, 74.57
CTUN, 0, 0.00, -0.05, 0.000000, 0.00, 0, 5, 0, 0
ATT, 0.00, -0.16, 0.00, 0.15, 0.00, 74.56, 74.56
CTUN, 0, 0.00, -0.08, 0.000000, 0.00, 0, 6, 0, 0
GPS, 3, 18336600, 12, 1.60, -33.7840649, 151.0681735, 0.03, 97.00, 0.03, 151.98
ATT, 0.00, -0.15, 0.00, 0.16, 0.00, 74.57, 74.57
CTUN, 0, 0.00, -0.02, 0.000000, 0.00, 0, 6, 0, 0
ATT, 0.00, -0.17, 0.00, 0.16, 0.00, 74.56, 74.56
CTUN, 0, 0.00, -0.09, 0.000000, 0.00, 0, 6, 0, 0
GPS, 3, 18336800, 12, 1.60, -33.7840649, 151.0681736, 0.03, 96.98, 0.03, 151.98
ATT, 0.00, -0.21, 0.00, 0.17, 0.00, 74.57, 74.57
CTUN, 0, 0.00, -0.14, 0.000000, 0.00, 0, 6, 0, 0
ATT, 0.00, -0.20, 0.00, 0.15, 0.00, 74.57, 74.57
CTUN, 0, 0.00, 0.00, 0.000000, 0.00, 0, 6, 0, 0
GPS, 3, 18337000, 12, 1.60, -33.7840648, 151.0681735, 0.03, 96.99, 0.05, 151.98
ATT, 0.00, -0.21, 0.00, 0.15, 0.00, 74.57, 74.57
CTUN, 0, 0.00, -0.05, 0.000000, 0.00, 0, 6, 0, 0
ATT, 0.00, -0.23, 0.00, 0.15, 0.00, 74.57, 74.57
CTUN, 0, 0.00, -0.04, 0.000000, 0.00, 0, 6, 0, 0
GPS, 3, 18337200, 12, 1.60, -33.7840649, 151.0681734, 0.03, 97.00, 0.04, 151.98
ATT, 0.00, -0.25, 0.00, 0.17, 0.00, 74.57, 74.57
CTUN, 0, 0.00, -0.09, 0.000000, 0.00, 0, 6, 0, 0
ATT, 0.00, -0.24, 0.00, 0.17, 0.00, 74.58, 74.58
CTUN, 0, 0.00, -0.03, 0.000000, 0.00, 0, 6, 0, 0
DU32, 7, 1625
CURR, 0, 0, 0, 0, 4793, 0.000000
GPS, 3, 18337400, 12, 1.60, -33.7840645, 151.0681730, 0.03, 97.00, 0.14, 151.98
ATT, 0.00, -0.23, 0.00, 0.20, 0.00, 74.58, 74.58
CTUN, 0, 0.00, -0.08, 0.000000, 0.00, 0, 6, 0, 0
ATT, 0.00, -0.27, 0.00, 0.19, 0.00, 74.59, 74.59
CTUN, 0, 0.00, -0.02, 0.000000, 0.00, 0, 6, 0, 0
GPS, 3, 18337600, 12, 1.60, -33.7840644, 151.0681728, 0.03, 97.02, 0.10, 151.98
ATT, 0.00, -0.31, 0.00, 0.21, 0.00, 74.59, 74.59
CTUN, 0, 0.00, -0.02, 0.000000, 0.00, 0, 6, 0, 0
ATT, 0.00, -0.31, 0.00, 0.20, 0.00, 74.59, 74.59
CTUN, 0, 0.00, -0.11, 0.000000, 0.00, 0, 7, 0, 0
GPS, 3, 18337800, 12, 1.60, -33.7840643, 151.0681727, 0.04, 97.03, 0.08, 151.98
ATT, 0.00, -0.29, 0.00, 0.20, 0.00, 74.59, 74.59
EV, 15
CTUN, 143, 0.00, 0.03, 0.000000, 0.00, 0, 6, 135, 0
EV, 28
ATT, 0.00, -0.29, 0.00, 0.20, 0.00, 74.60, 74.59
CTUN, 181, 0.00, -0.07, 0.000000, 0.00, 0, 7, 179, 0
GPS, 3, 18338000, 12, 1.60, -33.7840642, 151.0681725, 0.04, 97.03, 0.06, 151.98
ATT, 0.00, -0.28, 0.00, 0.19, 0.00, 74.59, 74.59
CTUN, 200, 0.00, -0.11, 0.000000, 0.00, 0, 7, 200, 0
ATT, 0.00, -0.27, 0.00, 0.20, 0.00, 74.58, 74.59
CTUN, 200, 0.00, -0.22, 0.000000, 0.00, 0, 7, 200, 0
GPS, 3, 18338200, 12, 1.60, -33.7840642, 151.0681725, 0.04, 97.01, 0.02, 151.98
ATT, 0.00, -0.26, 0.00, 0.19, 0.00, 74.59, 74.59
CTUN, 200, 0.00, -0.22, 0.000000, 0.00, 0, 6, 200, 0
ATT, 0.00, -0.23, 0.00, 0.19, 0.00, 74.59, 74.59
CTUN, 201, 0.00, -0.26, 0.000000, 0.00, 0, 7, 201, 0
GPS, 3, 18338400, 12, 1.60, -33.7840642, 151.0681723, 0.02, 96.99, 0.09, 151.98
DU32, 7, 1145
CURR, 200, 1115, 0, 0, 4732, 0.000000
CTUN, 201, 0.00, -0.15, 0.000000, 0.00, 0, 7, 200, 0
ATT, 0.00, -0.24, 0.00, 0.19, 0.00, 74.61, 74.59
CTUN, 201, 0.00, -0.25, 0.000000, 0.00, 0, 7, 201, 0
ATT, 0.00, -0.26, 0.00, 0.20, 0.00, 74.62, 74.59
GPS, 3, 18338600, 12, 1.60, -33.7840643, 151.0681723, 0.00, 96.96, 0.03, 151.98
CTUN, 269, 0.00, -0.17, 0.000000, 0.00, 0, 6, 269, 0
ATT, 0.00, -0.27, 0.00, 0.20, 0.00, 74.63, 74.59
CTUN, 300, 0.00, -0.19, 0.000000, 0.00, 0, 6, 296, 0
ATT, 0.00, -0.23, 0.00, 0.19, 0.00, 74.64, 74.59
GPS, 3, 18338800, 12, 1.60, -33.7840646, 151.0681725, 0.00, 96.89, 0.08, 151.98
CTUN, 323, 0.00, -0.25, 0.000000, 0.00, 0, 6, 323, 0
ATT, 0.00, -0.22, 0.00, 0.19, 0.00, 74.66, 74.59
CTUN, 349, 0.00, -0.38, 0.000000, 0.00, 0, 6, 334, 0
GPS, 3, 18339000, 12, 1.60, -33.7840647, 151.0681723, -0.01, 96.86, 0.03, 151.98
ATT, 0.00, -0.20, 0.00, 0.16, 0.00, 74.66, 74.59
CTUN, 415, 0.00, -0.72, 0.000000, 0.00, 0, 6, 415, 0
ATT, 0.00, -0.23, 0.00, 0.19, 0.00, 74.66, 74.59
CTUN, 449, 0.00, -0.64, 0.000000, 0.00, 0, 5, 443, 0
GPS, 3, 18339200, 12, 1.60, -33.7840647, 151.0681723, -0.07, 96.80, 0.02, 151.98
ATT, 0.00, -0.25, 0.00, 0.21, 0.00, 74.68, 74.59
CTUN, 479, 0.00, -0.58, 0.000000, 0.00, 0, 4, 479, 0
EV, 16
ATT, 0.00, -0.26, 0.00, 0.23, 0.00, 74.64, 74.59
CTUN, 515, 0.00, -0.87, 0.000000, 0.00, 0, 4, 515, 0
GPS, 3, 18339400, 12, 1.60, -33.7840648, 151.0681724, -0.13, 96.73, 0.04, 151.98
DU32, 7, 1401
CURR, 551, 4354, 0, 0, 4712, 0.000000
CTUN, 557, 0.00, -1.42, 0.000000, 0.00, 0, 3, 551, 0
ATT, 0.00, -0.28, 0.00, 0.23, 0.00, 74.65, 74.59
CTUN, 577, 0.00, -1.33, 0.000000, 0.00, 0, 2, 577, 0
ATT, 0.00, -0.24, 0.00, 0.38, 0.00, 74.41, 74.59
GPS, 3, 18339600, 12, 1.60, -33.7840648, 151.0681725, -0.25, 96.67, 0.08, 151.98
CTUN, 620, 0.00, -1.29, 0.000000, 0.00, 0, 0, 610, 0
ATT, 0.00, -0.34, 0.00, 0.41, 0.00, 74.46, 74.59
CTUN, 630, 0.00, -1.99, 0.000000, 0.00, 0, 0, 630, 0
ATT, 0.00, -0.27, 0.00, 0.45, 0.00, 74.24, 74.59
GPS, 3, 18339800, 12, 1.60, -33.7840646, 151.0681722, -0.39, 96.61, 0.12, 151.98
CTUN, 634, 0.00, -2.17, 0.000000, 0.00, 0, -2, 634, 0
ATT, 0.00, -0.12, 0.00, 0.60, 0.00, 73.63, 74.59
CTUN, 634, 0.00, -1.90, 0.000000, 0.00, 0, -4, 634, 0
GPS, 3, 18340000, 12, 1.60, -33.7840647, 151.0681722, -0.59, 96.55, 0.04, 151.98
ATT, 0.00, 0.00, 0.00, 0.66, 0.00, 73.05, 74.59
CTUN, 633, 0.00, -2.28, 0.000000, 0.00, 0, -5, 634, 0
ATT, 0.00, -0.10, 0.00, 0.58, 0.00, 73.08, 74.59
CTUN, 633, 0.00, -2.11, 0.000000, 0.00, 0, -7, 633, 0
GPS, 3, 18340200, 12, 1.60, -33.7840647, 151.0681722, -0.78, 96.46, 0.04, 151.98
ATT, 0.00, 0.00, 0.00, 0.72, 0.00, 73.00, 74.59
CTUN, 635, 0.00, -1.79, 0.000000, 0.00, 0, -9, 634, 0
ATT, 0.00, -0.02, 0.00, 0.70, 0.00, 72.97, 74.59
CTUN, 634, 0.00, -1.87, 0.000000, 0.00, 0, -10, 634, 0
GPS, 3, 18340400, 12, 1.60, -33.7840649, 151.0681725, -0.93, 96.37, 0.11, 151.98
DU32, 7, 1401
CURR, 634, 9933, 0, 0, 4732, 0.000000
CTUN, 643, 0.00, -2.32, 0.000000, 0.00, 0, -10, 634, 0
ATT, 0.00, -0.03, 0.00, 0.66, 0.00, 72.82, 74.59
CTUN, 652, 0.00, -2.07, 0.000000, 0.00, 0, -13, 652, 0
ATT, 0.00, 0.05, 0.00, 0.68, 0.00, 72.65, 74.59
GPS, 3, 18340600, 12, 1.60, -33.7840650, 151.0681726, -1.10, 96.26, 0.09, 151.98
CTUN, 658, 0.00, -1.68, 0.000000, 0.00, 0, -14, 658, 0
ATT, 0.00, 0.11, 0.00, 0.69, 0.00, 72.45, 74.59
CTUN, 658, 0.00, -2.23, 0.000000, 0.00, 0, -13, 659, 0
ATT, 0.00, 0.13, 0.00, 0.68, 0.00, 72.09, 74.59
GPS, 3, 18340800, 12, 1.60, -33.7840653, 151.0681729, -1.22, 96.14, 0.15, 151.98
CTUN, 657, 0.00, -1.97, 0.000000, 0.00, 0, -14, 658, 0
ATT, 0.00, 0.28, 0.00, 0.72, 0.00, 71.50, 74.59
CTUN, 663, 0.00, -1.59, 0.000000, 0.00, 0, -17, 659, 0
GPS, 3, 18341000, 12, 1.60, -33.7840656, 151.0681732, -1.34, 96.02, 0.20, 151.98
ATT, 0.00, 0.36, 0.00, 0.70, 0.00, 70.52, 74.59
CTUN, 707, 0.00, -1.74, 0.000000, 0.00, 0, -16, 678, 0
ATT, 0.00, 0.54, 0.00, 0.61, 0.00, 69.25, 74.59
CTUN, 761, 0.00, -1.79, 0.000000, 0.00, 0, -15, 760, 0
GPS, 3, 18341200, 12, 1.60, -33.7840657, 151.0681734, -1.41, 95.93, 0.12, 151.98
ATT, 0.00, -0.17, 0.00, 1.65, 0.00, 67.64, 74.59
CTUN, 814, 0.00, -1.71, 0.000000, 0.00, 0, -4, 798, 0
ATT, 0.00, 0.63, 0.00, 1.77, 0.00, 66.17, 74.59
CTUN, 841, 0.00, -1.60, 0.000000, 0.00, 0, 15, 841, 0
GPS, 3, 18341400, 12, 1.60, -33.7840658, 151.0681734, -1.44, 95.86, 0.02, 151.98
DU32, 7, 1401
CURR, 841, 16304, 0, 0, 4712, 0.000000
CTUN, 841, 0.00, -0.40, 0.000000, 0.00, 0, 35, 841, 0
ATT, 0.00, 0.39, 0.00, 2.41, 0.00, 64.68, 74.59
CTUN, 841, 0.00, -0.17, 0.000000, 0.00, 0, 54, 841, 0
ATT, 0.00, 0.44, 0.00, 2.61, 0.00, 63.21, 73.21
GPS, 3, 18341600, 12, 1.60, -33.7840658, 151.0681730, -1.27, 95.86, 0.10, 151.98
CTUN, 841, 0.00, 0.10, 0.000000, 0.00, 0, 70, 841, 0
ATT, 0.00, 0.25, 0.00, 2.47, 0.00, 61.59, 71.59
CTUN, 798, 0.00, 0.06, 0.000000, 0.00, 0, 80, 798, 0
ATT, 0.00, 0.06, -0.84, 2.22, 0.00, 59.84, 69.84
GPS, 3, 18341800, 12, 1.60, -33.7840662, 151.0681731, -0.97, 95.93, 0.19, 151.98
CTUN, 768, 0.00, 0.26, 0.000000, 0.00, 0, 86, 771, 0
ATT, 0.00, 0.24, -3.15, 1.41, 0.00, 58.01, 68.01
CTUN, 770, 0.00, 0.46, 0.000000, 0.00, 0, 89, 770, 0
GPS, 3, 18342000, 12, 1.60, -33.7840662, 151.0681727, -0.66, 96.03, 0.10, 151.98
ATT, 0.00, 0.66, -4.97, -0.64, 0.00, 56.03, 66.03
CTUN, 770, 0.00, 0.64, 0.000000, 0.00, 0, 87, 770, 0
ATT, 0.00, 0.93, -6.06, -2.44, 0.00, 54.41, 64.41
CTUN, 770, 0.00, 0.63, 0.000000, 0.00, 0, 87, 770, 0
GPS, 3, 18342200, 12, 1.60, -33.7840668, 151.0681727, -0.34, 96.12, 0.37, 151.98
ATT, 0.00, 1.12, -7.52, -4.05, 0.00, 52.48, 62.48
CTUN, 770, 0.00, 0.64, 0.000000, 0.00, 1, 88, 771, 0
ATT, 0.00, 1.64, -8.49, -5.09, 0.00, 50.89, 60.89
CTUN, 770, 0.00, 0.85, 0.000000, 0.00, 2, 90, 772, 0
GPS, 3, 18342400, 12, 1.60, -33.7840668, 151.0681723, -0.05, 96.26, 0.25, 151.98
DU32, 7, 1401
CURR, 770, 23440, 0, 0, 4732, 0.000000
CTUN, 770, 0.00, 0.91, 0.000000, 0.00, 4, 93, 774, 0
ATT, 0.00, 1.98, -9.33, -6.27, 0.00, 49.01, 59.01
CTUN, 770, 0.00, 1.01, 0.000000, 0.00, 5, 97, 775, 0
ATT, 0.00, 2.24, -9.94, -6.88, 0.00, 47.47, 57.47
GPS, 3, 18342600, 12, 1.60, -33.7840667, 151.0681724, 0.24, 96.37, 0.18, 151.98
CTUN, 770, 0.00, 1.14, 0.000000, 0.00, 5, 98, 775, 0
ATT, 0.00, 2.61, -10.79, -7.57, 0.00, 45.70, 55.70
CTUN, 770, 0.00, 1.22, 0.000000, 0.00, 7, 99, 777, 0
ATT, 0.00, 2.75, -9.70, -8.16, 0.00, 44.12, 54.12
GPS, 3, 18342800, 12, 1.60, -33.7840664, 151.0681724, 0.53, 96.54, 0.16, 151.98
CTUN, 770, 0.00, 1.19, 0.000000, 0.00, 7, 100, 777, 0
ATT, 0.00, 2.85, -7.76, -7.58, 0.00, 42.69, 52.69
CTUN, 770, 0.00, 1.42, 0.000000, 0.00, 5, 101, 775, 0
GPS, 3, 18343000, 13, 1.58, -33.7840655, 151.0681726, 0.81, 96.73, 0.37, 151.98
ATT, 0.00, 2.27, -2.18, -5.55, 0.00, 41.35, 51.35
CTUN, 762, 0.00, 1.48, 0.000000, 0.00, 2, 103, 767, 0
ATT, 0.00, 1.93, 0.00, -2.50, 0.00, 40.41, 50.41
CTUN, 746, 0.00, 1.56, 0.000000, 0.00, 0, 106, 746, 0
GPS, 3, 18343200, 13, 1.58, -33.7840646, 151.0681737, 1.09, 96.90, 0.69, 112.31
ATT, 0.00, 1.63, 0.00, 0.47, 0.00, 39.31, 49.31
CTUN, 667, 0.00, 1.74, 0.000000, 0.00, 0, 101, 668, 0
ATT, 0.00, 1.49, 0.00, 1.65, 0.00, 38.36, 48.36
CTUN, 665, 0.00, 1.80, 0.000000, 0.00, 0, 91, 665, 0
GPS, 3, 18343400, 12, 1.60, -33.7840642, 151.0681751, 1.35, 97.04, 0.71, 112.31
DU32, 7, 1401
CURR, 664, 30161, 0, 0, 4732, 0.000000
CTUN, 663, 0.00, 1.96, 0.000000, 0.00, 0, 76, 663, 0
ATT, 0.00, 0.66, 0.00, 2.01, 0.00, 37.42, 47.42
CTUN, 663, 0.00, 1.92, 0.000000, 0.00, 0, 60, 664, 0
ATT, -1.04, 0.04, 0.00, 1.58, 0.00, 36.80, 46.80
GPS, 3, 18343600, 13, 1.58, -33.7840638, 151.0681768, 1.55, 97.16, 0.68, 112.31
CTUN, 663, 0.00, 1.91, 0.000000, 0.00, 0, 46, 664, 0
ATT, -7.32, -0.99, 0.00, 1.32, 0.00, 36.12, 46.12
CTUN, 698, 0.00, 1.92, 0.000000, 0.00, 0, 32, 685, 0
ATT, -6.74, -4.07, 0.00, 1.00, 0.00, 35.70, 45.70
GPS, 3, 18343800, 13, 1.58, -33.7840636, 151.0681786, 1.67, 97.20, 0.66, 112.31
CTUN, 741, 0.00, 2.06, 0.000000, 0.00, 2, 21, 743, 0
ATT, -6.04, -4.92, 0.00, 0.35, 0.00, 35.24, 45.24
CTUN, 758, 0.00, 2.12, 0.000000, 0.00, 2, 19, 760, 0
GPS, 3, 18344000, 13, 1.58, -33.7840635, 151.0681800, 1.75, 97.22, 0.56, 112.31
ATT, -5.00, -5.08, 0.00, 0.13, 0.00, 34.65, 44.65
CTUN, 759, 0.00, 2.16, 0.000000, 0.00, 2, 19, 761, 0
ATT, -4.53, -4.61, 0.00, 0.05, 0.00, 34.10, 44.10
CTUN, 759, 0.00, 2.18, 0.000000, 0.00, 1, 22, 760, 0
GPS, 3, 18344200, 13, 1.58, -33.7840631, 151.0681813, 1.84, 97.16, 0.47, 112.31
ATT, 0.00, -3.57, 0.00, -0.04, 0.00, 33.43, 43.43
CTUN, 761, 0.00, 2.22, 0.000000, 0.00, 1, 22, 762, 0
ATT, 0.00, -1.34, 0.00, -0.07, 0.00, 32.85, 42.85
PM, 0, 0, 50, 22, 1000, 10664, 0, 4
CTUN, 736, 0.00, 2.19, 0.000000, 0.00, 0, 24, 736, 0
GPS, 3, 18344400, 13, 1.58, -33.7840628, 151.0681821, 1.92, 97.14, 0.37, 112.31
DU32, 7, 1401
CURR, 736, 36667, 0, 0, 4772, 0.000000
ATT, 0.00, -0.29, 0.00, 0.39, 0.00, 32.37, 42.37
CTUN, 736, 0.00, 2.11, 0.000000, 0.00, 0, 23, 736, 0
ATT, 0.00, 0.36, 0.00, 0.43, 0.00, 32.08, 42.08
CTUN, 736, 0.00, 2.18, 0.000000, 0.00, 0, 18, 736, 0
GPS, 3, 18344600, 13, 1.58, -33.7840623, 151.0681828, 1.99, 97.13, 0.37, 112.31
CTUN, 736, 0.00, 2.18, 0.000000, 0.00, 0, 18, 736, 0
ATT, 0.00, 0.57, 0.00, 0.47, 0.00, 31.90, 41.90
CTUN, 736, 0.00, 2.09, 0.000000, 0.00, 0, 15, 736, 0
ATT, -2.09, 0.49, 0.00, 0.50, 0.00, 31.88, 41.88
GPS, 3, 18344800, 13, 1.58, -33.7840620, 151.0681832, 2.04, 97.07, 0.29, 112.31
CTUN, 740, 0.00, 2.19, 0.000000, 0.00, 0, 12, 740, 0
ATT, -1.74, -0.42, 0.00, 0.45, 0.00, 32.05, 41.88
CTUN, 748, 0.00, 2.21, 0.000000, 0.00, 0, 10, 748, 0
ATT, -2.32, -0.95, 0.00, 0.26, 0.00, 32.33, 41.88
GPS, 3, 18345000, 13, 1.58, -33.7840615, 151.0681835, 2.08, 97.01, 0.33, 112.31
CTUN, 751, 0.00, 2.09, 0.000000, 0.00, 0, 8, 748, 0
ATT, -0.81, -1.62, 0.00, 0.12, 0.00, 32.64, 41.88
CTUN, 751, 0.00, 2.09, 0.000000, 0.00, 0, 10, 751, 0
GPS, 3, 18345200, 13, 1.58, -33.7840612, 151.0681841, 2.11, 96.93, 0.24, 112.31
ATT, 0.00, -0.86, 0.00, -0.27, 0.00, 32.87, 41.88
CTUN, 751, 0.00, 2.02, 0.000000, 0.00, 0, 9, 751, 0
ATT, 0.00, -0.35, 0.00, -0.23, 0.00, 33.02, 41.88
CTUN, 751, 0.00, 2.10, 0.000000, 0.00, 0, 9, 751, 0
GPS, 3, 18345400, 13, 1.58, -33.7840609, 151.0681844, 2.12, 96.89, 0.19, 112.31
ATT, 0.00, 0.02, 0.00, -0.36, 0.00, 33.15, 41.88
CTUN, 751, 0.00, 2.08, 0.000000, 0.00, 0, 6, 751, 0
DU32, 7, 1401
CURR, 751, 43364, 0, 0, 4712, 0.000000
ATT, 0.00, 0.13, 0.00, -0.37, 0.00, 33.21, 41.88
CTUN, 751, 0.00, 1.94, 0.000000, 0.00, 0, 6, 751, 0
GPS, 3, 18345600, 13, 1.58, -33.7840603, 151.0681846, 2.12, 96.82, 0.28, 112.31
CTUN, 755, 0.00, 2.05, 0.000000, 0.00, 0, 5, 755, 0
ATT, 0.00, 0.22, 0.00, -0.18, 0.00, 33.28, 41.88
CTUN, 751, 0.00, 2.05, 0.000000, 0.00, 0, 5, 750, 0
ATT, 0.00, 0.28, 0.00, -0.14, 0.00, 33.38, 41.88
GPS, 3, 18345800, 13, 1.58, -33.7840599, 151.0681849, 2.12, 96.73, 0.25, 112.31
CTUN, 763, 0.00, 2.03, 0.000000, 0.00, 0, 3, 760, 0
ATT, 0.00, 0.32, 0.00, -0.15, 0.00, 33.53, 41.88
CTUN, 764, 0.00, 1.96, 0.000000, 0.00, 0, 4, 764, 0
ATT, 0.00, 0.32, 0.00, -0.14, 0.00, 33.71, 41.88
GPS, 3, 18346000, 13, 1.58, -33.7840593, 151.0681852, 2.12, 96.66, 0.27, 112.31
CTUN, 766, 0.00, 2.00, 0.000000, 0.00, 0, 4, 766, 0
ATT, 0.00, 0.34, 0.00, -0.13, 0.00, 33.87, 41.88
CTUN, 766, 0.00, 1.90, 0.000000, 0.00, 0, 8, 766, 0
GPS, 3, 18346200, 13, 1.58, -33.7840589, 151.0681855, 2.11, 96.59, 0.24, 112.31
ATT, 0.00, 0.26, 0.00, -0.31, 0.00, 33.97, 41.88
CTUN, 764, 0.00, 2.03, 0.000000, 0.00, 0, 4, 765, 0
ATT, 0.00, 0.10, 0.00, -0.36, 0.00, 33.95, 41.88
CTUN, 766, 0.00, 1.92, 0.000000, 0.00, 0, 7, 766, 0
GPS, 3, 18346400, 13, 1.58, -33.7840587, 151.0681859, 2.11, 96.52, 0.23, 112.31
ATT, 0.00, 0.08, 0.00, -0.35, 0.00, 33.83, 41.88
CTUN, 773, 0.00, 1.95, 0.000000, 0.00, 0, 8, 773, 0
DU32, 7, 1401
CURR, 773, 50194, 0, 0, 4693, 0.000000
ATT, 0.00, 0.02, 0.00, -0.39, 0.00, 33.65, 41.88
CTUN, 777, 0.00, 1.95, 0.000000, 0.00, 0, 9, 777, 0
GPS, 3, 18346600, 13, 1.58, -33.7840586, 151.0681863, 2.11, 96.47, 0.16, 112.31
CTUN, 777, 0.00, 1.90, 0.000000, 0.00, 0, 12, 777, 0
ATT, 0.00, 0.10, 0.00, -0.48, 0.00, 33.46, 41.88
CTUN, 776, 0.00, 1.85, 0.000000, 0.00, 0, 16, 776, 0
ATT, 0.00, 0.08, 0.00, -0.39, 0.00, 33.35, 41.88
GPS, 3, 18346800, 13, 1.58, -33.7840584, 151.0681867, 2.11, 96.45, 0.22, 112.31
CTUN, 777, 0.00, 1.74, 0.000000, 0.00, 0, 20, 777, 0
ATT, 0.00, -0.04, 0.00, -0.36, 0.00, 33.39, 41.88
CTUN, 777, 0.00, 1.96, 0.000000, 0.00, 0, 22, 777, 0
ATT, 0.00, -0.17, 0.00, -0.27, 0.00, 33.46, 41.88
GPS, 3, 18347000, 13, 1.58, -33.7840582, 151.0681872, 2.12, 96.40, 0.23, 112.31
CTUN, 777, 0.00, 1.99, 0.000000, 0.00, 0, 24, 777, 0
ATT, 0.00, -0.17, 0.00, -0.29, 0.00, 33.56, 41.88
CTUN, 777, 0.00, 1.93, 0.000000, 0.00, 0, 28, 777, 0
GPS, 3, 18347200, 13, 1.58, -33.7840580, 151.0681877, 2.16, 96.38, 0.22, 112.31
ATT, 0.00, -0.34, 0.00, -0.25, 0.00, 33.76, 41.88
CTUN, 777, 0.00, 1.86, 0.000000, 0.00, 0, 32, 777, 0
ATT, 0.00, -0.48, 0.00, -0.11, 0.00, 33.91, 41.88
CTUN, 777, 0.00, 1.90, 0.000000, 0.00, 0, 34, 777, 0
GPS, 3, 18347400, 13, 1.58, -33.7840575, 151.0681878, 2.19, 96.40, 0.18, 112.31
ATT, 0.00, -0.39, 0.00, -0.08, 0.00, 34.03, 41.88
CTUN, 777, 0.00, 1.88, 0.000000, 0.00, 0, 35, 777, 0
DU32, 7, 1401
CURR, 777, 57183, 0, 0, 4732, 0.000000
ATT, 0.00, -0.52, 0.00, 0.00, 0.00, 34.09, 41.88
CTUN, 777, 0.00, 1.88, 0.000000, 0.00, 0, 38, 777, 0
GPS, 3, 18347600, 13, 1.58, -33.7840571, 151.0681880, 2.23, 96.42, 0.19, 112.31
CTUN, 777, 0.00, 1.99, 0.000000, 0.00, 0, 42, 777, 0
ATT, 0.00, -0.49, 0.00, 0.07, 0.00, 34.13, 41.88
CTUN, 777, 0.00, 1.91, 0.000000, 0.00, 0, 44, 777, 0
ATT, 0.00, -0.34, 0.00, 0.01, 0.00, 34.18, 41.88
GPS, 3, 18347800, 13, 1.58, -33.7840567, 151.0681882, 2.27, 96.45, 0.17, 112.31
CTUN, 777, 0.00, 2.00, 0.000000, 0.00, 0, 44, 777, 0
ATT, 0.00, -0.20, 0.00, 0.19, 0.00, 34.26, 41.88
CTUN, 777, 0.00, 2.04, 0.000000, 0.00, 0, 46, 777, 0
ATT, 0.00, -0.03, 0.00, 0.24, 0.00, 34.39, 41.88
GPS, 3, 18348000, 13, 1.58, -33.7840563, 151.0681884, 2.33, 96.47, 0.20, 112.31
CTUN, 777, 0.00, 2.03, 0.000000, 0.00, 0, 51, 777, 0
ATT, 0.00, 0.00, 0.00, 0.22, 0.00, 34.53, 41.88
CTUN, 777, 0.00, 2.05, 0.000000, 0.00, 0, 50, 777, 0
GPS, 3, 18348200, 13, 1.58, -33.7840561, 151.0681887, 2.39, 96.49, 0.15, 112.31
ATT, 0.00, 0.08, 0.00, 0.34, 0.00, 34.68, 41.88
CTUN, 777, 0.00, 2.10, 0.000000, 0.00, 0, 51, 777, 0
ATT, 0.00, 0.19, 0.00, 0.29, 0.00, 34.76, 41.88
CTUN, 777, 0.00, 2.29, 0.000000, 0.00, 0, 54, 777, 0
GPS, 3, 18348400, 13, 1.58, -33.7840561, 151.0681890, 2.47, 96.57, 0.12, 112.31
ATT, 0.00, 0.13, 0.00, 0.19, 0.00, 34.78, 41.88
CTUN, 776, 0.00, 2.20, 0.000000, 0.00, 0, 57, 776, 0
DU32, 7, 1401
CURR, 776, 64175, 0, 0, 4752, 0.000000
ATT, 0.00, 0.10, 0.00, 0.22, 6.60, 34.77, 42.76
CTUN, 778, 0.00, 2.25, 0.000000, 0.00, 0, 58, 778, 0
GPS, 3, 18348600, 13, 1.58, -33.7840561, 151.0681894, 2.55, 96.64, 0.13, 112.31
CTUN, 776, 0.00, 2.31, 0.000000, 0.00, 0, 57, 776, 0
ATT, 0.00, 0.52, 0.00, 0.50, 11.64, 36.06, 46.06
CTUN, 777, 0.00, 2.13, 0.000000, 0.00, 0, 57, 777, 0
ATT, 0.00, 1.07, 0.00, 1.11, 10.08, 38.88, 48.88
GPS, 3, 18348800, 13, 1.58, -33.7840561, 151.0681899, 2.63, 96.64, 0.11, 112.31
CTUN, 777, 0.00, 2.35, 0.000000, 0.00, 0, 55, 777, 0
ATT, 0.00, 0.38, 0.00, 0.60, 0.96, 42.95, 51.87
CTUN, 777, 0.00, 2.39, 0.000000, 0.00, 0, 57, 777, 0
ATT, 0.00, 0.00, 0.00, 0.14, 0.00, 45.35, 51.99
GPS, 3, 18349000, 13, 1.58, -33.7840565, 151.0681901, 2.70, 96.70, 0.13, 112.31
CTUN, 777, 0.00, 2.45, 0.000000, 0.00, 0, 55, 777, 0
ATT, 0.00, -0.06, 0.00, -0.06, 0.00, 46.58, 51.99
CTUN, 776, 0.00, 2.50, 0.000000, 0.00, 0, 57, 777, 0
GPS, 3, 18349200, 13, 1.58, -33.7840566, 151.0681903, 2.78, 96.77, 0.11, 112.31
ATT, 0.00, -0.03, 0.00, -0.19, 0.00, 47.15, 51.99
CTUN, 777, 0.00, 2.42, 0.000000, 0.00, 0, 57, 777, 0
ATT, 0.00, 0.11, 0.00, -0.23, 0.00, 47.19, 51.99
CTUN, 777, 0.00, 2.58, 0.000000, 0.00, 0, 57, 777, 0
GPS, 3, 18349400, 13, 1.58, -33.7840567, 151.0681904, 2.85, 96.83, 0.13, 112.31
ATT, 0.00, 0.12, 0.00, -0.38, 0.00, 46.97, 51.99
CTUN, 778, 0.00, 2.47, 0.000000, 0.00, 0, 57, 778, 0
DU32, 7, 1401
CURR, 778, 71943, 0, 0, 4693, 0.000000
ATT, 0.00, 0.18, 0.00, -0.37, 0.00, 46.66, 51.99
CTUN, 742, 0.00, 2.61, 0.000000, 0.00, 0, 57, 758, 0
GPS, 3, 18349600, 13, 1.58, -33.7840566, 151.0681905, 2.93, 96.89, 0.08, 112.31
CTUN, 736, 0.00, 2.63, 0.000000, 0.00, 0, 57, 739, 0
ATT, -1.51, -0.09, 0.00, -0.24, 0.00, 46.33, 51.99
CTUN, 737, 0.00, 2.67, 0.000000, 0.00, 0, 51, 740, 0
ATT, -1.74, -0.91, 0.00, -0.23, 0.00, 46.21, 51.99
GPS, 3, 18349800, 13, 1.58, -33.7840568, 151.0681907, 3.00, 96.96, 0.14, 112.31
CTUN, 739, 0.00, 2.72, 0.000000, 0.00, 0, 49, 739, 0
ATT, -1.62, -1.23, 0.00, -0.35, 0.00, 46.17, 51.99
CTUN, 739, 0.00, 2.75, 0.000000, 0.00, 0, 43, 739, 0
ATT, -1.62, -1.32, 0.00, -0.32, 0.00, 46.21, 51.99
GPS, 3, 18350000, 13, 1.58, -33.7840568, 151.0681909, 3.06, 97.00, 0.12, 112.31
CTUN, 739, 0.00, 2.82, 0.000000, 0.00, 0, 40, 739, 0
ATT, -1.16, -1.30, 0.00, -0.13, 13.92, 46.83, 56.83
CTUN, 739, 0.00, 2.80, 0.000000, 0.00, 0, 37, 739, 0
GPS, 3, 18350200, 13, 1.58, -33.7840567, 151.0681909, 3.10, 97.02, 0.12, 112.31
ATT, -1.62, 0.09, 0.00, 0.35, 12.72, 50.57, 60.57
CTUN, 739, 0.00, 2.76, 0.000000, 0.00, 0, 35, 739, 0
ATT, -1.62, -0.44, 0.00, 0.26, 7.56, 54.84, 64.59
CTUN, 737, 0.00, 2.78, 0.000000, 0.00, 0, 30, 737, 0
GPS, 3, 18350400, 13, 1.58, -33.7840567, 151.0681911, 3.12, 97.04, 0.13, 112.31
ATT, 0.00, -0.87, 0.00, -0.57, 0.00, 59.05, 65.06
CTUN, 737, 0.00, 2.95, 0.000000, 0.00, 0, 27, 737, 0
DU32, 7, 1401
CURR, 737, 78594, 0, 0, 4732, 0.000000
ATT, 0.00, -0.84, 0.00, -0.79, 0.00, 60.97, 65.06
CTUN, 737, 0.00, 2.90, 0.000000, 0.00, 0, 20, 741, 0
GPS, 3, 18350600, 13, 1.58, -33.7840566, 151.0681912, 3.14, 97.04, 0.09, 112.31
CTUN, 739, 0.00, 2.88, 0.000000, 0.00, 0, 15, 739, 0
ATT, 0.00, -0.62, 0.00, -0.84, 0.00, 62.17, 65.06
CTUN, 739, 0.00, 2.85, 0.000000, 0.00, 0, 11, 739, 0
ATT, 0.00, -0.45, 0.00, -0.78, 0.00, 62.52, 65.06
GPS, 3, 18350800, 13, 1.58, -33.7840565, 151.0681914, 3.14, 97.01, 0.12, 112.31
CTUN, 739, 0.00, 2.84, 0.000000, 0.00, 0, 6, 739, 0
ATT, 0.00, -0.19, 0.00, -0.71, 0.00, 62.41, 65.06
CTUN, 739, 0.00, 2.79, 0.000000, 0.00, 0, 0, 739, 0
ATT, 0.00, -0.03, 0.00, -0.66, 0.00, 62.05, 65.06
GPS, 3, 18351000, 13, 1.58, -33.7840563, 151.0681915, 3.11, 96.98, 0.03, 112.31
CTUN, 752, 0.00, 2.77, 0.000000, 0.00, 0, -5, 752, 0
ATT, 0.00, 0.14, 0.00, -0.41, 0.00, 61.47, 65.06
CTUN, 759, 0.00, 2.87, 0.000000, 0.00, 0, -7, 761, 0
GPS, 3, 18351200, 13, 1.58, -33.7840562, 151.0681918, 3.06, 96.95, 0.11, 112.31
ATT, 0.00, 0.26, 0.00, -0.27, 0.00, 60.89, 65.06
CTUN, 760, 0.00, 2.79, 0.000000, 0.00, 0, -8, 760, 0
ATT, -1.62, 0.31, 0.00, -0.16, 0.00, 60.45, 65.06
CTUN, 760, 0.00, 2.82, 0.000000, 0.00, 0, -9, 761, 0
GPS, 3, 18351400, 13, 1.58, -33.7840564, 151.0681923, 3.01, 96.87, 0.19, 112.31
ATT, -1.62, -0.42, 0.00, 0.05, 0.00, 60.11, 65.06
CTUN, 761, 0.00, 2.75, 0.000000, 0.00, 0, -9, 761, 0
DU32, 7, 1401
CURR, 759, 85333, 0, 0, 4752, 0.000000
ATT, -2.55, -0.59, 0.00, 0.12, 0.00, 59.97, 65.06
CTUN, 759, 0.00, 2.69, 0.000000, 0.00, 0, -11, 759, 0
GPS, 3, 18351600, 13, 1.58, -33.7840564, 151.0681927, 2.96, 96.82, 0.15, 112.31
CTUN, 761, 0.00, 2.71, 0.000000, 0.00, 0, -10, 761, 0
ATT, -2.55, -1.43, 0.00, 0.13, 0.00, 60.04, 65.06
CTUN, 760, 0.00, 2.68, 0.000000, 0.00, 0, -14, 759, 0
ATT, -2.55, -1.88, 0.00, -0.03, 0.00, 60.26, 65.06
GPS, 3, 18351800, 13, 1.58, -33.7840565, 151.0681933, 2.91, 96.75, 0.14, 112.31
CTUN, 759, 0.00, 2.73, 0.000000, 0.00, 0, -16, 759, 0
ATT, -3.02, -2.00, 0.00, -0.14, 0.00, 60.53, 65.06
CTUN, 761, 0.00, 2.67, 0.000000, 0.00, 0, -16, 761, 0
ATT, -3.37, -2.44, 0.00, -0.08, 0.00, 60.78, 65.06
GPS, 3, 18352000, 13, 1.58, -33.7840568, 151.0681937, 2.85, 96.70, 0.19, 112.31
CTUN, 759, 0.00, 2.58, 0.000000, 0.00, 0, -17, 759, 0
ATT, -3.72, -2.93, 0.00, -0.06, 0.00, 61.00, 65.06
CTUN, 759, 0.00, 2.60, 0.000000, 0.00, 0, -18, 759, 0
GPS, 3, 18352200, 13, 1.58, -33.7840567, 151.0681940, 2.79, 96.63, 0.10, 112.31
ATT, -3.37, -3.49, 0.00, -0.01, 0.00, 61.17, 65.06
CTUN, 761, 0.00, 2.58, 0.000000, 0.00, 1, -18, 762, 0
ATT, -3.02, -3.63, 0.00, -0.12, 0.00, 61.20, 65.06
CTUN, 761, 0.00, 2.48, 0.000000, 0.00, 1, -19, 762, 0
GPS, 3, 18352400, 13, 1.58, -33.7840566, 151.0681941, 2.73, 96.55, 0.06, 112.31
ATT, -2.67, -3.51, 0.23, -0.19, 0.00, 61.16, 65.06
CTUN, 761, 0.00, 2.43, 0.000000, 0.00, 1, -18, 762, 0
DU32, 7, 1401
CURR, 761, 92177, 0, 0, 4732, 0.000000
ATT, -2.09, -3.14, 0.00, -0.06, 0.00, 61.10, 65.06
CTUN, 760, 0.00, 2.41, 0.000000, 0.00, 0, -19, 760, 0
GPS, 3, 18352600, 13, 1.58, -33.7840562, 151.0681942, 2.66, 96.48, 0.15, 112.31
ATT, 0.00, -2.27, 0.00, -0.21, 0.00, 60.92, 65.06
CTUN, 761, 0.00, 2.48, 0.000000, 0.00, 0, -16, 761, 0
ATT, 0.00, -0.77, 0.00, -0.32, 0.00, 60.60, 65.06
CTUN, 759, 0.00, 2.46, 0.000000, 0.00, 0, -22, 761, 0
GPS, 3, 18352800, 13, 1.58, -33.7840558, 151.0681942, 2.60, 96.40, 0.16, 112.31
CTUN, 759, 0.00, 2.35, 0.000000, 0.00, 0, -20, 759, 0
ATT, 0.00, 0.26, 0.00, -0.08, 0.00, 60.22, 65.06
CTUN, 759, 0.00, 2.36, 0.000000, 0.00, 0, -21, 761, 0
ATT, 0.00, 0.71, 0.00, 0.13, 0.00, 59.86, 65.06
GPS, 3, 18353000, 13, 1.58, -33.7840553, 151.0681943, 2.53, 96.31, 0.23, 112.31
CTUN, 769, 0.00, 2.24, 0.000000, 0.00, 0, -23, 769, 0
ATT, 0.00, 0.63, 0.00, 0.52, 0.00, 59.46, 65.06
CTUN, 768, 0.00, 2.30, 0.000000, 0.00, 0, -21, 768, 0
ATT, 0.00, 0.53, 0.00, 0.54, 0.00, 59.12, 65.06
GPS, 3, 18353200, 13, 1.58, -33.7840549, 151.0681943, 2.46, 96.23, 0.23, 112.31
CTUN, 769, 0.00, 2.16, 0.000000, 0.00, 0, -17, 769, 0
ATT, 0.00, 0.44, 0.00, 0.12, 0.00, 58.71, 65.06
CTUN, 769, 0.00, 2.21, 0.000000, 0.00, 0, -15, 769, 0
GPS, 3, 18353400, 13, 1.58, -33.7840544, 151.0681942, 2.40, 96.14, 0.24, 112.31
ATT, 0.00, 0.52, 0.00, -0.22, 0.00, 58.47, 65.06
CTUN, 769, 0.00, 2.16, 0.000000, 0.00, 0, -14, 769, 0
DU32, 7, 1401
CURR, 769, 99056, 0, 0, 4693, 0.000000
ATT, 0.00, 0.53, 0.00, -0.46, 0.00, 58.51, 65.06
CTUN, 769, 0.00, 2.19, 0.000000, 0.00, 0, -14, 769, 0
GPS, 3, 18353600, 13, 1.58, -33.7840542, 151.0681943, 2.34, 96.06, 0.13, 112.31
ATT, 0.00, 0.50, 0.00, -0.47, 0.00, 58.73, 65.06
CTUN, 769, 0.00, 2.15, 0.000000, 0.00, 0, -15, 769, 0
ATT, 0.00, 0.43, 0.00, -0.38, 0.00, 58.99, 65.06
CTUN, 769, 0.00, 2.14, 0.000000, 0.00, 0, -13, 769, 0
GPS, 3, 18353800, 13, 1.58, -33.7840541, 151.0681944, 2.30, 95.98, 0.08, 112.31
CTUN, 769, 0.00, 2.09, 0.000000, 0.00, 0, -8, 769, 0
ATT, 0.00, 0.39, 0.00, -0.23, 0.00, 59.22, 65.06
CTUN, 769, 0.00, 2.04, 0.000000, 0.00, 0, -7, 769, 0
ATT, 0.00, 0.44, 0.00, -0.21, 0.00, 59.35, 65.06
GPS, 3, 18354000, 13, 1.58, -33.7840540, 151.0681946, 2.25, 95.93, 0.09, 112.31
CTUN, 769, 0.00, 2.01, 0.000000, 0.00, 0, -11, 769, 0
ATT, 0.00, 0.23, 0.00, -0.15, 0.00, 59.41, 65.06
CTUN, 768, 0.00, 2.03, 0.000000, 0.00, 0, -9, 768, 0
ATT, 0.00, 0.11, 0.00, -0.14, 0.00, 59.38, 65.06
GPS, 3, 18354200, 13, 1.58, -33.7840539, 151.0681948, 2.21, 95.87, 0.11, 112.31
CTUN, 769, 0.00, 2.01, 0.000000, 0.00, 0, -6, 769, 0
ATT, 0.00, -0.10, 0.00, -0.20, 0.00, 59.27, 65.06
PM, 0, 0, 50, 27, 1000, 13524, 0, 4
CTUN, 771, 0.00, 2.04, 0.000000, 0.00, 0, -5, 769, 0
ATT, 0.00, -0.39, 0.00, -0.21, 0.00, 59.15, 65.06
GPS, 3, 18354400, 13, 1.58, -33.7840540, 151.0681951, 2.18, 95.83, 0.08, 112.31
CTUN, 769, 0.00, 1.91, 0.000000, 0.00, 0, -5, 769, 0
ATT, 0.00, -0.57, 0.00, -0.18, 0.00, 58.94, 65.06
DU32, 7, 1401
CURR, 769, 105975, 0, 0, 4712, 0.000000
CTUN, 769, 0.00, 1.96, 0.000000, 0.00, 0, -5, 769, 0
GPS, 3, 18354600, 13, 1.58, -33.7840540, 151.0681953, 2.14, 95.81, 0.05, 112.31
ATT, 0.00, -0.68, 0.00, -0.24, 0.00, 58.63, 65.06
CTUN, 768, 0.00, 2.02, 0.000000, 0.00, 0, -3, 770, 0
ATT, 0.00, -0.49, 0.00, -0.37, 0.00, 58.33, 65.06
CTUN, 770, 0.00, 2.04, 0.000000, 0.00, 0, 2, 770, 0
GPS, 3, 18354800, 13, 1.58, -33.7840542, 151.0681958, 2.12, 95.80, 0.16, 112.31
ATT, 0.00, -0.36, 0.00, -0.48, 0.00, 58.03, 65.06
CTUN, 769, 0.00, 1.93, 0.000000, 0.00, 0, 5, 769, 0
ATT, 0.00, -0.16, 0.00, -0.33, 0.00, 57.82, 65.06
CTUN, 769, 0.00, 1.93, 0.000000, 0.00, 0, 5, 769, 0
GPS, 3, 18355000, 13, 1.58, -33.7840544, 151.0681961, 2.11, 95.78, 0.16, 112.31
CTUN, 769, 0.00, 2.05, 0.000000, 0.00, 0, 5, 769, 0
ATT, 0.00, -0.06, 0.00, -0.18, 0.00, 57.64, 65.06
CTUN, 769, 0.00, 1.98, 0.000000, 0.00, 0, 5, 769, 0
ATT, 0.00, -0.22, 0.00, -0.08, 0.00, 57.63, 65.06
GPS, 3, 18355200, 13, 1.58, -33.7840544, 151.0681965, 2.11, 95.76, 0.13, 112.31
CTUN, 771, 0.00, 1.98, 0.000000, 0.00, 0, 5, 771, 0
ATT, 0.00, -0.18, 0.00, 0.23, 0.00, 57.73, 65.06
CTUN, 769, 0.00, 2.05, 0.000000, 0.00, 0, 5, 769, 0
ATT, 0.00, -0.20, 0.00, 0.37, 0.00, 57.89, 65.06
GPS, 3, 18355400, 13, 1.58, -33.7840546, 151.0681969, 2.10, 95.75, 0.09, 112.31
CTUN, 769, 0.00, 2.00, 0.000000, 0.00, 0, 4, 770, 0
ATT, 0.00, 0.02, 0.00, 0.37, 0.00, 58.18, 65.06
DU32, 7, 1401
CURR, 769, 112899, 0, 0, 4732, 0.000000
CTUN, 769, 0.00, 1.90, 0.000000, 0.00, 0, 8, 769, 0
GPS, 3, 18355600, 13, 1.58, -33.7840549, 151.0681975, 2.11, 95.70, 0.12, 112.31
ATT, 0.00, 0.03, 0.00, 0.28, 0.00, 58.48, 65.06
CTUN, 770, 0.00, 1.89, 0.000000, 0.00, 0, 12, 769, 0
ATT, 0.00, -0.05, 0.00, 0.20, 0.00, 58.73, 65.06
CTUN, 769, 0.00, 1.96, 0.000000, 0.00, 0, 13, 769, 0
GPS, 3, 18355800, 13, 1.58, -33.7840553, 151.0681979, 2.11, 95.69, 0.12, 112.31
ATT, 0.00, -0.41, 0.00, 0.13, 0.00, 59.12, 65.06
CTUN, 769, 0.00, 2.01, 0.000000, 0.00, 0, 10, 769, 0
ATT, 0.00, -0.61, 0.00, 0.21, 0.00, 59.47, 65.06
CTUN, 769, 0.00, 2.00, 0.000000, 0.00, 0, 10, 769, 0
GPS, 3, 18356000, 13, 1.58, -33.7840556, 151.0681982, 2.11, 95.67, 0.14, 112.31
CTUN, 769, 0.00, 1.95, 0.000000, 0.00, 0, 12, 770, 0
ATT, 0.00, -0.72, 0.00, 0.25, 0.00, 59.85, 65.06
CTUN, 766, 0.00, 1.95, 0.000000, 0.00, 0, 11, 766, 0
ATT, 0.00, -0.78, 0.00, 0.07, 0.00, 60.11, 65.06
GPS, 3, 18356200, 13, 1.58, -33.7840560, 151.0681985, 2.12, 95.67, 0.17, 112.31
CTUN, 769, 0.00, 1.91, 0.000000, 0.00, 0, 13, 769, 0
ATT, 0.00, -0.81, 0.00, 0.09, 0.00, 60.35, 65.06
CTUN, 768, 0.00, 1.92, 0.000000, 0.00, 0, 12, 768, 0
ATT, 0.00, -0.74, 0.00, 0.19, 0.00, 60.44, 65.06
GPS, 3, 18356400, 13, 1.58, -33.7840564, 151.0681989, 2.12, 95.67, 0.18, 112.31
CTUN, 769, 0.00, 1.96, 0.000000, 0.00, 0, 14, 769, 0
ATT, 0.00, -0.79, 0.00, 0.35, 0.00, 60.43, 65.06
DU32, 7, 1401
CURR, 769, 119820, 0, 0, 4732, 0.000000
MODE, ALT_HOLD, 766
CTUN, 769, 0.00, 1.87, 2.271000, 0.00, 0, 12, 768, 105
GPS, 3, 18356600, 13, 1.58, -33.7840568, 151.0681992, 2.13, 95.68, 0.12, 112.31
ATT, 0.00, -0.88, 0.00, 0.38, 0.00, 60.30, 65.06
CTUN, 768, 0.00, 1.96, 2.354600, 0.00, 0, 14, 786, 103
ATT, 0.00, -0.87, 0.00, 0.41, 0.00, 60.10, 65.06
CTUN, 768, 0.00, 1.97, 2.438601, 0.00, 0, 16, 796, 105
GPS, 3, 18356800, 13, 1.58, -33.7840573, 151.0681994, 2.13, 95.70, 0.17, 112.31
ATT, 0.00, -0.98, 0.00, 0.29, 0.00, 59.81, 65.06
CTUN, 769, 0.00, 2.05, 2.480601, 0.00, 0, 23, 817, 105
ATT, 0.00, -0.78, 0.00, 0.30, 0.00, 59.55, 65.06
CTUN, 769, 0.00, 2.00, 2.543601, 0.00, 0, 30, 818, 105
GPS, 3, 18357000, 13, 1.58, -33.7840576, 151.0681997, 2.17, 95.77, 0.14, 112.31
ATT, 0.00, -0.53, 0.00, 0.20, 0.00, 59.27, 65.06
CTUN, 769, 0.00, 2.01, 2.606601, 0.00, 0, 38, 808, 105
ATT, 0.00, -0.51, 0.00, 0.08, 0.00, 58.99, 65.06
CTUN, 769, 0.00, 2.16, 2.690601, 0.00, 0, 43, 806, 105
GPS, 3, 18357200, 13, 1.58, -33.7840580, 151.0681997, 2.24, 95.82, 0.22, 112.31
ATT, 0.00, -0.29, 0.00, 0.04, 0.00, 58.77, 65.06
CTUN, 768, 0.00, 2.03, 2.774601, 0.00, 0, 50, 801, 105
ATT, 0.00, -0.21, 0.00, 0.00, 0.00, 58.71, 65.06
CTUN, 770, 0.00, 1.99, 2.879801, 0.00, 0, 57, 795, 106
GPS, 3, 18357400, 13, 1.58, -33.7840584, 151.0681996, 2.32, 95.92, 0.21, 112.31
CTUN, 770, 0.00, 2.21, 2.942201, 0.00, 0, 62, 799, 103
ATT, 0.00, -0.01, 0.00, -0.13, 0.00, 58.68, 65.06
DU32, 7, 1401
CURR, 770, 127742, 0, 0, 4712, 0.000000
CTUN, 768, 0.00, 2.24, 3.048001, 0.00, 0, 65, 796, 105
ATT, 0.00, -0.04, 0.00, -0.19, 0.00, 58.70, 65.06
GPS, 3, 18357600, 13, 1.58, -33.7840588, 151.0681996, 2.43, 95.99, 0.23, 112.31
CTUN, 768, 0.00, 2.31, 3.132001, 0.00, 0, 69, 788, 105
ATT, 0.00, 0.10, 0.00, -0.16, 0.00, 58.70, 65.06
CTUN, 766, 0.00, 2.43, 3.238001, 0.00, 0, 74, 772, 106
ATT, 0.00, 0.06, 0.00, -0.35, 0.00, 58.69, 65.06
GPS, 3, 18357800, 13, 1.58, -33.7840592, 151.0681995, 2.55, 96.06, 0.14, 112.31
CTUN, 769, 0.00, 2.48, 3.321601, 0.00, 0, 76, 773, 105
ATT, 0.00, 0.28, 0.00, -0.36, 0.00, 58.52, 65.06
CTUN, 769, 0.00, 2.51, 3.426602, 0.00, 0, 79, 771, 105
GPS, 3, 18358000, 13, 1.58, -33.7840591, 151.0681996, 2.69, 96.13, 0.03, 112.31
ATT, 0.00, 0.45, 0.00, -0.26, 0.00, 58.26, 65.06
CTUN, 769, 0.00, 2.59, 3.510602, 0.00, 0, 79, 785, 105
ATT, 0.00, 0.41, 0.00, -0.20, 0.00, 58.03, 65.06
CTUN, 769, 0.00, 2.62, 3.615602, 0.00, 0, 82, 782, 105
GPS, 3, 18358200, 13, 1.58, -33.7840595, 151.0681996, 2.83, 96.27, 0.09, 112.31
ATT, 0.00, 0.52, 0.00, -0.11, 0.00, 57.75, 65.06
CTUN, 769, 0.00, 2.74, 3.699602, 0.00, 0, 84, 780, 105
ATT, 0.00, 0.09, 0.00, 0.06, 0.00, 57.62, 65.06
CTUN, 769, 0.00, 2.89, 3.804603, 0.00, 0, 86, 782, 105
GPS, 3, 18358400, 13, 1.58, -33.7840600, 151.0681997, 2.99, 96.35, 0.17, 112.31
ATT, 0.00, 0.28, 0.00, 0.29, 0.00, 57.61, 65.06
CTUN, 769, 0.00, 2.82, 3.867603, 0.00, 0, 89, 779, 105
ATT, 0.00, 0.21, 0.00, 0.33, 0.00, 57.67, 65.06
CTUN, 769, 0.00, 2.94, 3.972603, 0.00, 0, 87, 774, 105
GPS, 3, 18358600, 13, 1.58, -33.7840605, 151.0681998, 3.12, 96.50, 0.07, 112.31
DU32, 7, 1401
CURR, 769, 135543, 0, 0, 4752, 0.000000
ATT, 0.00, 0.13, 0.00, 0.26, 0.00, 57.98, 65.06
CTUN, 769, 0.00, 3.05, 4.035604, 0.00, 0, 88, 763, 105
ATT, 0.00, -0.07, 0.00, 0.24, 0.00, 58.34, 65.06
CTUN, 769, 0.00, 3.13, 4.119604, 0.00, 0, 84, 752, 105
GPS, 3, 18358800, 13, 1.58, -33.7840611, 151.0682003, 3.30, 96.61, 0.14, 112.31
ATT, 0.00, -0.23, 0.00, 0.00, 0.00, 58.70, 65.06
CTUN, 768, 0.00, 3.17, 4.203604, 0.00, 0, 83, 782, 105
ATT, 0.00, -0.37, 0.00, -0.17, 0.00, 59.06, 65.06
CTUN, 765, 0.00, 3.37, 4.308604, 0.00, 0, 83, 784, 105
GPS, 3, 18359000, 13, 1.58, -33.7840620, 151.0682005, 3.43, 96.74, 0.31, 112.31
CTUN, 768, 0.00, 3.43, 4.392604, 0.00, 0, 86, 781, 105
ATT, 0.00, -0.33, 0.00, -0.22, 0.00, 59.32, 65.06
CTUN, 769, 0.00, 3.51, 4.455404, 0.00, 0, 84, 768, 103
GPS, 3, 18359200, 13, 1.58, -33.7840626, 151.0682007, 3.58, 96.84, 0.26, 112.31
ATT, 0.00, -0.15, 0.00, -0.38, 0.00, 59.49, 65.06
CTUN, 769, 0.00, 3.61, 4.539404, 0.00, 0, 85, 769, 105
ATT, 0.00, -0.02, 0.00, -0.61, 0.00, 59.50, 65.06
CTUN, 769, 0.00, 3.70, 4.623405, 0.00, 0, 84, 788, 105
GPS, 3, 18359400, 13, 1.58, -33.7840636, 151.0682013, 3.77, 97.02, 0.33, 112.31
ATT, 0.00, 0.15, 0.00, -0.64, 0.00, 59.38, 65.06
CTUN, 768, 0.00, 3.68, 4.727605, 0.00, 0, 85, 783, 103
ATT, 0.00, 0.12, 0.00, -0.63, 0.00, 59.25, 65.06
CTUN, 769, 0.00, 3.83, 4.812005, 0.00, 0, 88, 790, 106
GPS, 3, 18359600, 12, 1.66, -33.7840641, 151.0682015, 3.93, 97.19, 0.17, 112.31
ATT, 0.00, 0.12, 0.00, -0.66, 0.00, 59.15, 65.06
CTUN, 769, 0.00, 3.99, 4.917005, 0.00, 0, 88, 785, 105
DU32, 7, 1401
CURR, 769, 143273, 0, 0, 4732, 0.000000
ATT, 0.00, -0.13, 0.00, -0.58, 0.00, 59.08, 65.06
CTUN, 769, 0.00, 4.08, 5.001005, 0.00, 0, 89, 772, 105
GPS, 3, 18359800, 13, 1.58, -33.7840651, 151.0682022, 4.09, 97.33, 0.45, 132.83
ATT, 0.00, -0.28, 0.00, -0.46, 0.00, 59.09, 65.06
CTUN, 769, 0.00, 4.06, 5.085005, 0.00, 0, 93, 791, 105
ATT, 0.00, -0.05, 0.00, -0.46, 0.00, 59.20, 65.06
CTUN, 770, 0.00, 4.17, 5.168806, 0.00, 0, 93, 766, 106
GPS, 3, 18360000, 13, 1.58, -33.7840658, 151.0682028, 4.26, 97.50, 0.22, 132.83
ATT, 0.00, 0.37, 0.00, -0.33, 0.00, 59.36, 65.06
MODE, STABILIZE, 766
CTUN, 768, 0.00, 4.39, 0.000000, 0.00, 0, 90, 768, 0
ATT, 0.00, 0.71, 0.00, -0.17, 0.00, 59.49, 65.06
CTUN, 770, 0.00, 4.34, 0.000000, 0.00, 0, 88, 770, 0
GPS, 3, 18360200, 13, 1.58, -33.7840667, 151.0682034, 4.44, 97.67, 0.31, 132.83
ATT, 0.00, 1.12, 0.00, 0.05, 0.00, 59.50, 65.06
CTUN, 768, 0.00, 4.41, 0.000000, 0.00, 0, 87, 770, 0
ATT, -6.74, 1.39, 0.00, 0.12, 0.00, 59.39, 65.06
CTUN, 769, 0.00, 4.63, 0.000000, 0.00, 0, 90, 768, 0
GPS, 3, 18360400, 13, 1.58, -33.7840673, 151.0682041, 4.62, 97.85, 0.35, 132.83
ATT, -7.20, -1.33, 0.00, 0.42, 0.00, 59.35, 65.06
CTUN, 769, 0.00, 4.66, 0.000000, 0.00, 0, 90, 766, 0
GPS, 3, 18360600, 12, 1.66, -33.7840684, 151.0682051, 4.77, 98.02, 0.47, 138.86
ATT, -7.44, -3.76, 0.00, -0.09, 0.00, 59.28, 65.06
CTUN, 765, 0.00, 4.80, 0.000000, 0.00, 1, 88, 767, 0
ATT, -5.46, -5.08, 0.00, -0.08, 0.00, 59.18, 65.06
CTUN, 765, 0.00, 4.73, 0.000000, 0.00, 2, 86, 770, 0
DU32, 7, 1401
CURR, 765, 150200, 0, 0, 4693, 0.000000
GPS, 3, 18360800, 13, 1.58, -33.7840693, 151.0682058, 4.96, 98.21, 0.45, 143.36
CTUN, 765, 0.00, 5.00, 0.000000, 0.00, 2, 85, 767, 0
ATT, -5.69, -4.54, 0.00, -0.35, 0.00, 59.00, 65.06
CTUN, 765, 0.00, 5.05, 0.000000, 0.00, 2, 87, 767, 0
ATT, -4.65, -4.47, 0.00, -0.26, 0.00, 58.83, 65.06
GPS, 3, 18361000, 13, 1.58, -33.7840700, 151.0682063, 5.13, 98.32, 0.44, 149.37
CTUN, 765, 0.00, 5.21, 0.000000, 0.00, 1, 87, 766, 0
ATT, -3.48, -3.66, 0.00, -0.11, 0.00, 58.69, 65.06
CTUN, 765, 0.00, 5.23, 0.000000, 0.00, 1, 83, 767, 0
ATT, -3.13, -3.00, 0.00, 0.07, 6.60, 58.69, 66.43
GPS, 3, 18361200, 13, 1.58, -33.7840706, 151.0682068, 5.31, 98.49, 0.25, 149.37
CTUN, 762, 0.00, 5.19, 0.000000, 0.00, 0, 84, 765, 0
ATT, -3.37, -1.71, 0.00, 1.00, 9.12, 60.19, 70.19
CTUN, 764, 0.00, 5.42, 0.000000, 0.00, 0, 84, 764, 0
ATT, -3.48, -1.26, 0.00, 1.58, 7.56, 63.35, 73.35
GPS, 3, 18361400, 12, 1.66, -33.7840709, 151.0682071, 5.45, 98.61, 0.17, 149.37
CTUN, 731, 0.00, 5.66, 0.000000, 0.00, 0, 84, 742, 0
ATT, -3.25, -2.42, 0.00, 0.69, 1.92, 66.61, 74.74
CTUN, 700, 0.00, 5.57, 0.000000, 0.00, 0, 81, 700, 0
ATT, -3.37, -2.90, 0.00, 0.07, 0.00, 68.80, 74.84
GPS, 3, 18361600, 13, 1.58, -33.7840714, 151.0682073, 5.64, 98.79, 0.11, 149.37
CTUN, 675, 0.00, 5.70, 0.000000, 0.00, 0, 75, 675, 0
ATT, -4.41, -3.25, 0.00, 0.00, 0.00, 70.08, 74.84
CTUN, 676, 0.00, 5.77, 0.000000, 0.00, 0, 59, 675, 0
DU32, 7, 1401
CURR, 675, 157589, 0, 0, 4793, 0.000000
ATT, -4.30, -3.99, 0.00, -0.07, 0.00, 70.99, 74.84
GPS, 3, 18361800, 13, 1.58, -33.7840714, 151.0682073, 5.77, 98.94, 0.01, 149.37
CTUN, 675, 0.00, 5.90, 0.000000, 0.00, 1, 45, 674, 0
ATT, -3.95, -4.39, 0.00, -0.20, 0.00, 71.63, 74.84
CTUN, 673, 0.00, 5.85, 0.000000, 0.00, 1, 29, 674, 0
GPS, 3, 18362000, 13, 1.58, -33.7840716, 151.0682072, 5.84, 99.03, 0.08, 149.37
ATT, -1.62, -4.04, 0.00, -0.41, 0.00, 72.03, 74.84
CTUN, 674, 0.00, 5.94, 0.000000, 0.00, 1, 15, 675, 0
ATT, 0.00, -2.66, 0.00, -0.57, 0.00, 72.15, 74.84
CTUN, 674, 0.00, 5.87, 0.000000, 0.00, 0, -1, 674, 0
GPS, 3, 18362200, 13, 1.58, -33.7840718, 151.0682073, 5.84, 99.03, 0.10, 149.37
CTUN, 674, 0.00, 5.96, 0.000000, 0.00, 0, -14, 674, 0
ATT, 0.00, -1.48, 0.00, -0.47, 0.00, 72.10, 74.84
CTUN, 674, 0.00, 5.86, 0.000000, 0.00, 0, -31, 674, 0
ATT, 0.00, -1.00, 0.00, -0.62, 0.00, 71.94, 74.84
GPS, 3, 18362400, 13, 1.58, -33.7840718, 151.0682074, 5.79, 98.98, 0.11, 149.37
CTUN, 675, 0.00, 5.94, 0.000000, 0.00, 0, -44, 674, 0
ATT, 0.00, -0.64, 0.00, -0.68, 0.00, 71.65, 74.84
CTUN, 674, 0.00, 5.89, 0.000000, 0.00, 0, -60, 674, 0
ATT, 0.00, -0.03, 0.00, -0.64, 0.00, 71.28, 74.84
GPS, 3, 18362600, 12, 1.66, -33.7840715, 151.0682073, 5.69, 98.89, 0.21, 149.37
CTUN, 676, 0.00, 5.75, 0.000000, 0.00, 0, -73, 674, 0
ATT, 0.00, 0.02, 0.00, -1.02, 0.00, 70.98, 74.84
CTUN, 674, 0.00, 5.69, 0.000000, 0.00, 0, -91, 674, 0
DU32, 7, 1401
CURR, 675, 163661, 0, 0, 4732, 0.000000
ATT, 0.00, 0.19, 0.00, -1.53, 0.00, 70.82, 74.84
GPS, 3, 18362800, 12, 1.66, -33.7840714, 151.0682071, 5.53, 98.72, 0.20, 149.37
CTUN, 673, 0.00, 5.62, 0.000000, 0.00, 0, -102, 675, 0
ATT, 0.00, -0.08, 0.00, -1.78, 0.00, 70.93, 74.84
CTUN, 676, 0.00, 5.40, 0.000000, 0.00, 0, -121, 676, 0
ATT, 0.00, -0.19, 0.00, -2.03, 0.00, 71.22, 74.84
GPS, 3, 18363000, 12, 1.66, -33.7840715, 151.0682069, 5.30, 98.48, 0.10, 149.37
CTUN, 675, 0.00, 5.32, 0.000000, 0.00, 0, -132, 676, 0
ATT, 0.00, -0.18, 0.00, -1.70, 0.00, 71.70, 74.84
CTUN, 674, 0.00, 5.07, 0.000000, 0.00, 0, -148, 674, 0
GPS, 3, 18363200, 12, 1.66, -33.7840717, 151.0682070, 5.01, 98.23, 0.02, 149.37
ATT, 0.00, -0.10, 0.00, -1.71, 0.00, 72.28, 74.84
CTUN, 675, 0.00, 4.90, 0.000000, 0.00, 0, -160, 674, 0
ATT, -0.93, -0.73, 0.00, -1.70, 0.00, 72.61, 74.84
CTUN, 692, 0.00, 4.80, 0.000000, 0.00, 0, -176, 676, 0
GPS, 3, 18363400, 12, 1.66, -33.7840715, 151.0682074, 4.66, 97.86, 0.06, 149.37
CTUN, 739, 0.00, 4.66, 0.000000, 0.00, 0, -189, 725, 0
ATT, -1.51, -1.21, 0.00, -1.64, 0.00, 72.74, 74.84
CTUN, 773, 0.00, 4.40, 0.000000, 0.00, 0, -198, 771, 0
ATT, -1.51, -2.03, 0.00, -1.86, 0.00, 72.68, 74.84
GPS, 3, 18363600, 12, 1.66, -33.7840717, 151.0682081, 4.27, 97.51, 0.22, 149.37
CTUN, 776, 0.00, 4.07, 0.000000, 0.00, 0, -198, 778, 0
ATT, -0.34, -1.53, 0.00, -1.86, 0.00, 72.18, 74.84
CTUN, 794, 0.00, 3.94, 0.000000, 0.00, 0, -197, 791, 0
ATT, -0.69, -1.19, 0.00, -1.82, 0.00, 71.37, 74.84
GPS, 3, 18363800, 12, 1.66, -33.7840716, 151.0682083, 3.90, 97.17, 0.11, 149.37
DU32, 7, 1401
CURR, 792, 170063, 0, 0, 4712, 0.000000
CTUN, 792, 0.00, 3.78, 0.000000, 0.00, 0, -194, 792, 0
ATT, -0.34, -0.61, 0.00, -1.21, 0.00, 70.42, 74.84
CTUN, 793, 0.00, 3.53, 0.000000, 0.00, 0, -188, 792, 0
GPS, 3, 18364000, 12, 1.66, -33.7840714, 151.0682087, 3.52, 96.81, 0.19, 149.37
ATT, 0.00, -0.15, 0.00, -0.20, 0.00, 69.80, 74.84
CTUN, 792, 0.00, 3.28, 0.000000, 0.00, 0, -183, 792, 0
ATT, 0.00, -0.46, 0.00, 0.54, 0.00, 69.55, 74.84
CTUN, 808, 0.00, 3.19, 0.000000, 0.00, 0, -174, 808, 0
GPS, 3, 18364200, 12, 1.66, -33.7840710, 151.0682092, 3.11, 96.46, 0.30, 149.37
ATT, -0.11, -0.59, 0.00, 0.57, 0.00, 69.40, 74.84
CTUN, 813, 0.00, 2.99, 0.000000, 0.00, 0, -168, 813, 0
ATT, 0.00, -0.71, 0.00, 0.88, 0.00, 69.47, 74.84
CTUN, 819, 0.00, 2.88, 0.000000, 0.00, 0, -157, 817, 0
PM, 0, 0, 50, 59, 1000, 13804, 0, 4
GPS, 3, 18364400, 12, 1.66, -33.7840708, 151.0682093, 2.79, 96.16, 0.14, 149.37
CTUN, 821, 0.00, 2.64, 0.000000, 0.00, 0, -148, 821, 0
ATT, 0.00, -0.82, 0.00, 0.97, 0.00, 69.91, 74.84
CTUN, 821, 0.00, 2.50, 0.000000, 0.00, 0, -137, 821, 0
ATT, 0.00, -0.82, 0.00, 1.65, 0.00, 70.41, 74.84
GPS, 3, 18364600, 13, 1.58, -33.7840706, 151.0682098, 2.50, 95.86, 0.22, 149.37
CTUN, 821, 0.00, 2.34, 0.000000, 0.00, 0, -128, 821, 0
ATT, 0.00, -0.03, 0.00, 1.99, 0.00, 70.84, 74.84
CTUN, 821, 0.00, 2.20, 0.000000, 0.00, 0, -116, 821, 0
ATT, 0.00, -0.14, 0.00, 1.90, 0.00, 71.10, 74.84
GPS, 3, 18364800, 13, 1.58, -33.7840705, 151.0682101, 2.25, 95.57, 0.18, 149.37
CTUN, 821, 0.00, 2.13, 0.000000, 0.00, 0, -110, 821, 0
DU32, 7, 1401
CURR, 821, 178167, 0, 0, 4732, 0.000000
ATT, -2.32, -0.03, 0.00, 1.52, 0.00, 71.14, 74.84
CTUN, 821, 0.00, 2.10, 0.000000, 0.00, 0, -100, 821, 0
ATT, -4.53, -1.58, 0.11, 0.95, 0.00, 71.14, 74.84
GPS, 3, 18365000, 12, 1.66, -33.7840707, 151.0682105, 2.04, 95.30, 0.25, 149.37
CTUN, 820, 0.00, 2.12, 0.000000, 0.00, 0, -90, 821, 0
ATT, -8.37, -3.52, 0.11, 0.54, 0.00, 71.13, 74.84
CTUN, 821, 0.00, 2.01, 0.000000, 0.00, 1, -76, 822, 0
GPS, 3, 18365200, 12, 1.66, -33.7840709, 151.0682106, 1.89, 95.13, 0.30, 149.37
ATT, -9.41, -6.13, 0.23, -0.09, 0.00, 70.97, 74.84
CTUN, 821, 0.00, 1.78, 0.000000, 0.00, 3, -69, 824, 0
ATT, -9.53, -7.24, 1.99, -0.48, 0.00, 70.66, 74.84
CTUN, 821, 0.00, 1.69, 0.000000, 0.00, 5, -58, 826, 0
GPS, 3, 18365400, 12, 1.66, -33.7840710, 151.0682109, 1.77, 94.97, 0.24, 149.37
CTUN, 821, 0.00, 1.65, 0.000000, 0.00, 6, -50, 827, 0
ATT, -9.65, -7.80, 3.16, 0.34, 0.00, 70.09, 74.84
CTUN, 821, 0.00, 1.68, 0.000000, 0.00, 6, -39, 827, 0
ATT, -7.67, -7.91, 3.51, 1.21, 0.00, 69.57, 74.84
GPS, 3, 18365600, 12, 1.66, -33.7840707, 151.0682108, 1.68, 94.86, 0.11, 149.37
CTUN, 822, 0.00, 1.69, 0.000000, 0.00, 6, -30, 827, 0
ATT, -3.95, -6.95, 4.80, 2.10, 0.00, 68.94, 74.84
CTUN, 821, 0.00, 1.61, 0.000000, 0.00, 4, -16, 825, 0
ATT, -2.44, -4.75, 4.80, 3.20, 0.00, 68.55, 74.84
GPS, 3, 18365800, 12, 1.66, -33.7840702, 151.0682106, 1.63, 94.78, 0.09, 149.37
CTUN, 823, 0.00, 1.59, 0.000000, 0.00, 3, -10, 824, 0
DU32, 7, 1401
CURR, 823, 185586, 0, 0, 4752, 0.000000
ATT, -1.97, -2.78, 4.33, 4.05, 0.00, 68.43, 74.84
CTUN, 822, 0.00, 1.54, 0.000000, 0.00, 2, -2, 822, 0
ATT, 0.00, -1.65, 1.40, 4.12, 0.00, 68.46, 74.84
GPS, 3, 18366000, 12, 1.66, -33.7840695, 151.0682100, 1.62, 94.69, 0.25, 149.37
CTUN, 822, 0.00, 1.56, 0.000000, 0.00, 2, 6, 824, 0
ATT, 0.00, -0.18, 0.00, 2.73, 0.00, 68.64, 74.84
CTUN, 792, 0.00, 1.59, 0.000000, 0.00, 0, 16, 799, 0
GPS, 3, 18366200, 12, 1.66, -33.7840688, 151.0682091, 1.65, 94.68, 0.42, 211.86
ATT, 0.00, -0.28, 0.00, 1.33, 0.00, 69.17, 74.84
CTUN, 788, 0.00, 1.69, 0.000000, 0.00, 0, 21, 790, 0
ATT, 0.00, -0.04, 0.00, 0.45, 0.00, 69.82, 74.84
CTUN, 778, 0.00, 1.74, 0.000000, 0.00, 0, 25, 779, 0
GPS, 3, 18366400, 12, 1.66, -33.7840681, 151.0682082, 1.70, 94.66, 0.50, 278.50
CTUN, 778, 0.00, 1.72, 0.000000, 0.00, 0, 25, 778, 0
ATT, 0.00, -0.53, 0.00, -0.35, 0.00, 70.82, 74.84
