dump 8

ArduCopter V3.1-rc3.1
Free RAM: 1138
APM 2
FMT, 128, 89, FMT, BBnNZ, Type,Length,Name,Format
FMT, 129, 23, PARM, Nf, Name,Value
FMT, 130, 35, GPS, BIBcLLeeEe, Status,Time,NSats,HDop,Lat,Lng,RelAlt,Alt,Spd,GCrs
FMT, 131, 27, IMU, ffffff, GyrX,GyrY,GyrZ,AccX,AccY,AccZ
FMT, 132, 67, MSG, Z, Message
FMT, 9, 19, CURR, hIhhhf, Thr,ThrInt,Volt,Curr,Vcc,CurrTot
FMT, 11, 11, MOT, hhhh, Mot1,Mot2,Mot3,Mot4
FMT, 12, 28, OF, hhBccffee, Dx,Dy,SQual,X,Y,Lat,Lng,Roll,Pitch
FMT, 5, 49, NTUN, Ecffffffffee, WPDst,WPBrg,PErX,PErY,DVelX,DVelY,VelX,VelY,DAcX,DAcY,DRol,DPit
FMT, 4, 25, CTUN, hcefchhhh, ThrIn,SonAlt,BarAlt,WPAlt,DesSonAlt,AngBst,CRate,ThrOut,DCRate
FMT, 15, 21, MAG, hhhhhhhhh, MagX,MagY,MagZ,OfsX,OfsY,OfsZ,MOfsX,MOfsY,MOfsZ
FMT, 6, 17, PM, BBBHHIhB, RenCnt,RenBlw,FixCnt,NLon,NLoop,MaxT,PMT,I2CErr
FMT, 8, 20, CMD, BBBBBeLL, CTot,CNum,CId,COpt,Prm1,Alt,Lat,Lng
FMT, 1, 17, ATT, cccccCC, RollIn,Roll,PitchIn,Pitch,YawIn,Yaw,NavYaw
FMT, 17, 37, INAV, cccfffiiff, BAlt,IAlt,IClb,ACorrX,ACorrY,ACorrZ,GLat,GLng,ILat,ILng
FMT, 3, 6, MODE, Mh, Mode,ThrCrs
FMT, 10, 3, STRT, , 
FMT, 13, 4, EV, B, Id
FMT, 20, 6, D16, Bh, Id,Value
FMT, 21, 6, DU16, BH, Id,Value
FMT, 22, 8, D32, Bi, Id,Value
FMT, 23, 8, DU32, BI, Id,Value
FMT, 24, 8, DFLT, Bf, Id,Value
FMT, 14, 28, PID, Biiiiif, Id,Error,P,I,D,Out,Gain
FMT, 18, 25, CAM, ILLeccC, GPSTime,Lat,Lng,Alt,Roll,Pitch,Yaw
FMT, 19, 5, ERR, BB, Subsys,ECode
D32, 9, 6225
CMD, 6, 0, 16, 0, 0, 0.00, -33.7840415, 151.0682162
EV, 10
GPS, 3, 283597600, 11, 1.57, -33.7840416, 151.0682177, -0.23, 92.99, 0.20, 213.02
CTUN, 182, 0.00, 0.03, 0.000000, 0.00, 0, -1, 0, 0
EV, 15
EV, 28
ATT, 0.00, -0.08, 0.00, 0.70, 0.00, 62.32, 62.24
CTUN, 181, 0.00, 0.10, 0.000000, 0.00, 0, -1, 181, 0
GPS, 3, 283605000, 10, 1.72, -33.7840622, 151.0682213, -0.21, 95.60, 0.09, 213.02
ATT, 0.00, -0.24, 0.00, 1.04, 0.00, 62.19, 62.24
PM, 0, 0, 38, 6, 1000, 7332584, 18, 4
CTUN, 181, 0.00, 0.08, 0.000000, 0.00, 0, 0, 182, 0
ATT, 0.00, -0.22, 0.00, 1.13, 0.00, 62.24, 62.24
CTUN, 182, 0.00, -0.35, 0.000000, 0.00, 0, 0, 182, 0
GPS, 3, 283605200, 10, 1.72, -33.7840630, 151.0682212, -0.17, 95.56, 0.12, 213.02
DU32, 7, 8313
CURR, 185, 546, 1224, 316, 4772, 0.389907
ATT, 0.00, -0.19, 0.00, 1.21, 0.00, 62.29, 62.24
CTUN, 203, 0.00, -0.72, 0.000000, 0.00, 0, 0, 203, 0
ATT, 0.00, -0.17, 0.00, 1.21, 0.00, 62.31, 62.24
CTUN, 207, 0.00, -0.67, 0.000000, 0.00, 0, 0, 205, 0
GPS, 3, 283605400, 10, 1.72, -33.7840639, 151.0682210, -0.21, 95.51, 0.23, 213.02
ATT, 0.00, -0.16, 0.00, 1.21, 0.00, 62.35, 62.24
CTUN, 207, 0.00, -0.61, 0.000000, 0.00, 0, 0, 207, 0
ATT, 0.00, -0.17, 0.00, 1.27, 0.00, 62.37, 62.24
GPS, 3, 283605600, 9, 1.75, -33.7840639, 151.0682211, -0.26, 95.51, 0.27, 213.02
CTUN, 207, 0.00, -0.65, 0.000000, 0.00, 0, -1, 208, 0
ATT, 0.00, -0.22, 0.00, 1.18, 0.00, 62.41, 62.24
CTUN, 232, 0.00, -0.73, 0.000000, 0.00, 0, -2, 212, 0
ATT, 0.00, -0.26, 0.00, 1.05, 0.00, 62.43, 62.24
GPS, 3, 283605800, 10, 1.72, -33.7840643, 151.0682214, -0.32, 95.50, 0.16, 213.02
CTUN, 315, 0.00, -0.78, 0.000000, 0.00, 0, -3, 307, 0
ATT, 0.00, -0.26, 0.00, 1.00, 0.00, 62.42, 62.24
CTUN, 380, 0.00, -1.09, 0.000000, 0.00, 0, -3, 370, 0
ATT, 0.00, -0.20, 0.00, 1.01, 0.00, 62.39, 62.24
GPS, 3, 283606000, 10, 1.72, -33.7840647, 151.0682216, -0.39, 95.44, 0.09, 213.02
CTUN, 457, 0.00, -1.09, 0.000000, 0.00, 0, -3, 444, 0
ATT, 0.00, -0.06, 0.00, 1.04, 0.00, 62.46, 62.24
CTUN, 494, 0.00, -1.61, 0.000000, 0.00, 0, -4, 481, 0
EV, 16
ATT, 0.00, 0.12, 0.00, 1.29, 0.00, 62.32, 62.24
GPS, 3, 283606200, 10, 1.72, -33.7840653, 151.0682218, -0.50, 95.45, 0.02, 213.02
CTUN, 501, 0.00, -1.59, 0.000000, 0.00, 0, -5, 501, 0
DU32, 7, 8569
CURR, 501, 3676, 1166, 1148, 4732, 2.073562
ATT, 0.00, 0.22, -2.06, 1.62, 0.00, 61.33, 62.24
CTUN, 527, 0.00, -1.59, 0.000000, 0.00, 0, -7, 519, 0
ATT, 0.00, 0.25, -5.70, 1.42, 0.00, 59.72, 62.24
GPS, 3, 283606400, 10, 1.72, -33.7840658, 151.0682220, -0.64, 95.47, 0.01, 213.02
CTUN, 545, 0.00, -1.73, 0.000000, 0.00, 0, -4, 538, 0
ATT, 0.00, -0.10, -5.82, -0.77, 0.00, 57.86, 62.24
CTUN, 561, 0.00, -1.46, 0.000000, 0.00, 0, 2, 555, 0
ATT, 0.00, 0.31, -5.82, -1.94, 0.00, 56.02, 62.24
GPS, 3, 283606600, 10, 1.72, -33.7840661, 151.0682223, -0.75, 95.41, 0.16, 213.02
CTUN, 576, 0.00, -0.87, 0.000000, 0.00, 0, 11, 573, 0
ATT, 0.00, 1.41, -6.06, -2.16, 0.00, 54.27, 62.24
CTUN, 584, 0.00, -0.25, 0.000000, 0.00, 0, 22, 583, 0
ATT, 0.00, 2.14, -7.27, -2.59, 0.00, 52.81, 62.24
GPS, 3, 283606800, 10, 1.72, -33.7840665, 151.0682224, -0.73, 95.41, 0.05, 213.02
CTUN, 584, 0.00, -0.13, 0.000000, 0.00, 0, 34, 584, 0
ATT, 0.00, 1.61, -7.64, -3.74, 0.00, 51.59, 61.59
CTUN, 585, 0.00, 0.12, 0.000000, 0.00, 1, 46, 586, 0
GPS, 3, 283607000, 10, 1.72, -33.7840665, 151.0682227, -0.57, 95.43, 0.10, 213.02
ATT, 0.00, 1.68, -7.39, -4.74, 0.00, 50.40, 60.40
CTUN, 585, 0.00, 0.30, 0.000000, 0.00, 1, 56, 586, 0
ATT, -1.16, 1.62, -4.12, -5.00, 0.00, 49.47, 59.47
CTUN, 585, 0.00, 0.37, 0.000000, 0.00, 1, 61, 586, 0
GPS, 3, 283607200, 10, 1.72, -33.7840663, 151.0682227, -0.36, 95.59, 0.05, 213.02
ATT, -2.32, 0.49, -2.30, -3.72, 9.36, 48.57, 58.57
DU32, 7, 8569
CURR, 584, 8786, 1144, 1433, 4712, 5.546700
CTUN, 583, 0.00, 0.51, 0.000000, 0.00, 0, 67, 584, 0
ATT, -3.83, 0.62, -2.18, -1.80, 18.12, 49.25, 59.25
CTUN, 584, 0.00, 0.54, 0.000000, 0.00, 0, 79, 584, 0
GPS, 3, 283607400, 9, 1.82, -33.7840665, 151.0682234, -0.12, 95.63, 0.31, 213.02
ATT, -3.02, 0.44, -1.57, 0.35, 15.72, 53.03, 63.03
CTUN, 584, 0.00, 0.56, 0.000000, 0.00, 0, 87, 584, 0
ATT, -3.02, -1.06, -1.57, 0.08, 12.60, 57.22, 67.22
GPS, 3, 283607600, 10, 1.72, -33.7840666, 151.0682237, 0.09, 95.69, 0.28, 213.02
CTUN, 585, 0.00, 0.75, 0.000000, 0.00, 0, 91, 585, 0
ATT, -2.79, -2.47, -2.18, -0.69, 8.40, 61.94, 71.93
CTUN, 584, 0.00, 0.82, 0.000000, 0.00, 0, 93, 583, 0
ATT, -2.09, -2.78, -3.76, -1.31, 2.40, 65.57, 74.58
GPS, 3, 283607800, 9, 1.82, -33.7840658, 151.0682242, 0.37, 95.76, 0.35, 213.02
CTUN, 584, 0.00, 0.91, 0.000000, 0.00, 0, 94, 585, 0
ATT, -1.39, -2.80, -6.42, -2.79, 0.00, 67.69, 74.96
CTUN, 583, 0.00, 1.03, 0.000000, 0.00, 1, 96, 585, 0
ATT, 0.00, -2.17, -6.06, -4.27, 0.00, 68.33, 74.96
GPS, 3, 283608000, 10, 1.68, -33.7840659, 151.0682248, 0.62, 95.93, 0.39, 213.02
CTUN, 583, 0.00, 1.17, 0.000000, 0.00, 1, 100, 586, 0
ATT, 0.00, -0.77, -5.45, -4.68, 0.00, 68.15, 74.96
CTUN, 583, 0.00, 1.30, 0.000000, 0.00, 1, 102, 584, 0
GPS, 3, 283608200, 11, 1.57, -33.7840653, 151.0682257, 0.89, 96.13, 0.48, 145.14
ATT, 0.00, 0.73, -2.18, -4.06, 0.00, 67.46, 74.96
CTUN, 583, 0.00, 1.42, 0.000000, 0.00, 1, 104, 584, 0
DU32, 7, 8569
CURR, 585, 14047, 1140, 1416, 4712, 9.581740
ATT, 0.00, 1.66, -0.24, -2.28, 0.00, 66.68, 74.96
CTUN, 584, 0.00, 1.52, 0.000000, 0.00, 0, 107, 584, 0
GPS, 3, 283608400, 10, 1.72, -33.7840647, 151.0682268, 1.16, 96.25, 0.67, 82.74
ATT, 0.00, 2.25, 0.00, -0.16, 0.00, 65.70, 74.96
CTUN, 584, 0.00, 1.58, 0.000000, 0.00, 0, 110, 584, 0
ATT, 0.00, 2.44, 0.00, 1.01, 0.00, 64.90, 74.90
CTUN, 551, 0.00, 1.73, 0.000000, 0.00, 0, 112, 551, 0
GPS, 3, 283608600, 10, 1.72, -33.7840642, 151.0682280, 1.42, 96.37, 0.73, 68.72
ATT, 0.00, 2.31, 0.00, 1.77, 0.00, 64.25, 74.25
CTUN, 533, 0.00, 1.87, 0.000000, 0.00, 0, 109, 539, 0
ATT, 0.00, 1.81, -0.72, 1.90, 0.00, 63.74, 73.74
CTUN, 532, 0.00, 1.96, 0.000000, 0.00, 0, 103, 532, 0
GPS, 3, 283608800, 10, 1.72, -33.7840636, 151.0682291, 1.68, 96.47, 0.70, 64.95
ATT, 0.00, 1.17, -0.48, 1.37, 0.00, 63.32, 73.32
CTUN, 532, 0.00, 2.07, 0.000000, 0.00, 0, 98, 532, 0
ATT, 0.00, 0.64, -0.60, 0.95, 0.00, 63.00, 73.00
CTUN, 533, 0.00, 2.11, 0.000000, 0.00, 0, 90, 533, 0
GPS, 3, 283609000, 10, 1.72, -33.7840634, 151.0682305, 1.90, 96.52, 0.81, 67.74
ATT, 0.00, 0.67, -2.30, 0.53, 0.00, 62.69, 72.69
CTUN, 532, 0.00, 2.27, 0.000000, 0.00, 0, 84, 532, 0
ATT, 0.00, 0.67, -3.76, -0.36, 0.00, 62.39, 72.39
CTUN, 533, 0.00, 2.29, 0.000000, 0.00, 0, 79, 532, 0
GPS, 3, 283609200, 10, 1.72, -33.7840634, 151.0682315, 2.10, 96.69, 0.59, 69.03
ATT, 0.00, 0.09, -3.51, -2.14, 0.00, 62.21, 72.21
CTUN, 533, 0.00, 2.42, 0.000000, 0.00, 0, 73, 533, 0
DU32, 7, 8569
CURR, 532, 19521, 1151, 1260, 4752, 13.34662
ATT, 0.00, -0.04, -4.36, -2.84, 0.00, 62.06, 72.06
CTUN, 532, 0.00, 2.41, 0.000000, 0.00, 0, 69, 532, 0
GPS, 3, 283609400, 11, 1.57, -33.7840630, 151.0682321, 2.27, 97.14, 0.57, 72.66
ATT, 0.00, 0.49, -4.85, -3.02, 0.00, 61.88, 71.88
CTUN, 532, 0.00, 2.53, 0.000000, 0.00, 0, 63, 532, 0
ATT, 0.00, 0.60, -5.70, -3.37, 0.00, 61.69, 71.69
CTUN, 532, 0.00, 2.52, 0.000000, 0.00, 0, 57, 533, 0
GPS, 3, 283609600, 11, 1.57, -33.7840623, 151.0682331, 2.41, 97.40, 0.73, 70.64
ATT, 0.00, 0.54, -6.18, -3.95, 0.00, 61.46, 71.46
CTUN, 532, 0.00, 2.56, 0.000000, 0.00, 0, 52, 532, 0
ATT, 0.00, 0.31, -3.88, -4.38, 0.00, 61.12, 71.12
CTUN, 532, 0.00, 2.73, 0.000000, 0.00, 1, 47, 533, 0
GPS, 3, 283609800, 11, 1.57, -33.7840623, 151.0682341, 2.53, 97.52, 0.76, 76.20
ATT, 0.00, -0.16, -1.33, -3.91, 0.00, 60.69, 70.69
CTUN, 533, 0.00, 2.65, 0.000000, 0.00, 1, 44, 534, 0
ATT, 0.00, -0.17, 0.00, -2.29, 0.00, 60.13, 70.13
CTUN, 534, 0.00, 2.66, 0.000000, 0.00, 0, 41, 534, 0
GPS, 3, 283610000, 11, 1.57, -33.7840620, 151.0682353, 2.63, 97.58, 0.83, 71.42
ATT, 0.00, -0.15, 0.00, -0.48, 0.00, 59.56, 69.56
CTUN, 551, 0.00, 2.87, 0.000000, 0.00, 0, 35, 551, 0
ATT, 0.00, -0.46, 0.00, 0.14, 0.00, 59.05, 69.05
CTUN, 553, 0.00, 2.77, 0.000000, 0.00, 0, 36, 553, 0
GPS, 3, 283610200, 11, 1.57, -33.7840618, 151.0682368, 2.72, 97.60, 0.85, 72.85
ATT, 0.00, -1.02, 0.00, 0.34, 0.00, 58.55, 68.55
CTUN, 556, 0.00, 2.84, 0.000000, 0.00, 0, 35, 556, 0
DU32, 7, 8569
CURR, 556, 24890, 1143, 1333, 4732, 16.85737
ATT, 0.00, -1.02, 0.00, 0.37, 0.00, 58.12, 68.12
CTUN, 575, 0.00, 2.90, 0.000000, 0.00, 0, 37, 575, 0
GPS, 3, 283610400, 11, 1.57, -33.7840614, 151.0682386, 2.80, 97.66, 0.97, 73.32
CTUN, 585, 0.00, 2.89, 0.000000, 0.00, 0, 41, 585, 0
ATT, 0.00, -1.21, 0.00, 0.20, 0.00, 57.84, 67.84
CTUN, 588, 0.00, 2.95, 0.000000, 0.00, 0, 46, 587, 0
ATT, 0.00, -1.35, 0.00, -0.03, 0.00, 57.69, 67.69
GPS, 3, 283610600, 11, 1.57, -33.7840611, 151.0682401, 2.89, 97.69, 0.76, 74.57
CTUN, 588, 0.00, 2.86, 0.000000, 0.00, 0, 53, 588, 0
ATT, 0.00, -0.96, 0.35, -0.15, 0.00, 57.57, 67.57
CTUN, 588, 0.00, 2.99, 0.000000, 0.00, 0, 60, 588, 0
ATT, 0.00, -0.68, 1.52, 0.01, 0.00, 57.57, 67.55
GPS, 3, 283610800, 11, 1.57, -33.7840612, 151.0682413, 3.00, 97.57, 0.66, 73.19
CTUN, 588, 0.00, 3.10, 0.000000, 0.00, 0, 67, 588, 0
ATT, 0.00, -0.89, 3.16, 0.46, 0.00, 57.75, 67.55
CTUN, 588, 0.00, 3.08, 0.000000, 0.00, 0, 72, 588, 0
ATT, 0.00, -0.94, 0.11, 1.23, 0.00, 57.99, 67.55
GPS, 3, 283611000, 11, 1.57, -33.7840609, 151.0682427, 3.16, 97.64, 0.64, 75.43
CTUN, 588, 0.00, 3.11, 0.000000, 0.00, 0, 75, 587, 0
ATT, 0.00, -1.44, 0.00, 0.08, 0.00, 58.36, 67.55
CTUN, 589, 0.00, 3.22, 0.000000, 0.00, 0, 81, 589, 0
ATT, 0.00, -1.25, 0.00, -0.48, 0.00, 58.56, 67.55
GPS, 3, 283611200, 11, 1.57, -33.7840606, 151.0682436, 3.31, 97.67, 0.53, 72.30
CTUN, 588, 0.00, 3.32, 0.000000, 0.00, 0, 87, 587, 0
DU32, 7, 8569
CURR, 588, 30734, 1130, 1446, 4732, 21.13261
ATT, 5.76, -0.73, 3.16, -0.27, 0.00, 58.60, 67.55
CTUN, 588, 0.00, 3.33, 0.000000, 0.00, 0, 91, 588, 0
GPS, 3, 283611400, 11, 1.57, -33.7840603, 151.0682448, 3.49, 97.71, 0.49, 75.58
ATT, 4.38, 2.65, 4.10, 1.08, 0.00, 58.44, 67.55
CTUN, 588, 0.00, 3.44, 0.000000, 0.00, 0, 97, 587, 0
ATT, 4.15, 3.84, 5.97, 3.04, 0.00, 58.44, 67.55
CTUN, 588, 0.00, 3.61, 0.000000, 0.00, 1, 102, 589, 0
GPS, 3, 283611600, 11, 1.57, -33.7840596, 151.0682458, 3.68, 97.77, 0.43, 74.01
ATT, 1.61, 3.70, 9.84, 4.41, 0.00, 58.65, 67.55
CTUN, 586, 0.00, 3.66, 0.000000, 0.00, 2, 105, 590, 0
ATT, 0.00, 2.67, 8.32, 6.68, 0.00, 58.95, 67.55
CTUN, 588, 0.00, 3.74, 0.000000, 0.00, 3, 107, 591, 0
GPS, 3, 283611800, 11, 1.57, -33.7840590, 151.0682466, 3.89, 97.87, 0.43, 73.50
CTUN, 588, 0.00, 3.86, 0.000000, 0.00, 4, 111, 592, 0
ATT, 0.00, 1.83, 2.46, 7.33, 0.00, 59.15, 67.55
CTUN, 586, 0.00, 4.06, 0.000000, 0.00, 2, 113, 590, 0
ATT, 0.00, 0.94, 0.00, 3.96, 0.00, 59.23, 67.55
GPS, 3, 283612000, 11, 1.57, -33.7840594, 151.0682470, 4.08, 97.97, 0.28, 73.50
CTUN, 562, 0.00, 4.16, 0.000000, 0.00, 0, 117, 567, 0
ATT, -0.81, -0.18, 0.00, 0.11, 0.00, 59.35, 67.55
CTUN, 562, 0.00, 4.15, 0.000000, 0.00, 0, 117, 562, 0
ATT, 0.00, 0.43, 0.00, -0.81, 0.00, 59.45, 67.55
GPS, 3, 283612200, 11, 1.57, -33.7840602, 151.0682474, 4.34, 98.07, 0.40, 106.78
CTUN, 559, 0.00, 4.29, 0.000000, 0.00, 0, 117, 559, 0
DU32, 7, 8569
CURR, 557, 35966, 1135, 1345, 4752, 25.00457
ATT, 0.00, 0.97, 0.00, -1.01, 0.00, 59.69, 67.55
CTUN, 558, 0.00, 4.38, 0.000000, 0.00, 0, 114, 558, 0
ATT, 0.00, 0.93, 0.00, -1.22, 0.00, 60.06, 67.55
GPS, 3, 283612400, 11, 1.57, -33.7840610, 151.0682477, 4.56, 98.15, 0.41, 137.81
CTUN, 548, 0.00, 4.55, 0.000000, 0.00, 0, 110, 552, 0
ATT, 0.00, 0.76, 0.00, -1.03, 0.00, 60.48, 67.55
CTUN, 544, 0.00, 4.67, 0.000000, 0.00, 0, 106, 544, 0
ATT, -3.83, 0.89, 0.00, -0.83, 0.00, 60.87, 67.55
GPS, 3, 283612600, 11, 1.57, -33.7840615, 151.0682484, 4.76, 98.21, 0.38, 137.81
CTUN, 509, 0.00, 4.67, 0.000000, 0.00, 0, 101, 510, 0
ATT, -3.60, -1.18, 0.00, -0.35, 0.00, 61.28, 67.55
CTUN, 509, 0.00, 4.79, 0.000000, 0.00, 0, 92, 509, 0
ATT, -4.30, -3.26, 0.00, -1.46, 0.00, 61.85, 67.55
GPS, 3, 283612800, 11, 1.57, -33.7840619, 151.0682489, 4.93, 98.37, 0.38, 141.14
CTUN, 509, 0.00, 5.11, 0.000000, 0.00, 0, 79, 509, 0
ATT, -9.53, -3.45, 0.00, -1.02, 0.00, 62.14, 67.55
CTUN, 509, 0.00, 5.04, 0.000000, 0.00, 1, 68, 510, 0
ATT, -10.69, -5.71, 0.00, -0.53, 0.00, 62.44, 67.55
GPS, 3, 283613000, 11, 1.57, -33.7840627, 151.0682495, 5.09, 98.45, 0.43, 134.96
CTUN, 510, 0.00, 5.03, 0.000000, 0.00, 3, 57, 513, 0
ATT, -10.23, -9.25, 0.00, -1.12, 0.00, 62.84, 67.55
CTUN, 508, 0.00, 5.23, 0.000000, 0.00, 5, 44, 513, 0
ATT, -5.00, -9.03, 0.00, -1.48, 0.00, 62.93, 67.55
GPS, 3, 283613200, 11, 1.57, -33.7840633, 151.0682502, 5.18, 98.37, 0.31, 134.96
CTUN, 510, 0.00, 5.08, 0.000000, 0.00, 4, 38, 514, 0
DU32, 7, 8569
CURR, 510, 41203, 1144, 1160, 4712, 28.36485
ATT, -3.83, -6.60, 0.00, -0.83, 0.00, 62.67, 67.55
CTUN, 510, 0.00, 5.24, 0.000000, 0.00, 1, 23, 511, 0
ATT, -3.25, -4.47, 0.00, -0.18, 0.00, 62.31, 67.55
GPS, 3, 283613400, 11, 1.57, -33.7840640, 151.0682507, 5.23, 98.15, 0.27, 134.96
CTUN, 510, 0.00, 5.34, 0.000000, 0.00, 0, 11, 510, 0
ATT, -0.58, -2.96, 0.00, -0.16, 0.00, 61.94, 67.55
CTUN, 508, 0.00, 5.32, 0.000000, 0.00, 0, 2, 510, 0
GPS, 3, 283613600, 11, 1.57, -33.7840640, 151.0682508, 5.25, 98.04, 0.21, 134.96
ATT, -4.06, -1.26, 0.00, -0.09, 0.00, 61.65, 67.55
CTUN, 510, 0.00, 5.40, 0.000000, 0.00, 0, -8, 510, 0
ATT, -3.72, -1.72, 0.00, 0.40, 0.00, 61.46, 67.55
CTUN, 510, 0.00, 5.26, 0.000000, 0.00, 0, -20, 510, 0
GPS, 3, 283613800, 11, 1.57, -33.7840636, 151.0682507, 5.23, 98.01, 0.37, 69.38
ATT, -4.76, -2.63, 0.00, -0.30, 0.00, 61.40, 67.55
CTUN, 510, 0.00, 5.24, 0.000000, 0.00, 0, -30, 509, 0
ATT, -4.65, -3.43, 0.00, -0.42, 0.00, 61.44, 67.55
CTUN, 522, 0.00, 5.17, 0.000000, 0.00, 0, -40, 517, 0
GPS, 3, 283614000, 11, 1.57, -33.7840630, 151.0682502, 5.15, 97.92, 0.32, 36.58
CTUN, 522, 0.00, 5.09, 0.000000, 0.00, 0, -51, 523, 0
ATT, -1.97, -3.40, 0.00, -0.34, 0.00, 61.71, 67.55
CTUN, 531, 0.00, 5.09, 0.000000, 0.00, 0, -60, 523, 0
ATT, 0.00, -2.27, 0.00, -0.49, 0.00, 62.18, 67.55
GPS, 3, 283614200, 11, 1.57, -33.7840623, 151.0682503, 5.04, 97.78, 0.42, 14.85
CTUN, 547, 0.00, 5.08, 0.000000, 0.00, 0, -66, 546, 0
ATT, 0.00, -0.97, 0.00, -0.16, 0.00, 62.92, 67.55
DU32, 7, 8569
CURR, 546, 45852, 1142, 1200, 4693, 31.45079
CTUN, 547, 0.00, 4.95, 0.000000, 0.00, 0, -69, 546, 0
ATT, 0.00, -0.73, 0.00, -0.29, 0.00, 63.70, 67.55
GPS, 3, 283614400, 10, 1.72, -33.7840609, 151.0682502, 4.91, 97.69, 0.53, 8.48
CTUN, 549, 0.00, 4.91, 0.000000, 0.00, 0, -70, 549, 0
ATT, 0.00, -0.44, 0.00, -0.15, 0.00, 64.38, 67.55
CTUN, 569, 0.00, 4.69, 0.000000, 0.00, 0, -70, 569, 0
ATT, 0.00, -0.29, 0.00, -0.06, 0.00, 64.87, 67.55
GPS, 3, 283614600, 10, 1.72, -33.7840595, 151.0682502, 4.78, 97.65, 0.46, 5.33
CTUN, 569, 0.00, 4.69, 0.000000, 0.00, 0, -69, 569, 0
ATT, 0.00, -0.88, 0.00, -0.17, 0.00, 65.18, 67.55
CTUN, 569, 0.00, 4.57, 0.000000, 0.00, 0, -66, 569, 0
ATT, 0.00, -0.71, 0.00, -0.10, 0.00, 65.07, 67.55
GPS, 3, 283614800, 10, 1.72, -33.7840584, 151.0682502, 4.63, 97.59, 0.41, 4.25
CTUN, 569, 0.00, 4.56, 0.000000, 0.00, 0, -63, 569, 0
ATT, 0.00, -0.51, 0.00, 0.13, 0.00, 64.58, 67.55
CTUN, 568, 0.00, 4.49, 0.000000, 0.00, 0, -61, 568, 0
ATT, 0.00, -0.10, 0.00, 0.14, 0.00, 63.90, 67.55
GPS, 3, 283615000, 10, 1.72, -33.7840572, 151.0682502, 4.51, 97.49, 0.50, 357.51
CTUN, 573, 0.00, 4.45, 0.000000, 0.00, 0, -58, 573, 0
ATT, 0.00, -0.18, 0.23, 0.30, 0.00, 63.22, 67.55
PM, 0, 0, 50, 0, 1000, 10436, 10, 4
CTUN, 573, 0.00, 4.38, 0.000000, 0.00, 0, -54, 573, 0
ATT, 0.00, -0.24, 0.00, 0.25, 0.00, 62.50, 67.55
GPS, 3, 283615200, 11, 1.57, -33.7840560, 151.0682501, 4.39, 97.37, 0.45, 353.79
CTUN, 573, 0.00, 4.42, 0.000000, 0.00, 0, -51, 573, 0
ATT, 0.00, -0.23, 0.00, 0.13, 0.00, 61.80, 67.55
DU32, 7, 8569
CURR, 573, 51506, 1130, 1359, 4712, 35.10580
CTUN, 575, 0.00, 4.22, 0.000000, 0.00, 0, -48, 575, 0
ATT, 0.00, -0.23, 0.00, 0.18, 0.00, 61.31, 67.55
GPS, 3, 283615400, 10, 1.61, -33.7840550, 151.0682501, 4.28, 97.23, 0.43, 352.59
CTUN, 573, 0.00, 4.19, 0.000000, 0.00, 0, -44, 573, 0
ATT, 0.00, 0.03, 0.00, 0.22, 0.00, 60.98, 67.55
CTUN, 574, 0.00, 4.15, 0.000000, 0.00, 0, -42, 575, 0
ATT, 0.00, 0.11, 0.00, 0.28, 0.00, 60.94, 67.55
GPS, 3, 283615600, 11, 1.57, -33.7840535, 151.0682498, 4.18, 97.17, 0.46, 344.17
CTUN, 584, 0.00, 4.09, 0.000000, 0.00, 0, -40, 577, 0
ATT, 0.00, -0.16, 0.00, 0.17, 0.00, 61.12, 67.55
CTUN, 581, 0.00, 4.16, 0.000000, 0.00, 0, -37, 584, 0
ATT, 0.00, -0.16, 0.00, -0.17, 0.00, 61.38, 67.55
GPS, 3, 283615800, 11, 1.57, -33.7840531, 151.0682496, 4.10, 97.08, 0.19, 344.17
CTUN, 585, 0.00, 3.99, 0.000000, 0.00, 0, -31, 585, 0
ATT, 0.57, -0.18, 0.00, -0.13, 0.00, 61.65, 67.55
CTUN, 585, 0.00, 4.08, 0.000000, 0.00, 0, -27, 585, 0
GPS, 3, 283616000, 10, 1.61, -33.7840524, 151.0682495, 4.04, 97.01, 0.35, 344.55
ATT, 1.96, -0.09, 2.92, -0.17, 0.00, 61.97, 67.55
CTUN, 585, 0.00, 4.00, 0.000000, 0.00, 0, -22, 585, 0
ATT, 2.19, 0.12, 1.87, 0.44, 0.00, 62.16, 67.55
CTUN, 585, 0.00, 3.98, 0.000000, 0.00, 0, -17, 585, 0
GPS, 3, 283616200, 10, 1.61, -33.7840519, 151.0682491, 4.00, 96.88, 0.35, 338.33
CTUN, 584, 0.00, 3.95, 0.000000, 0.00, 0, -13, 584, 0
ATT, 4.50, 0.80, 1.99, 0.92, 0.00, 62.32, 67.55
DU32, 7, 8569
CURR, 585, 56730, 1127, 1424, 4772, 38.83496
CTUN, 585, 0.00, 3.97, 0.000000, 0.00, 0, -9, 585, 0
ATT, 3.92, 1.84, 1.40, 1.36, 0.00, 62.45, 67.55
GPS, 3, 283616400, 11, 1.57, -33.7840507, 151.0682492, 3.97, 96.92, 0.36, 342.78
CTUN, 583, 0.00, 3.83, 0.000000, 0.00, 0, -6, 583, 0
ATT, 4.50, 2.74, 1.05, 1.79, 0.00, 62.62, 67.55
CTUN, 585, 0.00, 3.96, 0.000000, 0.00, 0, -3, 585, 0
ATT, 4.38, 3.31, 0.00, 1.51, 0.00, 62.72, 67.55
GPS, 3, 283616600, 11, 1.57, -33.7840500, 151.0682490, 3.96, 96.88, 0.29, 338.79
CTUN, 584, 0.00, 3.94, 0.000000, 0.00, 0, -1, 584, 0
ATT, 5.42, 3.02, 1.05, 0.80, 0.00, 62.84, 67.55
CTUN, 585, 0.00, 3.91, 0.000000, 0.00, 0, 2, 584, 0
ATT, 5.76, 3.44, 2.46, 1.01, 0.00, 62.90, 67.55
GPS, 3, 283616800, 11, 1.57, -33.7840500, 151.0682484, 3.96, 96.75, 0.23, 338.79
CTUN, 584, 0.00, 3.91, 0.000000, 0.00, 1, 4, 586, 0
ATT, 4.50, 3.95, 2.22, 1.76, 0.00, 62.90, 67.55
CTUN, 582, 0.00, 3.98, 0.000000, 0.00, 1, 7, 586, 0
ATT, 2.76, 3.37, 1.40, 1.94, 0.00, 62.87, 67.55
GPS, 3, 283617000, 11, 1.57, -33.7840500, 151.0682481, 3.97, 96.68, 0.16, 338.79
CTUN, 585, 0.00, 4.00, 0.000000, 0.00, 0, 10, 585, 0
ATT, 1.38, 2.26, 0.00, 1.45, 0.00, 62.79, 67.55
CTUN, 585, 0.00, 4.00, 0.000000, 0.00, 0, 13, 585, 0
GPS, 3, 283617200, 11, 1.57, -33.7840499, 151.0682479, 3.99, 96.68, 0.15, 338.79
ATT, 1.50, 0.92, 0.00, 0.27, 0.00, 62.66, 67.55
CTUN, 585, 0.00, 3.99, 0.000000, 0.00, 0, 17, 585, 0
DU32, 7, 8569
CURR, 585, 62576, 1121, 1407, 4732, 43.09805
ATT, 1.96, 0.92, 0.00, 0.06, 0.00, 62.46, 67.55
CTUN, 584, 0.00, 4.04, 0.000000, 0.00, 0, 19, 585, 0
GPS, 3, 283617400, 11, 1.57, -33.7840500, 151.0682478, 4.03, 96.68, 0.19, 338.79
ATT, 0.46, 1.03, 0.00, -0.10, 0.00, 62.17, 67.55
CTUN, 585, 0.00, 4.01, 0.000000, 0.00, 0, 23, 585, 0
ATT, 0.00, 0.31, 0.00, -0.16, 0.00, 61.99, 67.55
CTUN, 585, 0.00, 4.09, 0.000000, 0.00, 0, 25, 585, 0
GPS, 3, 283617600, 11, 1.57, -33.7840504, 151.0682476, 4.07, 96.73, 0.27, 263.76
ATT, 0.00, -0.20, 0.00, -0.24, 0.00, 61.90, 67.55
CTUN, 581, 0.00, 4.13, 0.000000, 0.00, 0, 28, 581, 0
ATT, 0.00, -0.26, 0.00, -0.18, 0.00, 61.88, 67.55
CTUN, 585, 0.00, 4.09, 0.000000, 0.00, 0, 32, 585, 0
GPS, 3, 283617800, 11, 1.57, -33.7840506, 151.0682475, 4.13, 96.76, 0.20, 263.76
CTUN, 581, 0.00, 4.12, 0.000000, 0.00, 0, 34, 581, 0
ATT, 0.00, -0.50, 0.00, -0.11, 0.00, 61.94, 67.55
CTUN, 586, 0.00, 4.22, 0.000000, 0.00, 0, 37, 581, 0
ATT, 0.00, -0.50, 0.00, -0.29, 0.00, 62.00, 67.55
GPS, 3, 283618000, 11, 1.57, -33.7840510, 151.0682475, 4.21, 96.83, 0.19, 263.76
CTUN, 585, 0.00, 4.21, 0.000000, 0.00, 0, 39, 583, 0
ATT, 0.00, -0.49, 0.35, -0.34, 0.00, 62.08, 67.55
CTUN, 585, 0.00, 4.29, 0.000000, 0.00, 0, 41, 585, 0
ATT, 0.00, -0.33, 1.99, -0.30, 0.00, 62.15, 67.55
GPS, 3, 283618200, 11, 1.57, -33.7840513, 151.0682474, 4.29, 96.91, 0.08, 263.76
CTUN, 585, 0.00, 4.29, 0.000000, 0.00, 0, 43, 585, 0
DU32, 7, 8569
CURR, 585, 67838, 1126, 1403, 4693, 46.90620
ATT, 0.46, -0.11, 2.22, 0.53, 0.00, 62.16, 67.55
CTUN, 585, 0.00, 4.39, 0.000000, 0.00, 0, 46, 586, 0
GPS, 3, 283618400, 11, 1.57, -33.7840516, 151.0682472, 4.37, 96.94, 0.11, 263.76
ATT, 1.61, 0.75, 1.99, 1.50, 0.00, 62.13, 67.55
CTUN, 584, 0.00, 4.41, 0.000000, 0.00, 0, 48, 584, 0
ATT, 4.73, 1.46, 2.69, 1.53, 0.00, 62.12, 67.55
CTUN, 585, 0.00, 4.35, 0.000000, 0.00, 0, 50, 585, 0
GPS, 3, 283618600, 11, 1.57, -33.7840513, 151.0682472, 4.48, 97.15, 0.04, 263.76
ATT, 1.84, 2.99, 1.99, 1.71, 0.00, 62.04, 67.55
CTUN, 584, 0.00, 4.47, 0.000000, 0.00, 0, 54, 584, 0
ATT, 0.00, 2.83, 0.00, 1.81, 0.00, 62.05, 67.55
CTUN, 584, 0.00, 4.60, 0.000000, 0.00, 0, 56, 585, 0
GPS, 3, 283618800, 11, 1.57, -33.7840514, 151.0682472, 4.57, 97.31, 0.12, 263.76
ATT, 0.00, 1.34, 0.00, 0.31, 0.00, 62.18, 67.55
CTUN, 585, 0.00, 4.64, 0.000000, 0.00, 0, 58, 585, 0
ATT, 0.00, 0.71, 0.00, -0.41, 0.00, 62.42, 67.55
CTUN, 583, 0.00, 4.56, 0.000000, 0.00, 0, 61, 583, 0
GPS, 3, 283619000, 11, 1.57, -33.7840514, 151.0682470, 4.70, 97.50, 0.22, 263.76
CTUN, 583, 0.00, 4.70, 0.000000, 0.00, 0, 62, 583, 0
ATT, 0.00, 0.99, 0.00, -0.31, 0.00, 62.76, 67.55
CTUN, 569, 0.00, 4.71, 0.000000, 0.00, 0, 63, 573, 0
ATT, 0.00, 0.95, 0.00, -0.42, 0.00, 63.22, 67.55
GPS, 3, 283619200, 11, 1.57, -33.7840516, 151.0682469, 4.82, 97.64, 0.22, 263.76
CTUN, 529, 0.00, 4.83, 0.000000, 0.00, 0, 62, 533, 0
ATT, 0.00, 0.79, 0.00, -0.59, 0.00, 63.81, 67.55
DU32, 7, 8569
CURR, 529, 73048, 1127, 1304, 4732, 50.68940
CTUN, 529, 0.00, 4.75, 0.000000, 0.00, 0, 58, 529, 0
ATT, 0.00, 0.80, 0.00, -0.65, 0.00, 64.34, 67.55
GPS, 3, 283619400, 11, 1.57, -33.7840522, 151.0682467, 4.93, 97.73, 0.34, 217.18
CTUN, 529, 0.00, 4.90, 0.000000, 0.00, 0, 51, 529, 0
ATT, 0.00, 0.64, 0.00, -0.52, 0.00, 64.86, 67.55
CTUN, 529, 0.00, 5.05, 0.000000, 0.00, 0, 42, 529, 0
ATT, 0.00, 0.55, 0.00, -0.43, 0.00, 65.34, 67.55
GPS, 3, 283619600, 11, 1.57, -33.7840524, 151.0682466, 5.02, 97.84, 0.20, 217.18
CTUN, 529, 0.00, 5.08, 0.000000, 0.00, 0, 32, 529, 0
ATT, 0.00, 0.48, 0.00, -0.38, 0.00, 65.77, 67.55
CTUN, 529, 0.00, 4.95, 0.000000, 0.00, 0, 24, 529, 0
ATT, 0.00, 0.41, 0.00, -0.34, 0.00, 66.17, 67.55
GPS, 3, 283619800, 11, 1.57, -33.7840532, 151.0682469, 5.08, 97.90, 0.26, 217.18
CTUN, 530, 0.00, 5.06, 0.000000, 0.00, 0, 15, 530, 0
ATT, 0.00, 0.56, 0.00, -0.30, 0.00, 66.52, 67.55
CTUN, 530, 0.00, 5.03, 0.000000, 0.00, 0, 7, 530, 0
ATT, 0.00, 0.47, 0.00, -0.27, 0.00, 66.80, 67.55
GPS, 3, 283620000, 10, 1.63, -33.7840536, 151.0682471, 5.09, 97.89, 0.26, 217.18
CTUN, 532, 0.00, 5.07, 0.000000, 0.00, 0, -1, 529, 0
ATT, 0.00, 0.46, 0.00, -0.25, 0.00, 66.99, 67.55
CTUN, 530, 0.00, 4.97, 0.000000, 0.00, 0, -8, 530, 0
ATT, 0.00, 0.52, 0.00, -0.15, 0.00, 67.05, 67.55
GPS, 3, 283620200, 11, 1.57, -33.7840543, 151.0682471, 5.08, 97.85, 0.26, 199.02
CTUN, 530, 0.00, 4.95, 0.000000, 0.00, 0, -16, 530, 0
DU32, 7, 8569
CURR, 532, 78347, 1133, 1168, 4712, 54.01828
ATT, 0.00, 0.62, 0.00, -0.12, 0.00, 67.03, 67.55
CTUN, 542, 0.00, 4.98, 0.000000, 0.00, 0, -23, 537, 0
GPS, 3, 283620400, 11, 1.57, -33.7840548, 151.0682473, 5.02, 97.77, 0.25, 199.02
ATT, 0.00, 0.60, 0.00, -0.16, 0.00, 66.86, 67.55
CTUN, 541, 0.00, 5.01, 0.000000, 0.00, 0, -33, 541, 0
ATT, 0.00, 0.67, 0.00, -0.09, 0.00, 66.59, 67.55
CTUN, 542, 0.00, 5.07, 0.000000, 0.00, 0, -39, 542, 0
MODE, ALT_HOLD, 555
GPS, 3, 283620600, 10, 1.68, -33.7840550, 151.0682476, 4.95, 97.70, 0.20, 199.02
ATT, 0.00, 0.75, 0.00, 0.21, 0.00, 66.11, 67.55
CTUN, 541, 0.00, 4.89, 4.550000, 0.00, 0, -45, 566, 0
ATT, 0.00, 0.50, 0.00, 0.44, 0.00, 65.65, 67.55
CTUN, 541, 0.00, 4.92, 4.550000, 0.00, 0, -48, 603, 0
GPS, 3, 283620800, 10, 1.68, -33.7840556, 151.0682479, 4.87, 97.58, 0.23, 199.02
CTUN, 541, 0.00, 4.79, 4.550000, 0.00, 0, -43, 594, 0
ATT, 0.00, 0.36, 0.00, 0.54, 0.00, 64.91, 67.55
CTUN, 541, 0.00, 4.73, 4.550000, 0.00, 0, -37, 611, 0
ATT, 0.00, 0.23, 0.00, 0.80, 0.00, 64.24, 67.55
GPS, 3, 283621000, 10, 1.68, -33.7840558, 151.0682484, 4.78, 97.52, 0.28, 199.02
CTUN, 542, 0.00, 4.72, 4.550000, 0.00, 0, -28, 602, 0
ATT, 0.00, 0.07, 0.00, 0.74, 0.00, 63.47, 67.55
CTUN, 541, 0.00, 4.66, 4.550000, 0.00, 0, -21, 589, 0
ATT, 0.00, -0.19, 0.00, 0.95, 0.00, 62.82, 67.55
GPS, 3, 283621200, 11, 1.57, -33.7840562, 151.0682487, 4.72, 97.42, 0.29, 199.02
CTUN, 541, 0.00, 4.55, 4.550000, 0.00, 0, -15, 585, 0
ATT, 0.00, -0.23, 0.00, 1.12, 0.00, 62.26, 67.55
DU32, 7, 8569
CURR, 541, 83545, 1120, 1401, 4712, 57.66706
CTUN, 541, 0.00, 4.54, 4.550000, 0.00, 0, -11, 576, 0
ATT, 0.00, -0.45, 0.00, 0.87, 0.00, 61.95, 67.55
GPS, 3, 283621400, 11, 1.57, -33.7840564, 151.0682489, 4.68, 97.40, 0.25, 199.02
CTUN, 541, 0.00, 4.67, 4.550000, 0.00, 0, -9, 580, 0
ATT, 0.00, -0.69, 0.00, 0.67, 0.00, 61.82, 67.55
CTUN, 541, 0.00, 4.63, 4.550000, 0.00, 0, -8, 580, 0
GPS, 3, 283621600, 11, 1.57, -33.7840569, 151.0682491, 4.66, 97.34, 0.32, 181.18
ATT, 0.00, -0.48, 0.00, 0.64, 0.00, 61.80, 67.55
CTUN, 541, 0.00, 4.66, 4.550000, 0.00, 0, -7, 574, 0
ATT, 0.00, -0.28, 0.00, 0.59, 0.00, 61.85, 67.55
CTUN, 541, 0.00, 4.60, 4.550000, 0.00, 0, -6, 574, 0
GPS, 3, 283621800, 11, 1.57, -33.7840573, 151.0682491, 4.64, 97.32, 0.28, 181.75
ATT, 0.00, -0.19, 0.00, 0.29, 0.00, 62.00, 67.55
CTUN, 541, 0.00, 4.66, 4.550000, 0.00, 0, -7, 575, 0
ATT, 0.00, -0.02, 0.00, 0.04, 0.00, 62.17, 67.55
CTUN, 541, 0.00, 4.57, 4.550000, 0.00, 0, -6, 571, 0
GPS, 3, 283622000, 11, 1.57, -33.7840580, 151.0682489, 4.62, 97.26, 0.22, 181.75
CTUN, 541, 0.00, 4.49, 4.550000, 0.00, 0, -7, 574, 0
ATT, 0.00, 0.07, 0.00, -0.11, 0.00, 62.38, 67.55
CTUN, 541, 0.00, 4.57, 4.550000, 0.00, 0, -6, 580, 0
ATT, 0.00, 0.28, 0.00, -0.18, 0.00, 62.49, 67.55
GPS, 3, 283622200, 10, 1.68, -33.7840583, 151.0682488, 4.60, 97.22, 0.19, 181.75
CTUN, 541, 0.00, 4.56, 4.550000, 0.00, 0, -5, 577, 0
ATT, 0.00, 0.16, 0.00, -0.25, 0.00, 62.59, 67.55
DU32, 7, 8569
CURR, 541, 88716, 1121, 1364, 4693, 61.42602
CTUN, 542, 0.00, 4.50, 4.550000, 0.00, 0, -4, 580, 0
ATT, 0.00, 0.20, 0.00, -0.34, 0.00, 62.63, 67.55
GPS, 3, 283622400, 11, 1.57, -33.7840584, 151.0682488, 4.58, 97.19, 0.17, 181.75
CTUN, 542, 0.00, 4.53, 4.550000, 0.00, 0, -3, 580, 0
ATT, 0.00, 0.22, 0.00, -0.44, 0.00, 62.65, 67.55
CTUN, 541, 0.00, 4.54, 4.550000, 0.00, 0, -2, 575, 0
GPS, 3, 283622600, 11, 1.57, -33.7840589, 151.0682489, 4.57, 97.16, 0.26, 181.75
ATT, -0.93, 0.18, 0.00, -0.21, 0.00, 62.59, 67.55
CTUN, 541, 0.00, 4.45, 4.550000, 0.00, 0, -2, 575, 0
ATT, -1.04, -0.23, 0.00, -0.09, 0.00, 62.50, 67.55
CTUN, 541, 0.00, 4.46, 4.550000, 0.00, 0, -1, 577, 0
GPS, 3, 283622800, 11, 1.57, -33.7840591, 151.0682490, 4.56, 97.14, 0.21, 181.75
ATT, -5.00, -0.74, 0.00, -0.13, 0.00, 62.34, 67.55
CTUN, 542, 0.00, 4.53, 4.550000, 0.00, 0, 0, 574, 0
ATT, -3.83, -2.39, 0.00, 0.17, 0.00, 62.22, 67.55
CTUN, 542, 0.00, 4.43, 4.550000, 0.00, 0, 0, 576, 0
GPS, 3, 283623000, 11, 1.57, -33.7840594, 151.0682490, 4.55, 97.11, 0.13, 181.75
CTUN, 541, 0.00, 4.56, 4.550000, 0.00, 0, 0, 576, 0
ATT, -3.25, -3.14, 0.00, -0.26, 0.00, 62.08, 67.55
CTUN, 541, 0.00, 4.58, 4.550000, 0.00, 0, 0, 577, 0
ATT, -3.37, -3.05, 0.00, 0.10, 0.00, 61.92, 67.55
GPS, 3, 283623200, 10, 1.63, -33.7840596, 151.0682490, 4.55, 97.08, 0.07, 181.75
CTUN, 542, 0.00, 4.51, 4.550000, 0.00, 0, 1, 569, 0
ATT, -1.62, -2.54, 0.00, 0.21, 0.00, 61.69, 67.55
DU32, 7, 8569
CURR, 541, 93878, 1116, 1372, 4712, 65.19178
CTUN, 541, 0.00, 4.56, 4.550000, 0.00, 0, 1, 572, 0
ATT, -1.86, -1.80, 0.00, -0.30, 0.00, 61.50, 67.55
GPS, 3, 283623400, 10, 1.63, -33.7840599, 151.0682487, 4.55, 97.03, 0.01, 181.75
CTUN, 541, 0.00, 4.51, 4.550000, 0.00, 0, 2, 573, 0
ATT, -1.39, -1.29, 0.00, 0.02, 0.00, 61.22, 67.55
CTUN, 541, 0.00, 4.51, 4.550000, 0.00, 0, 1, 575, 0
GPS, 3, 283623600, 10, 1.63, -33.7840600, 151.0682484, 4.55, 96.98, 0.09, 181.75
ATT, 0.00, -0.32, 0.00, -0.01, 0.00, 60.95, 67.55
CTUN, 541, 0.00, 4.43, 4.550000, 0.00, 0, 1, 572, 0
ATT, 0.00, 0.43, 0.00, -0.09, 0.00, 60.83, 67.55
CTUN, 542, 0.00, 4.46, 4.550000, 0.00, 0, 1, 567, 0
GPS, 3, 283623800, 10, 1.63, -33.7840599, 151.0682481, 4.54, 96.94, 0.11, 181.75
ATT, 0.00, 1.05, 0.00, -0.02, 0.00, 60.78, 67.55
CTUN, 541, 0.00, 4.43, 4.550000, 0.00, 0, 1, 573, 0
ATT, 0.00, 1.06, 0.00, -0.16, 0.00, 60.87, 67.55
CTUN, 541, 0.00, 4.46, 4.550000, 0.00, 0, 1, 570, 0
GPS, 3, 283624000, 10, 1.63, -33.7840597, 151.0682479, 4.53, 96.92, 0.08, 181.75
CTUN, 542, 0.00, 4.51, 4.550000, 0.00, 0, 2, 572, 0
ATT, 0.00, 0.92, 0.00, -0.20, 0.00, 61.00, 67.55
CTUN, 541, 0.00, 4.48, 4.550000, 0.00, 0, 2, 573, 0
ATT, 0.00, 0.89, 0.00, -0.08, 0.00, 61.18, 67.55
GPS, 3, 283624200, 11, 1.57, -33.7840595, 151.0682476, 4.53, 96.91, 0.06, 181.75
CTUN, 541, 0.00, 4.44, 4.550000, 0.00, 0, 2, 567, 0
ATT, 0.00, 0.76, 0.00, 0.01, 0.00, 61.43, 67.55
DU32, 7, 8569
CURR, 541, 99027, 1118, 1344, 4693, 68.94303
CTUN, 541, 0.00, 4.49, 4.550000, 0.00, 0, 3, 567, 0
ATT, 0.00, 0.60, 0.00, 0.09, 0.00, 61.60, 67.55
GPS, 3, 283624400, 10, 1.63, -33.7840595, 151.0682473, 4.53, 96.89, 0.09, 181.75
CTUN, 542, 0.00, 4.48, 4.550000, 0.00, 0, 3, 567, 0
ATT, 0.00, 0.50, 0.00, 0.25, 0.00, 61.80, 67.55
CTUN, 541, 0.00, 4.58, 4.550000, 0.00, 0, 3, 571, 0
GPS, 3, 283624600, 9, 1.69, -33.7840597, 151.0682471, 4.53, 96.86, 0.07, 181.75
ATT, 0.00, 0.49, 0.00, 0.48, 0.00, 62.02, 67.55
CTUN, 541, 0.00, 4.48, 4.550000, 0.00, 0, 3, 568, 0
ATT, 0.00, 0.49, 0.00, 0.56, 0.00, 62.18, 67.55
CTUN, 541, 0.00, 4.57, 4.550000, 0.00, 0, 2, 568, 0
GPS, 3, 283624800, 11, 1.57, -33.7840597, 151.0682468, 4.54, 96.83, 0.16, 181.75
ATT, 0.00, 0.32, 0.00, 0.47, 0.00, 62.47, 67.55
CTUN, 541, 0.00, 4.53, 4.550000, 0.00, 0, 2, 566, 0
ATT, 0.00, 0.31, 0.00, 0.51, 0.00, 62.69, 67.55
CTUN, 541, 0.00, 4.55, 4.550000, 0.00, 0, 0, 570, 0
GPS, 3, 283625000, 10, 1.63, -33.7840600, 151.0682465, 4.54, 96.80, 0.11, 181.75
CTUN, 541, 0.00, 4.60, 4.550000, 0.00, 0, 1, 569, 0
ATT, 0.00, 0.34, 0.00, 0.38, 0.00, 62.93, 67.55
PM, 0, 0, 50, 1, 1000, 10712, 10, 4
CTUN, 542, 0.00, 4.53, 4.550000, 0.00, 0, 0, 572, 0
ATT, 0.00, 0.45, 0.00, 0.26, 0.00, 63.08, 67.55
GPS, 3, 283625200, 11, 1.57, -33.7840606, 151.0682463, 4.55, 96.79, 0.15, 181.75
CTUN, 541, 0.00, 4.50, 4.550000, 0.00, 0, 0, 565, 0
ATT, 0.00, 0.48, 0.00, 0.14, 0.00, 63.23, 67.55
DU32, 7, 8569
CURR, 541, 104166, 1119, 1345, 4712, 72.65289
CTUN, 541, 0.00, 4.56, 4.550000, 0.00, 0, 0, 574, 0
ATT, 0.00, 0.48, 0.00, 0.04, 0.00, 63.37, 67.55
GPS, 3, 283625400, 11, 1.57, -33.7840612, 151.0682460, 4.54, 96.78, 0.21, 181.75
CTUN, 541, 0.00, 4.48, 4.550000, 0.00, 0, 0, 577, 0
ATT, 0.00, 0.16, 0.00, -0.27, 0.00, 63.48, 67.55
MODE, LOITER, 561
NTUN, 0.00, 0.00, 0.000000, 0.000000, 0.000000, 0.000000, -17.26068, -3.976392, 0.000000, 0.000000, 0.07, -0.40
CTUN, 541, 0.00, 4.59, 4.550000, 0.00, 0, 0, 577, 0
GPS, 3, 283625600, 11, 1.57, -33.7840617, 151.0682457, 4.54, 96.79, 0.26, 196.91
ATT, 0.00, 0.00, 0.00, -0.53, 0.00, 63.55, 67.55
NTUN, 0.00, 0.27, 1.852600, 1.558777, -12.13135, 0.261322, -17.56226, -3.163313, 53.35018, 43.78993, 0.00, 0.00
CTUN, 542, 0.00, 4.52, 4.550000, 0.00, 0, 0, 576, 0
NTUN, 0.02, 0.32, 3.700195, 2.975159, -7.154475, 2.975159, -16.62581, -1.558673, 58.76872, 31.13836, -1.65, -3.67
ATT, 0.00, -0.17, 0.00, -1.29, 0.00, 63.42, 67.55
CTUN, 542, 0.00, 4.58, 4.550000, 0.00, 0, 0, 578, 0
GPS, 3, 283625800, 11, 1.57, -33.7840623, 151.0682455, 4.54, 96.77, 0.22, 196.91
NTUN, 0.04, 0.33, 5.749817, 4.127838, -2.146278, 4.127838, -13.95838, 1.159399, 63.58785, 14.64323, -2.93, -2.43
CTUN, 541, 0.00, 4.55, 4.550000, 0.00, 0, 0, 575, 0
ATT, 0.00, -1.78, 0.00, -3.25, 0.00, 63.26, 67.55
NTUN, 0.07, 0.31, 7.866592, 4.966522, 2.854375, 4.966522, -10.70814, 4.369009, 65.51141, 9.303802, -3.16, -2.21
CTUN, 541, 0.00, 4.52, 4.550000, 0.00, 0, 1, 572, 0
GPS, 3, 283626000, 11, 1.57, -33.7840630, 151.0682452, 4.55, 96.71, 0.26, 193.54
CTUN, 542, 0.00, 4.49, 4.550000, 0.00, 0, 0, 571, 0
NTUN, 0.11, 0.27, 10.03162, 5.534668, 7.717693, 5.534668, -5.977478, 6.987717, 66.12442, 5.738846, -3.28, -2.05
ATT, 0.00, -1.78, 0.00, -2.38, 0.00, 62.86, 67.55
GPS, 3, 283626200, 11, 1.57, -33.7840632, 151.0682452, 4.54, 96.66, 0.15, 193.54
CTUN, 541, 0.00, 4.64, 4.550000, 0.00, 0, 0, 584, 0
NTUN, 0.11, 0.27, 12.18658, 5.904816, 12.18658, 5.904816, -1.718591, 9.466430, 63.68891, 1.701477, -3.25, -1.78
ATT, 0.00, -2.11, 0.00, -2.15, 0.00, 62.71, 67.55
CTUN, 543, 0.00, 4.67, 4.550000, 0.00, 0, 0, 580, 0
NTUN, 0.15, 0.22, 13.83049, 6.008392, 13.83049, 6.008392, 1.238034, 10.25167, 34.43906, -1.964233, -1.83, -0.81
GPS, 3, 283626400, 11, 1.57, -33.7840631, 151.0682452, 4.55, 96.62, 0.05, 193.54
CTUN, 542, 0.00, 4.58, 4.550000, 0.00, 0, 0, 571, 0
ATT, 0.00, -1.19, 0.00, -1.00, 0.00, 62.54, 67.55
DU32, 7, 8569
CURR, 542, 108779, 1114, 1357, 4732, 76.83601
NTUN, 0.16, 0.20, 15.60567, 5.785767, 15.60567, 5.785767, 3.863360, 10.52065, 22.45801, -5.491971, -1.54, -0.48
CTUN, 541, 0.00, 4.53, 4.550000, 0.00, 0, 0, 569, 0
NTUN, 0.16, 0.20, 15.88356, 5.671173, 15.88356, 5.671173, 4.394483, 10.20256, 18.75142, -5.134589, -1.31, -0.32
ATT, 0.00, -0.71, 0.00, -0.01, 0.00, 62.43, 67.55
GPS, 3, 283626600, 11, 1.57, -33.7840630, 151.0682453, 4.56, 96.58, 0.06, 193.54
CTUN, 541, 0.00, 4.53, 4.550000, 0.00, 0, 0, 570, 0
NTUN, 0.16, 0.19, 16.02501, 5.618683, 16.02501, 5.618683, 4.211257, 7.955869, 19.42878, -2.530204, -1.07, -0.39
CTUN, 541, 0.00, 4.55, 4.550000, 0.00, 0, 0, 575, 0
ATT, 0.00, -0.57, 0.00, 0.26, 0.00, 62.51, 67.55
GPS, 3, 283626800, 11, 1.57, -33.7840626, 151.0682455, 4.55, 96.53, 0.10, 193.54
NTUN, 0.16, 0.19, 16.08977, 5.666351, 16.08977, 5.666351, 3.226006, 5.728179, 19.64117, -0.528035, -1.03, -0.50
CTUN, 541, 0.00, 4.60, 4.550000, 0.00, 0, 0, 579, 0
NTUN, 0.16, 0.20, 15.93167, 5.785187, 15.93167, 5.785187, 3.305564, 4.463946, 17.40307, 1.200358, -0.87, -0.52
ATT, 0.00, -0.69, 0.00, 0.22, 0.00, 62.71, 67.55
CTUN, 541, 0.00, 4.54, 4.550000, 0.00, 0, 0, 580, 0
GPS, 3, 283627000, 10, 1.63, -33.7840623, 151.0682456, 4.55, 96.53, 0.01, 193.54
CTUN, 541, 0.00, 4.49, 4.550000, 0.00, 0, 0, 582, 0
NTUN, 0.16, 0.21, 15.53355, 5.941193, 15.53355, 5.941193, 2.917586, 2.536510, 16.01883, 3.560059, -0.73, -0.61
ATT, 0.00, -0.81, 0.00, 0.17, 0.00, 63.08, 67.55
CTUN, 541, 0.00, 4.51, 4.550000, 0.00, 0, -1, 578, 0
NTUN, 0.16, 0.23, 15.00093, 6.214752, 15.00093, 6.214752, 3.266593, 1.360868, 14.67377, 5.735596, -0.61, -0.68
GPS, 3, 283627200, 10, 1.63, -33.7840624, 151.0682457, 4.55, 96.52, 0.02, 193.54
ATT, 0.00, -0.72, 0.00, -0.06, 0.00, 63.40, 67.55
CTUN, 540, 0.00, 4.50, 4.550000, 0.00, 0, -1, 581, 0
NTUN, 0.15, 0.27, 13.67714, 6.972931, 13.67714, 6.972931, 3.537303, 0.037510, 12.58191, 10.24749, -0.39, -0.86
CTUN, 542, 0.00, 4.64, 4.550000, 0.00, 0, -1, 582, 0
NTUN, 0.15, 0.27, 13.24730, 7.349304, 13.24730, 7.349304, 4.058742, -0.610663, 14.74416, 10.72647, -0.49, -0.94
ATT, 0.00, -0.77, 0.00, -0.36, 0.00, 63.79, 67.55
GPS, 3, 283627400, 11, 1.57, -33.7840621, 151.0682457, 4.54, 96.51, 0.03, 193.54
CTUN, 542, 0.00, 4.54, 4.550000, 0.00, 0, 0, 584, 0
NTUN, 0.15, 0.29, 12.60027, 7.752533, 12.60027, 7.752533, 5.071406, -1.397325, 10.46431, 13.07302, -0.21, -0.95
DU32, 7, 8569
CURR, 542, 112825, 1115, 1363, 4712, 80.98128
ATT, 0.00, -0.96, 0.00, -0.47, 0.00, 64.18, 67.55
GPS, 3, 283627600, 11, 1.57, -33.7840619, 151.0682458, 4.55, 96.52, 0.06, 193.54
NTUN, 0.14, 0.33, 11.73503, 8.178894, 11.73503, 8.178894, 6.106514, -1.418273, 8.347656, 14.26361, -0.07, -0.96
CTUN, 541, 0.00, 4.57, 4.550000, 0.00, 0, 0, 581, 0
ATT, 0.00, -0.74, 0.00, -0.64, 0.00, 64.65, 67.55
NTUN, 0.14, 0.37, 10.73030, 8.516968, 10.73030, 8.516968, 7.224709, -1.410804, 5.052176, 14.34726, 0.09, -0.88
CTUN, 540, 0.00, 4.58, 4.550000, 0.00, 0, 0, 582, 0
GPS, 3, 283627800, 11, 1.57, -33.7840618, 151.0682458, 4.55, 96.54, 0.06, 193.54
ATT, 0.00, -0.63, 0.00, -0.65, 0.00, 65.06, 67.55
NTUN, 0.12, 0.42, 9.585098, 8.731384, 9.585098, 8.731384, 8.212094, -1.321042, 0.432296, 14.16582, 0.32, -0.76
CTUN, 540, 0.00, 4.54, 4.550000, 0.00, 0, 0, 586, 0
NTUN, 0.12, 0.46, 8.414444, 8.928436, 8.414444, 8.928436, 8.128176, -0.760945, -0.824791, 12.99042, 0.36, -0.66
CTUN, 542, 0.00, 4.46, 4.550000, 0.00, 0, 0, 584, 0
ATT, 0.00, -0.26, 0.00, -0.43, 0.00, 65.32, 67.55
GPS, 3, 283628000, 11, 1.57, -33.7840616, 151.0682459, 4.55, 96.56, 0.07, 193.54
CTUN, 542, 0.00, 4.51, 4.550000, 0.00, 0, 0, 584, 0
NTUN, 0.11, 0.51, 6.129471, 9.091064, 6.129471, 9.091064, 7.715693, -0.641758, -1.522544, 12.53113, 0.41, -0.71
ATT, 0.00, -0.03, 0.00, -0.22, 0.00, 65.51, 67.55
CTUN, 541, 0.00, 4.61, 4.550000, 0.00, 0, 0, 586, 0
NTUN, 0.10, 0.57, 5.029953, 9.020874, 5.029953, 9.020874, 7.815292, -0.551156, -1.995178, 12.29810, 0.38, -0.62
GPS, 3, 283628200, 11, 1.57, -33.7840615, 151.0682459, 4.54, 96.57, 0.09, 193.54
CTUN, 541, 0.00, 4.48, 4.550000, 0.00, 0, 0, 585, 0
NTUN, 0.10, 0.64, 4.022232, 8.964539, 4.022232, 8.964539, 7.111814, -0.520731, -2.077209, 12.43665, 0.41, -0.61
ATT, 0.00, -0.08, 0.00, -0.40, 0.00, 65.59, 67.55
NTUN, 0.09, 0.69, 3.136154, 8.887573, 3.136154, 8.887573, 6.867620, -0.249965, -1.860779, 13.23035, 0.41, -0.65
CTUN, 541, 0.00, 4.51, 4.550000, 0.00, 0, 0, 586, 0
GPS, 3, 283628400, 11, 1.57, -33.7840613, 151.0682459, 4.54, 96.58, 0.10, 193.54
ATT, 0.00, -0.19, 0.00, -0.39, 0.00, 65.56, 67.55
CTUN, 541, 0.00, 4.59, 4.550000, 0.00, 0, 1, 582, 0
NTUN, 0.09, 0.74, 2.247360, 8.799713, 2.247360, 8.799713, 6.715485, 0.174677, -2.977716, 12.11252, 0.45, -0.57
CTUN, 541, 0.00, 4.47, 4.550000, 0.00, 0, 1, 585, 0
ATT, 0.00, -0.24, 0.00, -0.43, 0.00, 65.46, 67.55
GPS, 3, 283628600, 11, 1.57, -33.7840612, 151.0682459, 4.54, 96.56, 0.10, 193.54
NTUN, 0.09, 0.80, 1.354675, 8.696167, 1.354675, 8.696167, 6.787982, -0.384212, -3.926849, 12.96454, 0.52, -0.59
CTUN, 542, 0.00, 4.63, 4.550000, 0.00, 0, 0, 589, 0
DU32, 7, 8569
CURR, 541, 117501, 1113, 1353, 4712, 85.67129
NTUN, 0.08, 0.88, 0.486007, 8.634094, 0.486007, 8.634094, 7.078512, 0.226880, -4.686676, 13.37927, 0.57, -0.59
CTUN, 541, 0.00, 4.49, 4.550000, 0.00, 0, 0, 584, 0
GPS, 3, 283628800, 11, 1.57, -33.7840610, 151.0682459, 4.55, 96.55, 0.08, 193.54
ATT, 0.00, -0.62, 0.00, -0.72, 0.00, 65.09, 67.55
NTUN, 0.08, 0.94, -1.318253, 8.463531, -1.318253, 8.463531, 7.913707, 0.980650, -9.453046, 12.88898, 0.67, -0.55
CTUN, 541, 0.00, 4.57, 4.550000, 0.00, 0, 1, 586, 0
ATT, 0.00, -0.28, 0.00, -0.83, 0.00, 64.74, 67.55
NTUN, 0.08, 1.02, -2.393692, 8.279175, -2.393692, 8.279175, 9.068307, 1.563556, -13.75439, 11.15643, 0.81, -0.44
CTUN, 541, 0.00, 4.56, 4.550000, 0.00, 0, 1, 586, 0
GPS, 3, 283629000, 11, 1.57, -33.7840609, 151.0682458, 4.55, 96.55, 0.09, 193.54
NTUN, 0.08, 1.13, -3.479462, 8.122345, -3.479462, 8.122345, 9.195548, 2.639497, -15.96737, 11.41586, 1.12, -0.19
CTUN, 542, 0.00, 4.55, 4.550000, 0.00, 0, 0, 583, 0
ATT, 0.00, 0.13, 0.00, -0.83, 0.00, 64.37, 67.55
NTUN, 0.08, 1.13, -4.537003, 7.929413, -4.537003, 7.929413, 9.146823, 3.251254, -16.57541, 9.070679, 1.10, -0.05
CTUN, 541, 0.00, 4.56, 4.550000, 0.00, 0, 0, 580, 0
GPS, 3, 283629200, 11, 1.57, -33.7840609, 151.0682457, 4.55, 96.57, 0.07, 193.54
ATT, 0.00, 0.39, 0.00, -0.58, 0.00, 64.27, 67.55
CTUN, 541, 0.00, 4.48, 4.550000, 0.00, 0, 0, 588, 0
NTUN, 0.09, 1.26, -5.435760, 7.723267, -5.435760, 7.723267, 8.333454, 3.805872, -15.98758, 8.938538, 1.06, -0.06
ATT, 0.00, 0.31, 0.00, -0.35, 0.00, 64.34, 67.55
CTUN, 541, 0.00, 4.55, 4.550000, 0.00, 0, 0, 590, 0
GPS, 3, 283629400, 11, 1.57, -33.7840610, 151.0682456, 4.55, 96.57, 0.09, 193.54
NTUN, 0.09, 1.30, -6.126251, 7.541656, -6.126251, 7.541656, 6.889887, 4.660529, -13.97465, 9.165554, 0.96, -0.12
CTUN, 541, 0.00, 4.46, 4.550000, 0.00, 0, 0, 588, 0
ATT, 0.00, 0.28, 0.00, -0.49, 0.00, 64.44, 67.55
NTUN, 0.09, 1.32, -6.567902, 7.384857, -6.567902, 7.384857, 6.248428, 4.676273, -12.37278, 8.447532, 0.86, -0.13
CTUN, 541, 0.00, 4.54, 4.550000, 0.00, 0, 0, 588, 0
GPS, 3, 283629600, 11, 1.57, -33.7840610, 151.0682454, 4.54, 96.58, 0.11, 193.54
NTUN, 0.09, 1.33, -6.856247, 7.267883, -6.856247, 7.267883, 5.405176, 4.791873, -10.02042, 8.907166, 0.75, -0.21
CTUN, 541, 0.00, 4.57, 4.550000, 0.00, 0, 1, 584, 0
ATT, 0.00, 0.03, 0.00, -0.28, 0.00, 64.53, 67.55
DU32, 7, 8569
CURR, 541, 121028, 1112, 1374, 4752, 89.15762
NTUN, 0.09, 1.33, -6.856369, 7.408905, -6.856369, 7.408905, 5.108236, 4.245894, -8.871755, 9.922318, 0.71, -0.30
CTUN, 541, 0.00, 4.63, 4.550000, 0.00, 0, 1, 583, 0
GPS, 3, 283629800, 11, 1.57, -33.7840609, 151.0682452, 4.54, 96.59, 0.13, 193.54
ATT, 0.00, 0.04, 0.00, -0.32, 0.00, 64.45, 67.55
NTUN, 0.10, 1.32, -6.909439, 7.692902, -6.909439, 7.692902, 4.864474, 3.697607, -8.530701, 13.83997, 0.79, -0.51
CTUN, 541, 0.00, 4.71, 4.550000, 0.00, 0, 1, 587, 0
NTUN, 0.10, 1.31, -6.978195, 8.097870, -6.978195, 8.097870, 4.410291, 3.991264, -9.694506, 17.09059, 0.94, -0.65
ATT, 0.00, 0.09, 0.00, -0.58, 0.00, 64.35, 67.55
CTUN, 541, 0.00, 4.55, 4.550000, 0.00, 0, 2, 575, 0
GPS, 3, 283630000, 11, 1.57, -33.7840607, 151.0682450, 4.56, 96.60, 0.10, 193.54
CTUN, 541, 0.00, 4.62, 4.550000, 0.00, 0, 1, 577, 0
NTUN, 0.10, 1.30, -7.146286, 8.557709, -7.146286, 8.557709, 4.734765, 3.923484, -10.66427, 17.55286, 1.00, -0.65
ATT, 0.00, 0.17, 0.00, -0.75, 0.00, 64.24, 67.55
CTUN, 542, 0.00, 4.65, 4.550000, 0.00, 0, 1, 576, 0
NTUN, 0.11, 1.29, -7.450333, 9.084778, -7.450333, 9.084778, 4.095055, 4.013575, -13.07118, 19.32393, 1.17, -0.68
GPS, 3, 283630200, 11, 1.57, -33.7840606, 151.0682448, 4.56, 96.60, 0.07, 193.54
CTUN, 541, 0.00, 4.50, 4.550000, 0.00, 0, 0, 572, 0
ATT, 0.00, 0.56, 0.00, -0.87, 0.00, 64.06, 67.55
NTUN, 0.12, 1.28, -7.750168, 9.655457, -7.750168, 9.655457, 3.953341, 5.049264, -14.02864, 19.76443, 1.24, -0.68
GPS, 3, 283630400, 11, 1.57, -33.7840604, 151.0682446, 4.57, 96.60, 0.05, 193.54
CTUN, 541, 0.00, 4.68, 4.550000, 0.00, 0, 0, 570, 0
NTUN, 0.12, 1.28, -8.043045, 10.18240, -8.043045, 10.18240, 2.689343, 5.914247, -13.89977, 18.21730, 1.19, -0.60
ATT, 0.00, 0.86, 0.00, -0.76, 0.00, 63.96, 67.55
CTUN, 541, 0.00, 4.57, 4.550000, 0.00, 0, -2, 581, 0
NTUN, 0.12, 1.28, -8.341873, 10.67068, -8.341873, 10.67068, 1.597959, 6.387973, -13.98828, 18.88281, 1.21, -0.63
GPS, 3, 283630600, 11, 1.57, -33.7840602, 151.0682445, 4.57, 96.60, 0.07, 193.54
CTUN, 541, 0.00, 4.62, 4.550000, 0.00, 0, -3, 579, 0
ATT, 0.00, 0.91, 0.00, -0.72, 0.00, 63.94, 67.55
NTUN, 0.14, 1.27, -8.924545, 11.54208, -8.924545, 11.54208, -0.049592, 7.770348, -11.62950, 16.97454, 1.17, -0.64
CTUN, 541, 0.00, 4.67, 4.550000, 0.00, 0, -3, 579, 0
NTUN, 0.14, 1.27, -9.148209, 11.84827, -9.148209, 11.84827, -1.187783, 7.878923, -10.25923, 16.09276, 1.04, -0.59
ATT, 0.00, 1.00, 0.00, -0.49, 0.00, 63.98, 67.55
GPS, 3, 283630800, 11, 1.57, -33.7840601, 151.0682444, 4.57, 96.58, 0.04, 193.54
CTUN, 541, 0.00, 4.58, 4.550000, 0.00, 0, -3, 582, 0
NTUN, 0.14, 1.27, -9.287598, 12.12711, -9.287598, 12.12711, -2.703167, 8.592742, -8.407970, 15.81656, 0.84, -0.61
ATT, 0.00, 0.80, 0.00, -0.56, 0.00, 64.04, 67.55
DU32, 7, 8569
CURR, 541, 125664, 1116, 1350, 4712, 93.69865
CTUN, 542, 0.00, 4.63, 4.550000, 0.00, 0, -3, 581, 0
NTUN, 0.15, 1.27, -9.307877, 12.36707, -9.307877, 12.36707, -3.831075, 9.245930, -6.200781, 15.37584, 0.71, -0.64
GPS, 3, 283631000, 10, 1.68, -33.7840600, 151.0682444, 4.57, 96.57, 0.03, 193.54
CTUN, 542, 0.00, 4.63, 4.550000, 0.00, 0, -3, 583, 0
ATT, 0.00, 0.76, 0.00, -0.60, 0.00, 64.10, 67.55
NTUN, 0.15, 1.26, -9.258224, 12.49548, -9.258224, 12.49548, -5.033617, 9.957731, -5.503479, 14.28418, 0.65, -0.61
CTUN, 542, 0.00, 4.66, 4.550000, 0.00, 0, -2, 580, 0
GPS, 3, 283631200, 10, 1.68, -33.7840600, 151.0682443, 4.57, 96.57, 0.02, 193.54
NTUN, 0.15, 1.25, -9.177963, 12.53757, -9.177963, 12.53757, -6.149935, 10.55682, -5.189281, 13.42509, 0.61, -0.57
ATT, 0.00, 0.52, 0.00, -0.60, 0.00, 64.12, 67.55
CTUN, 541, 0.00, 4.56, 4.550000, 0.00, 0, -2, 580, 0
NTUN, 0.15, 1.25, -9.021072, 12.56500, -9.021072, 12.56500, -6.352451, 10.96141, -2.431091, 13.27435, 0.46, -0.63
ATT, 0.00, 0.54, 0.00, -0.60, 0.00, 64.09, 67.55
CTUN, 541, 0.00, 4.61, 4.550000, 0.00, 0, -1, 581, 0
GPS, 3, 283631400, 10, 1.68, -33.7840599, 151.0682443, 4.57, 96.56, 0.05, 193.54
NTUN, 0.15, 1.24, -8.621811, 12.58728, -8.621811, 12.58728, -6.883223, 11.22072, -1.288574, 11.88617, 0.40, -0.60
CTUN, 542, 0.00, 4.63, 4.550000, 0.00, 0, -1, 572, 0
ATT, 0.00, 0.39, 0.00, -0.62, 0.00, 64.09, 67.55
NTUN, 0.15, 1.24, -8.521255, 12.55154, -8.521255, 12.55154, -6.864846, 11.36051, -1.994446, 11.64264, 0.37, -0.59
GPS, 3, 283631600, 10, 1.68, -33.7840598, 151.0682443, 4.57, 96.55, 0.05, 193.54
CTUN, 541, 0.00, 4.64, 4.550000, 0.00, 0, -1, 582, 0
NTUN, 0.15, 1.24, -8.483078, 12.48724, -8.483078, 12.48724, -7.002224, 11.83241, -2.614369, 10.35050, 0.40, -0.47
ATT, 0.00, 0.28, 0.00, -0.71, 0.00, 64.04, 67.55
CTUN, 542, 0.00, 4.68, 4.550000, 0.00, 0, -2, 579, 0
GPS, 3, 283631800, 11, 1.57, -33.7840598, 151.0682443, 4.58, 96.53, 0.04, 193.54
NTUN, 0.15, 1.24, -8.518402, 12.40942, -8.518402, 12.40942, -6.733075, 12.09973, -3.349744, 10.22951, 0.43, -0.45
CTUN, 541, 0.00, 4.59, 4.550000, 0.00, 0, -3, 574, 0
ATT, 0.00, 0.46, 0.00, -0.65, 0.00, 63.99, 67.55
NTUN, 0.15, 1.24, -8.563583, 12.30426, -8.563583, 12.30426, -6.702919, 12.50010, -3.451813, 9.948364, 0.43, -0.43
CTUN, 541, 0.00, 4.63, 4.550000, 0.00, 0, -4, 585, 0
ATT, 0.00, 0.43, 0.00, -0.72, 0.00, 64.00, 67.55
GPS, 3, 283632000, 11, 1.57, -33.7840597, 151.0682443, 4.57, 96.52, 0.04, 193.54
NTUN, 0.14, 1.25, -8.603775, 12.16968, -8.603775, 12.16968, -6.709383, 13.12465, -3.405976, 9.640581, 0.42, -0.41
CTUN, 541, 0.00, 4.60, 4.550000, 0.00, 0, -4, 586, 0
DU32, 7, 8569
CURR, 541, 130312, 1112, 1360, 4712, 98.33394
NTUN, 0.14, 1.26, -8.705750, 11.97507, -8.705750, 11.97507, -6.195572, 13.76859, -5.019745, 8.053894, 0.46, -0.29
ATT, 0.00, 0.60, 0.00, -0.80, 0.00, 64.02, 67.55
CTUN, 541, 0.00, 4.54, 4.550000, 0.00, 0, -3, 582, 0
GPS, 3, 283632200, 11, 1.57, -33.7840596, 151.0682444, 4.57, 96.52, 0.07, 193.54
CTUN, 540, 0.00, 4.68, 4.550000, 0.00, 0, -3, 581, 0
NTUN, 0.14, 1.28, -9.174850, 11.45969, -9.174850, 11.45969, -6.160434, 14.26796, -7.001801, 6.726135, 0.53, -0.17
ATT, 0.00, 0.62, 0.00, -0.66, 0.00, 64.01, 67.55
NTUN, 0.14, 1.28, -9.508469, 11.07758, -9.508469, 11.07758, -5.941558, 14.70929, -8.716372, 6.090966, 0.61, -0.09
CTUN, 541, 0.00, 4.68, 4.550000, 0.00, 0, -3, 579, 0
GPS, 3, 283632400, 11, 1.57, -33.7840598, 151.0682445, 4.57, 96.50, 0.08, 193.54
NTUN, 0.14, 1.31, -9.677734, 10.64493, -9.677734, 10.64493, -6.323519, 14.71115, -7.709755, 2.629821, 0.47, 0.05
ATT, 0.00, 0.52, 0.00, -0.56, 0.00, 64.01, 67.55
CTUN, 541, 0.00, 4.68, 4.550000, 0.00, 0, -3, 587, 0
NTUN, 0.14, 1.32, -9.632706, 10.18625, -9.632706, 10.18625, -6.387879, 14.95490, -5.549713, 0.413208, 0.30, 0.12
CTUN, 541, 0.00, 4.62, 4.550000, 0.00, 0, -2, 581, 0
GPS, 3, 283632600, 11, 1.57, -33.7840599, 151.0682445, 4.58, 96.47, 0.13, 193.54
ATT, 0.00, 0.56, 0.00, -0.29, 0.00, 64.05, 67.55
NTUN, 0.14, 1.33, -9.490707, 9.781891, -9.490707, 9.781891, -6.824421, 14.29034, -3.580017, 0.956420, 0.21, 0.04
CTUN, 542, 0.00, 4.67, 4.550000, 0.00, 0, -2, 574, 0
ATT, 0.00, 0.41, 0.00, -0.09, 0.00, 64.16, 67.55
CTUN, 542, 0.00, 4.64, 4.550000, 0.00, 0, -2, 586, 0
NTUN, 0.13, 1.34, -9.249939, 9.470215, -9.249939, 9.470215, -7.642123, 13.80042, -1.592316, 2.883240, 0.15, -0.11
GPS, 3, 283632800, 11, 1.57, -33.7840599, 151.0682446, 4.58, 96.46, 0.10, 193.54
CTUN, 541, 0.00, 4.60, 4.550000, 0.00, 0, -2, 573, 0
NTUN, 0.12, 1.34, -8.971039, 9.196960, -8.971039, 9.196960, -7.820446, 13.25579, -0.182826, 2.239855, 0.06, -0.11
ATT, 0.00, 0.33, 0.00, -0.22, 0.00, 64.25, 67.55
CTUN, 541, 0.00, 4.66, 4.550000, 0.00, 0, -4, 579, 0
GPS, 3, 283633000, 11, 1.57, -33.7840597, 151.0682448, 4.58, 96.46, 0.11, 193.54
NTUN, 0.12, 1.34, -8.570267, 8.687622, -8.570267, 8.687622, -7.814552, 12.45773, -0.205828, 2.606032, 0.07, -0.13
ATT, 0.00, 0.22, 0.00, -0.19, 0.00, 64.33, 67.55
CTUN, 540, 0.00, 4.66, 4.550000, 0.00, 0, -4, 588, 0
DU32, 7, 8569
CURR, 541, 133806, 1109, 1346, 4712, 101.7383
NTUN, 0.12, 1.35, -8.614914, 8.433655, -8.614914, 8.433655, -7.614261, 11.86081, -1.802416, 3.297499, 0.17, -0.12
CTUN, 541, 0.00, 4.61, 4.550000, 0.00, 0, -4, 581, 0
GPS, 3, 283633200, 11, 1.57, -33.7840597, 151.0682449, 4.58, 96.45, 0.08, 193.54
NTUN, 0.12, 1.36, -8.695572, 8.197021, -8.695572, 8.197021, -7.369559, 11.48382, -4.806580, 3.633667, 0.32, -0.06
ATT, 0.00, 0.18, 0.00, -0.35, 0.00, 64.38, 67.55
CTUN, 541, 0.00, 4.71, 4.550000, 0.00, 0, -4, 579, 0
NTUN, 0.11, 1.37, -8.798096, 7.989868, -8.798096, 7.989868, -6.921646, 10.87915, -5.025238, 4.928467, 0.34, -0.06
GPS, 3, 283633400, 11, 1.57, -33.7840596, 151.0682450, 4.58, 96.45, 0.08, 193.54
ATT, 0.00, 0.44, 0.00, -0.18, 0.00, 64.41, 67.55
CTUN, 541, 0.00, 4.68, 4.550000, 0.00, 0, -4, 589, 0
NTUN, 0.11, 1.38, -8.964294, 7.791321, -8.964294, 7.791321, -7.365897, 10.77997, -5.678775, 3.994471, 0.40, -0.06
CTUN, 542, 0.00, 4.70, 4.550000, 0.00, 0, -4, 585, 0
ATT, 0.00, 0.55, 0.00, -0.24, 0.00, 64.52, 67.55
NTUN, 0.11, 1.40, -9.162109, 7.581696, -9.162109, 7.581696, -7.464684, 10.48713, -6.958564, 3.924503, 0.46, -0.03
GPS, 3, 283633600, 11, 1.57, -33.7840598, 151.0682450, 4.58, 96.43, 0.14, 193.54
CTUN, 542, 0.00, 4.55, 4.550000, 0.00, 0, -3, 586, 0
NTUN, 0.11, 1.41, -9.191864, 7.427277, -9.191864, 7.427277, -8.368676, 10.15619, -5.300552, 3.440213, 0.36, -0.04
ATT, 0.00, 0.67, 0.00, -0.11, 0.00, 64.66, 67.55
CTUN, 542, 0.00, 4.51, 4.550000, 0.00, 0, -4, 588, 0
GPS, 3, 283633800, 11, 1.57, -33.7840601, 151.0682450, 4.58, 96.39, 0.13, 193.54
CTUN, 541, 0.00, 4.66, 4.550000, 0.00, 0, -4, 591, 0
NTUN, 0.11, 1.39, -8.541641, 7.281128, -8.541641, 7.281128, -8.889748, 9.653397, -1.913818, 5.007263, 0.22, -0.21
ATT, 0.00, 0.53, 0.00, -0.07, 0.00, 64.90, 67.55
CTUN, 542, 0.00, 4.52, 4.550000, 0.00, 0, -3, 586, 0
NTUN, 0.11, 1.37, -7.884644, 7.290924, -7.884644, 7.290924, -9.441557, 9.266567, 0.416046, 5.531250, 0.11, -0.30
GPS, 3, 283634000, 11, 1.57, -33.7840604, 151.0682449, 4.57, 96.35, 0.11, 193.54
CTUN, 541, 0.00, 4.57, 4.550000, 0.00, 0, -3, 594, 0
NTUN, 0.11, 1.37, -7.061142, 7.424957, -7.061142, 7.424957, -9.824882, 8.900970, 7.318198, 8.353870, -0.18, -0.62
ATT, 0.00, 0.31, 0.00, -0.08, 0.00, 65.02, 67.55
CTUN, 541, 0.00, 4.49, 4.550000, 0.00, 0, -2, 595, 0
DU32, 7, 8569
CURR, 541, 137914, 1108, 1367, 4732, 106.0110
NTUN, 0.10, 1.32, -6.088654, 7.659393, -6.088654, 7.659393, -9.901455, 7.842509, 9.628597, 10.32115, -0.25, -0.78
GPS, 3, 283634200, 11, 1.57, -33.7840605, 151.0682449, 4.56, 96.32, 0.12, 193.54
ATT, 0.00, 0.10, 0.00, -0.24, 0.00, 65.11, 67.55
CTUN, 542, 0.00, 4.66, 4.550000, 0.00, 0, -1, 588, 0
NTUN, 0.09, 1.26, -5.165482, 7.935120, -5.165482, 7.935120, -9.479444, 7.019985, 10.32497, 10.78511, -0.28, -0.82
CTUN, 541, 0.00, 4.64, 4.550000, 0.00, 0, -1, 592, 0
ATT, 0.00, -0.11, 0.00, -0.39, 0.00, 65.21, 67.55
NTUN, 0.09, 1.20, -4.318451, 8.253326, -4.318451, 8.253326, -8.841952, 6.775998, 10.47031, 12.18207, -0.25, -0.90
GPS, 3, 283634400, 11, 1.57, -33.7840608, 151.0682447, 4.56, 96.28, 0.17, 193.54
CTUN, 542, 0.00, 4.52, 4.550000, 0.00, 0, 0, 588, 0
NTUN, 0.09, 1.13, -3.422897, 8.696564, -3.422897, 8.696564, -7.576046, 6.216901, 9.955536, 14.43237, -0.17, -1.00
ATT, 0.00, -0.27, 0.00, -0.60, 0.00, 65.32, 67.55
CTUN, 541, 0.00, 4.62, 4.550000, 0.00, 0, -1, 589, 0
GPS, 3, 283634600, 11, 1.57, -33.7840610, 151.0682446, 4.57, 96.25, 0.12, 193.54
NTUN, 0.09, 1.01, -2.550827, 9.274811, -2.550827, 9.274811, -5.822795, 5.512155, 10.72070, 16.78247, -0.16, -1.15
CTUN, 540, 0.00, 4.55, 4.550000, 0.00, 0, 0, 584, 0
ATT, 0.00, -0.54, 0.00, -0.83, 0.00, 65.51, 67.55
NTUN, 0.10, 0.97, -1.797363, 9.890778, -1.797363, 9.890778, -4.175737, 5.117265, 8.610744, 18.22189, -0.01, -1.17
CTUN, 541, 0.00, 4.66, 4.550000, 0.00, 0, -1, 589, 0
GPS, 3, 283634800, 11, 1.57, -33.7840610, 151.0682446, 4.56, 96.23, 0.08, 193.54
NTUN, 0.10, 0.97, -0.832962, 11.14594, -0.832962, 11.14594, -2.468663, 5.286283, 2.674164, 19.95062, 0.33, -1.12
ATT, 0.00, -0.37, 0.00, -0.95, 0.00, 65.73, 67.55
CTUN, 541, 0.00, 4.59, 4.550000, 0.00, 0, -2, 588, 0
NTUN, 0.11, 0.93, -0.690689, 11.65558, -0.690689, 11.65558, -0.710845, 5.423254, -0.562899, 20.14791, 0.51, -1.06
CTUN, 541, 0.00, 4.57, 4.550000, 0.00, 0, -1, 577, 0
ATT, 0.00, -0.11, 0.00, -0.99, 0.00, 65.82, 67.55
GPS, 3, 283635000, 11, 1.57, -33.7840612, 151.0682445, 4.57, 96.20, 0.06, 193.54
NTUN, 0.11, 0.93, -0.610687, 12.12686, -0.610687, 12.12686, 0.705214, 5.714854, -1.207903, 20.66617, 0.55, -1.07
CTUN, 541, 0.00, 4.64, 4.550000, 0.00, 0, 0, 583, 0
PM, 0, 0, 50, 1, 1005, 10688, 10, 4
ATT, 0.00, 0.22, 0.00, -0.86, 0.00, 65.88, 67.55
CTUN, 541, 0.00, 4.64, 4.550000, 0.00, 0, -2, 589, 0
NTUN, 0.12, 0.92, -0.549560, 12.58850, -0.549560, 12.58850, 1.049310, 5.888933, -2.382558, 21.66302, 0.64, -1.09
GPS, 3, 283635200, 11, 1.57, -33.7840612, 151.0682445, 4.57, 96.19, 0.03, 193.54
CTUN, 542, 0.00, 4.74, 4.550000, 0.00, 0, -2, 586, 0
DU32, 7, 8569
CURR, 542, 142017, 1109, 1367, 4732, 110.2275
NTUN, 0.12, 0.92, -0.546981, 12.98062, -0.546981, 12.98062, 1.516242, 6.301939, -2.974213, 19.92120, 0.63, -0.99
ATT, 0.00, 0.43, 0.00, -0.83, 0.00, 65.82, 67.55
CTUN, 541, 0.00, 4.56, 4.550000, 0.00, 0, -1, 579, 0
GPS, 3, 283635400, 11, 1.57, -33.7840611, 151.0682445, 4.57, 96.18, 0.06, 193.54
NTUN, 0.12, 0.92, -0.607879, 13.26422, -0.607879, 13.26422, 1.815932, 6.432738, -4.608978, 19.83600, 0.72, -0.94
CTUN, 541, 0.00, 4.58, 4.550000, 0.00, 0, -1, 576, 0
ATT, 0.00, 0.54, 0.00, -0.70, 0.00, 65.66, 67.55
NTUN, 0.13, 0.93, -0.761947, 13.48654, -0.761947, 13.48654, 1.608348, 6.124048, -5.540680, 20.22321, 0.78, -0.94
CTUN, 541, 0.00, 4.60, 4.550000, 0.00, 0, -1, 592, 0
GPS, 3, 283635600, 11, 1.57, -33.7840611, 151.0682446, 4.57, 96.17, 0.07, 193.54
NTUN, 0.13, 0.93, -1.109146, 13.80872, -1.109146, 13.80872, 0.896770, 6.534669, -7.019401, 20.03111, 0.85, -0.89
ATT, 0.00, 0.55, 0.00, -0.73, 0.00, 65.46, 67.55
CTUN, 542, 0.00, 4.53, 4.550000, 0.00, 0, -3, 583, 0
NTUN, 0.13, 0.94, -1.193588, 13.84152, -1.193588, 13.84152, 1.001911, 6.544230, -6.458196, 20.19895, 0.83, -0.91
CTUN, 541, 0.00, 4.58, 4.550000, 0.00, 0, -2, 580, 0
GPS, 3, 283635800, 11, 1.57, -33.7840609, 151.0682446, 4.57, 96.16, 0.08, 193.54
ATT, 0.00, 0.65, 0.00, -0.62, 0.00, 65.24, 67.55
NTUN, 0.13, 0.95, -1.385468, 13.86008, -1.385468, 13.86008, 0.704780, 6.345333, -5.918793, 19.18555, 0.78, -0.87
CTUN, 541, 0.00, 4.64, 4.550000, 0.00, 0, -3, 598, 0
ATT, 0.00, 0.59, 0.00, -0.61, 0.00, 65.11, 67.55
NTUN, 0.13, 0.96, -1.662811, 13.87497, -1.662811, 13.87497, 0.572637, 6.427870, -7.745977, 20.14745, 0.90, -0.87
CTUN, 541, 0.00, 4.61, 4.550000, 0.00, 0, -4, 582, 0
GPS, 3, 283636000, 11, 1.57, -33.7840609, 151.0682446, 4.56, 96.13, 0.09, 193.54
CTUN, 542, 0.00, 4.66, 4.550000, 0.00, 0, -2, 595, 0
NTUN, 0.14, 0.97, -1.891174, 13.89636, -1.891174, 13.89636, -0.262111, 6.501345, -6.306697, 20.21609, 0.83, -0.91
ATT, 0.00, 0.53, 0.00, -0.66, 0.00, 64.83, 67.55
GPS, 3, 283636200, 11, 1.57, -33.7840608, 151.0682446, 4.57, 96.15, 0.07, 193.54
CTUN, 542, 0.00, 4.62, 4.550000, 0.00, 0, -1, 578, 0
NTUN, 0.14, 0.98, -2.175903, 13.85876, -2.175903, 13.85876, -0.435594, 7.107514, -5.337687, 20.01757, 0.78, -0.92
DU32, 7, 8569
CURR, 541, 145529, 1106, 1381, 4712, 113.7905
ATT, 0.00, 0.56, 0.00, -0.69, 0.00, 64.62, 67.55
CTUN, 541, 0.00, 4.68, 4.550000, 0.00, 0, -1, 589, 0
NTUN, 0.14, 0.99, -2.351334, 13.81833, -2.351334, 13.81833, -0.869476, 7.089385, -5.507901, 19.61052, 0.78, -0.89
GPS, 3, 283636400, 11, 1.57, -33.7840606, 151.0682447, 4.58, 96.19, 0.06, 193.54
CTUN, 541, 0.00, 4.56, 4.550000, 0.00, 0, 0, 577, 0
NTUN, 0.13, 1.00, -2.644135, 13.70645, -2.644135, 13.70645, -0.645890, 7.476845, -6.957585, 18.86992, 0.84, -0.82
ATT, 0.00, 0.50, 0.00, -0.76, 0.00, 64.53, 67.55
CTUN, 541, 0.00, 4.68, 4.550000, 0.00, 0, -2, 588, 0
NTUN, 0.13, 1.00, -3.046280, 13.53506, -3.046280, 13.53506, -0.371443, 7.352970, -8.981637, 19.30310, 0.95, -0.79
GPS, 3, 283636600, 10, 1.63, -33.7840607, 151.0682448, 4.58, 96.17, 0.07, 193.54
ATT, 0.00, 0.46, 0.00, -0.85, 0.00, 64.57, 67.55
CTUN, 539, 0.00, 4.60, 4.550000, 0.00, 0, -3, 579, 0
NTUN, 0.13, 1.03, -3.367355, 13.27545, -3.367355, 13.27545, 0.084253, 7.958922, -9.210754, 17.40387, 0.92, -0.68
CTUN, 540, 0.00, 4.64, 4.550000, 0.00, 0, -3, 584, 0
NTUN, 0.13, 1.04, -3.601486, 12.93634, -3.601486, 12.93634, 0.255112, 8.609122, -9.364958, 15.57463, 0.88, -0.58
ATT, 0.00, 0.39, 0.00, -0.84, 0.00, 64.72, 67.55
GPS, 3, 283636800, 11, 1.57, -33.7840609, 151.0682449, 4.57, 96.16, 0.10, 193.54
CTUN, 542, 0.00, 4.57, 4.550000, 0.00, 0, -4, 582, 0
NTUN, 0.13, 1.06, -3.719635, 12.52188, -3.719635, 12.52188, 1.142335, 9.108038, -9.169790, 13.89644, 0.83, -0.50
ATT, 0.00, 0.41, 0.00, -0.83, 0.00, 64.89, 67.55
NTUN, 0.13, 1.06, -3.734436, 12.02457, -3.734436, 12.02457, 1.460811, 9.486672, -8.149506, 11.97662, 0.72, -0.43
CTUN, 542, 0.00, 4.66, 4.550000, 0.00, 0, -2, 598, 0
GPS, 3, 283637000, 10, 1.63, -33.7840608, 151.0682452, 4.57, 96.15, 0.12, 193.54
ATT, 0.00, 0.37, 0.00, -0.80, 0.00, 65.19, 67.55
CTUN, 540, 0.00, 4.66, 4.550000, 0.00, 0, -4, 588, 0
NTUN, 0.12, 1.08, -3.858047, 11.37918, -3.858047, 11.37918, 1.916247, 10.12993, -10.24860, 9.480952, 0.77, -0.25
GPS, 3, 283637200, 10, 1.72, -33.7840609, 151.0682454, 4.57, 96.16, 0.10, 193.54
ATT, 0.00, 0.38, 0.00, -0.58, 0.00, 65.39, 67.55
CTUN, 541, 0.00, 4.60, 4.550000, 0.00, 0, -1, 582, 0
NTUN, 0.11, 1.11, -4.100998, 10.58563, -4.100998, 10.58563, 2.541844, 10.63363, -12.40545, 7.143084, 0.83, -0.07
CTUN, 540, 0.00, 4.56, 4.550000, 0.00, 0, -3, 596, 0
NTUN, 0.10, 1.15, -4.317520, 9.722992, -4.317520, 9.722992, 2.701026, 10.13845, -13.16522, 6.373596, 0.85, -0.01
ATT, 0.00, 0.45, 0.00, -0.20, 0.00, 65.54, 67.55
GPS, 3, 283637400, 10, 1.72, -33.7840610, 151.0682456, 4.57, 96.17, 0.07, 193.54
CTUN, 541, 0.00, 4.59, 4.550000, 0.00, 0, -3, 592, 0
NTUN, 0.09, 1.18, -4.542892, 8.030731, -4.542892, 8.030731, 2.955853, 9.869466, -12.76217, 5.631094, 0.84, 0.04
DU32, 7, 8569
CURR, 540, 150224, 1109, 1386, 4732, 118.4894
