dump 7

ArduCopter V3.1-rc3.1
Free RAM: 1138
APM 2
FMT, 128, 89, FMT, BBnNZ, Type,Length,Name,Format
FMT, 129, 23, PARM, Nf, Name,Value
FMT, 130, 35, GPS, BIBcLLeeEe, Status,Time,NSats,HDop,Lat,Lng,RelAlt,Alt,Spd,GCrs
FMT, 131, 27, IMU, ffffff, GyrX,GyrY,GyrZ,AccX,AccY,AccZ
FMT, 132, 67, MSG, Z, Message
FMT, 9, 19, CURR, hIhhhf, Thr,ThrInt,Volt,Curr,Vcc,CurrTot
FMT, 11, 11, MOT, hhhh, Mot1,Mot2,Mot3,Mot4
FMT, 12, 28, OF, hhBccffee, Dx,Dy,SQual,X,Y,Lat,Lng,Roll,Pitch
FMT, 5, 49, NTUN, Ecffffffffee, WPDst,WPBrg,PErX,PErY,DVelX,DVelY,VelX,VelY,DAcX,DAcY,DRol,DPit
FMT, 4, 25, CTUN, hcefchhhh, ThrIn,SonAlt,BarAlt,WPAlt,DesSonAlt,AngBst,CRate,ThrOut,DCRate
FMT, 15, 21, MAG, hhhhhhhhh, MagX,MagY,MagZ,OfsX,OfsY,OfsZ,MOfsX,MOfsY,MOfsZ
FMT, 6, 17, PM, BBBHHIhB, RenCnt,RenBlw,FixCnt,NLon,NLoop,MaxT,PMT,I2CErr
FMT, 8, 20, CMD, BBBBBeLL, CTot,CNum,CId,COpt,Prm1,Alt,Lat,Lng
FMT, 1, 17, ATT, cccccCC, RollIn,Roll,PitchIn,Pitch,YawIn,Yaw,NavYaw
FMT, 17, 37, INAV, cccfffiiff, BAlt,IAlt,IClb,ACorrX,ACorrY,ACorrZ,GLat,GLng,ILat,ILng
FMT, 3, 6, MODE, Mh, Mode,ThrCrs
FMT, 10, 3, STRT, , 
FMT, 13, 4, EV, B, Id
FMT, 20, 6, D16, Bh, Id,Value
FMT, 21, 6, DU16, BH, Id,Value
FMT, 22, 8, D32, Bi, Id,Value
FMT, 23, 8, DU32, BI, Id,Value
FMT, 24, 8, DFLT, Bf, Id,Value
FMT, 14, 28, PID, Biiiiif, Id,Error,P,I,D,Out,Gain
FMT, 18, 25, CAM, ILLeccC, GPSTime,Lat,Lng,Alt,Roll,Pitch,Yaw
FMT, 19, 5, ERR, BB, Subsys,ECode
D32, 9, 5569
CMD, 6, 0, 16, 0, 0, 0.00, -33.7840893, 151.0682023
EV, 10
GPS, 3, 282785200, 10, 1.63, -33.7840891, 151.0682026, -0.05, 85.70, 0.01, 359.88
CTUN, 0, 0.00, 0.06, 0.000000, 0.00, 0, 0, 0, 0
ATT, 0.00, 0.67, 0.00, 0.92, 0.00, 55.75, 55.75
CTUN, 0, 0.00, 0.00, 0.000000, 0.00, 0, 0, 0, 0
GPS, 3, 282792600, 10, 1.63, -33.7840836, 151.0682018, -0.04, 85.37, 0.03, 359.88
ATT, 0.00, 0.92, 0.00, 0.59, 0.00, 55.65, 55.65
CTUN, 0, 0.00, -0.02, 0.000000, 0.00, 0, 0, 0, 0
ATT, 0.00, 0.94, 0.00, 0.60, 0.00, 55.64, 55.64
CTUN, 0, 0.00, 0.08, 0.000000, 0.00, 0, 1, 0, 0
GPS, 3, 282792800, 9, 1.81, -33.7840835, 151.0682017, -0.03, 85.36, 0.03, 359.88
ATT, 0.00, 0.92, 0.00, 0.63, 0.00, 55.71, 55.71
CTUN, 0, 0.00, -0.05, 0.000000, 0.00, 0, 1, 0, 0
ATT, 0.00, 0.93, 0.00, 0.65, 0.00, 55.65, 55.65
CTUN, 0, 0.00, -0.02, 0.000000, 0.00, 0, 0, 0, 0
GPS, 3, 282793000, 9, 1.81, -33.7840833, 151.0682015, -0.02, 85.35, 0.01, 359.88
ATT, 0.00, 0.93, 0.00, 0.67, 0.00, 55.65, 55.65
DU32, 7, 8793
CURR, 0, 0, 1222, 64, 4752, 0.112376
CTUN, 0, 0.00, -0.04, 0.000000, 0.00, 0, 0, 0, 0
ATT, 0.00, 0.91, 0.00, 0.68, 0.00, 55.68, 55.68
CTUN, 0, 0.00, -0.14, 0.000000, 0.00, 0, 0, 0, 0
GPS, 3, 282793200, 9, 1.81, -33.7840832, 151.0682014, -0.03, 85.33, 0.02, 359.88
ATT, 0.00, 0.92, 0.00, 0.68, 0.00, 55.64, 55.64
CTUN, 0, 0.00, -0.11, 0.000000, 0.00, 0, 0, 0, 0
ATT, 0.00, 0.91, 0.00, 0.71, 0.00, 55.65, 55.65
CTUN, 0, 0.00, -0.11, 0.000000, 0.00, 0, 0, 0, 0
GPS, 3, 282793400, 9, 1.81, -33.7840829, 151.0682014, -0.04, 85.32, 0.09, 359.88
ATT, 0.00, 0.91, 0.00, 0.72, 0.00, 55.66, 55.66
CTUN, 0, 0.00, -0.05, 0.000000, 0.00, 0, 0, 0, 0
ATT, 0.00, 0.89, 0.00, 0.70, 0.00, 55.64, 55.64
CTUN, 0, 0.00, -0.07, 0.000000, 0.00, 0, 0, 0, 0
GPS, 3, 282793600, 9, 1.81, -33.7840827, 151.0682013, -0.04, 85.30, 0.09, 359.88
ATT, 0.00, 0.86, 0.00, 0.70, 0.00, 55.64, 55.64
CTUN, 0, 0.00, -0.07, 0.000000, 0.00, 0, 0, 0, 0
ATT, 0.00, 0.86, 0.00, 0.71, 0.00, 55.64, 55.64
CTUN, 0, 0.00, -0.18, 0.000000, 0.00, 0, 0, 0, 0
GPS, 3, 282793800, 9, 1.81, -33.7840826, 151.0682013, -0.04, 85.28, 0.06, 359.88
ATT, 0.00, 0.86, 0.00, 0.73, 0.00, 55.64, 55.64
CTUN, 0, 0.00, -0.10, 0.000000, 0.00, 0, 0, 0, 0
ATT, 0.00, 0.87, 0.00, 0.74, 0.00, 55.63, 55.63
CTUN, 0, 0.00, -0.10, 0.000000, 0.00, 0, 0, 0, 0
GPS, 3, 282794000, 9, 1.81, -33.7840825, 151.0682012, -0.05, 85.27, 0.02, 359.88
ATT, 0.00, 0.88, 0.00, 0.75, 0.00, 55.63, 55.63
DU32, 7, 8793
CURR, 0, 0, 1218, 62, 4732, 0.286768
CTUN, 0, 0.00, -0.09, 0.000000, 0.00, 0, 0, 0, 0
ATT, 0.00, 0.88, 0.00, 0.79, 0.00, 55.64, 55.64
CTUN, 0, 0.00, -0.12, 0.000000, 0.00, 0, 0, 0, 0
GPS, 3, 282794200, 9, 1.81, -33.7840823, 151.0682011, -0.06, 85.25, 0.04, 359.88
ATT, 0.00, 0.89, 0.00, 0.83, 0.00, 55.63, 55.63
CTUN, 0, 0.00, 0.03, 0.000000, 0.00, 0, 0, 0, 0
ATT, 0.00, 0.88, 0.00, 0.83, 0.00, 55.62, 55.62
CTUN, 0, 0.00, -0.11, 0.000000, 0.00, 0, 0, 0, 0
GPS, 3, 282794400, 9, 1.81, -33.7840822, 151.0682010, -0.05, 85.24, 0.02, 359.88
ATT, 0.00, 0.86, 0.00, 0.83, 0.00, 55.64, 55.64
CTUN, 0, 0.00, -0.08, 0.000000, 0.00, 0, 0, 0, 0
ATT, 0.00, 0.86, 0.00, 0.85, 0.00, 55.63, 55.63
CTUN, 0, 0.00, -0.17, 0.000000, 0.00, 0, 0, 0, 0
GPS, 3, 282794600, 9, 1.81, -33.7840820, 151.0682010, -0.06, 85.23, 0.10, 359.88
ATT, 0.00, 0.86, 0.00, 0.87, 0.00, 55.63, 55.63
CTUN, 0, 0.00, -0.13, 0.000000, 0.00, 0, 0, 0, 0
ATT, 0.00, 0.84, 0.00, 0.86, 0.00, 55.65, 55.65
CTUN, 0, 0.00, -0.12, 0.000000, 0.00, 0, 0, 0, 0
GPS, 3, 282794800, 9, 1.81, -33.7840818, 151.0682009, -0.07, 85.21, 0.05, 359.88
ATT, 0.00, 0.83, 0.00, 0.85, 0.00, 55.64, 55.64
CTUN, 0, 0.00, -0.15, 0.000000, 0.00, 0, 0, 0, 0
ATT, 0.00, 0.84, 0.00, 0.88, 0.00, 55.64, 55.64
CTUN, 0, 0.00, -0.11, 0.000000, 0.00, 0, 0, 0, 0
GPS, 3, 282795000, 9, 1.81, -33.7840816, 151.0682009, -0.08, 85.20, 0.03, 359.88
ATT, 0.00, 0.84, 0.00, 0.90, 0.00, 55.65, 55.65
DU32, 7, 8793
CURR, 0, 0, 1219, 61, 4793, 0.462785
CTUN, 0, 0.00, -0.06, 0.000000, 0.00, 0, 0, 0, 0
ATT, 0.00, 0.84, 0.00, 0.92, 0.00, 55.65, 55.65
CTUN, 0, 0.00, -0.13, 0.000000, 0.00, 0, 0, 0, 0
GPS, 3, 282795200, 9, 1.81, -33.7840816, 151.0682007, -0.08, 85.20, 0.03, 359.88
ATT, 0.00, 0.85, 0.00, 0.94, 0.00, 55.65, 55.65
CTUN, 0, 0.00, -0.17, 0.000000, 0.00, 0, 0, 0, 0
ATT, 0.00, 0.85, 0.00, 0.97, 0.00, 55.65, 55.65
CTUN, 0, 0.00, -0.20, 0.000000, 0.00, 0, 0, 0, 0
GPS, 3, 282795400, 9, 1.81, -33.7840814, 151.0682007, -0.09, 85.20, 0.02, 359.88
ATT, 0.00, 0.85, 0.00, 0.99, 0.00, 55.65, 55.65
CTUN, 0, 0.00, -0.14, 0.000000, 0.00, 0, 0, 0, 0
ATT, 0.00, 0.85, 0.00, 0.99, 0.00, 55.64, 55.64
CTUN, 0, 0.00, -0.18, 0.000000, 0.00, 0, 0, 0, 0
GPS, 3, 282795600, 9, 1.81, -33.7840813, 151.0682006, -0.10, 85.20, 0.01, 359.88
ATT, 0.00, 0.83, 0.00, 0.99, 0.00, 55.66, 55.66
CTUN, 0, 0.00, -0.11, 0.000000, 0.00, 0, 0, 0, 0
ATT, 0.00, 0.83, 0.00, 1.00, 0.00, 55.64, 55.64
CTUN, 0, 0.00, -0.11, 0.000000, 0.00, 0, 0, 0, 0
ATT, 0.00, 0.83, 0.00, 1.01, 0.00, 55.66, 55.66
GPS, 3, 282795800, 9, 1.81, -33.7840811, 151.0682006, -0.10, 85.19, 0.07, 359.88
CTUN, 0, 0.00, -0.11, 0.000000, 0.00, 0, 0, 0, 0
ATT, 0.00, 0.82, 0.00, 1.01, 0.00, 55.67, 55.67
CTUN, 0, 0.00, -0.14, 0.000000, 0.00, 0, 0, 0, 0
ATT, 0.00, 0.81, 0.00, 1.01, 0.00, 55.67, 55.67
GPS, 3, 282796000, 9, 1.81, -33.7840810, 151.0682005, -0.11, 85.19, 0.04, 359.88
DU32, 7, 8793
CURR, 0, 0, 1220, 63, 4752, 0.637472
CTUN, 0, 0.00, -0.15, 0.000000, 0.00, 0, -1, 0, 0
ATT, 0.00, 0.80, 0.00, 1.03, 0.00, 55.69, 55.69
CTUN, 0, 0.00, -0.11, 0.000000, 0.00, 0, -1, 0, 0
ATT, 0.00, 0.80, 0.00, 1.05, 0.00, 55.69, 55.69
GPS, 3, 282796200, 9, 1.81, -33.7840809, 151.0682004, -0.11, 85.18, 0.04, 359.88
CTUN, 0, 0.00, -0.10, 0.000000, 0.00, 0, 0, 0, 0
ATT, 0.00, 0.80, 0.00, 1.06, 0.00, 55.69, 55.69
CTUN, 0, 0.00, -0.06, 0.000000, 0.00, 0, 0, 0, 0
ATT, 0.00, 0.80, 0.00, 1.07, 0.00, 55.70, 55.70
GPS, 3, 282796400, 9, 1.81, -33.7840808, 151.0682003, -0.11, 85.18, 0.02, 359.88
CTUN, 0, 0.00, -0.15, 0.000000, 0.00, 0, -1, 0, 0
ATT, 0.00, 0.80, 0.00, 1.09, 0.00, 55.70, 55.70
CTUN, 0, 0.00, -0.09, 0.000000, 0.00, 0, -1, 0, 0
GPS, 3, 282796600, 9, 1.81, -33.7840807, 151.0682002, -0.12, 85.19, 0.04, 359.88
ATT, 0.00, 0.80, 0.00, 1.11, 0.00, 55.71, 55.71
CTUN, 0, 0.00, -0.05, 0.000000, 0.00, 0, -1, 0, 0
ATT, 0.00, 0.81, 0.00, 1.12, 0.00, 55.71, 55.71
CTUN, 0, 0.00, -0.10, 0.000000, 0.00, 0, -1, 0, 0
ATT, 0.00, 0.81, 0.00, 1.15, 0.00, 55.70, 55.70
GPS, 3, 282796800, 9, 1.81, -33.7840807, 151.0682001, -0.11, 85.18, 0.05, 359.88
CTUN, 0, 0.00, -0.20, 0.000000, 0.00, 0, -1, 0, 0
ATT, 0.00, 0.81, 0.00, 1.17, 0.00, 55.72, 55.72
CTUN, 0, 0.00, -0.24, 0.000000, 0.00, 0, -1, 0, 0
ATT, 0.00, 0.81, 0.00, 1.18, 0.00, 55.72, 55.72
GPS, 3, 282797000, 9, 1.81, -33.7840806, 151.0682000, -0.12, 85.18, 0.03, 359.88
DU32, 7, 8793
CURR, 0, 0, 1225, 66, 4732, 0.811068
CTUN, 0, 0.00, -0.17, 0.000000, 0.00, 0, -1, 0, 0
ATT, 0.00, 0.81, 0.00, 1.19, 0.00, 55.72, 55.72
CTUN, 0, 0.00, -0.17, 0.000000, 0.00, 0, -1, 0, 0
ATT, 0.00, 0.80, 0.00, 1.20, 0.00, 55.74, 55.74
GPS, 3, 282797200, 9, 1.81, -33.7840805, 151.0682000, -0.13, 85.17, 0.01, 359.88
CTUN, 0, 0.00, -0.11, 0.000000, 0.00, 0, -1, 0, 0
ATT, 0.00, 0.78, 0.00, 1.20, 0.00, 55.74, 55.74
CTUN, 0, 0.00, -0.07, 0.000000, 0.00, 0, -1, 0, 0
ATT, 0.00, 0.78, 0.00, 1.20, 0.00, 55.75, 55.75
GPS, 3, 282797400, 10, 1.77, -33.7840803, 151.0681999, -0.13, 85.16, 0.01, 359.88
CTUN, 0, 0.00, -0.22, 0.000000, 0.00, 0, -1, 0, 0
ATT, 0.00, 0.78, 0.00, 1.21, 0.00, 55.75, 55.75
CTUN, 0, 0.00, -0.10, 0.000000, 0.00, 0, -1, 0, 0
ATT, 0.00, 0.78, 0.00, 1.22, 0.00, 55.75, 55.75
GPS, 3, 282797600, 10, 1.77, -33.7840801, 151.0681999, -0.14, 85.15, 0.01, 359.88
CTUN, 0, 0.00, -0.12, 0.000000, 0.00, 0, -1, 0, 0
ATT, 0.00, 0.77, 0.00, 1.24, 0.00, 55.76, 55.76
CTUN, 0, 0.00, -0.19, 0.000000, 0.00, 0, -1, 0, 0
ATT, 0.00, 0.77, 0.00, 1.24, 0.00, 55.76, 55.76
GPS, 3, 282797800, 10, 1.77, -33.7840799, 151.0681998, -0.14, 85.14, 0.01, 359.88
CTUN, 0, 0.00, -0.15, 0.000000, 0.00, 0, -1, 0, 0
ATT, 0.00, 0.77, 0.00, 1.25, 0.00, 55.77, 55.77
CTUN, 0, 0.00, -0.06, 0.000000, 0.00, 0, -1, 0, 0
ATT, 0.00, 0.76, 0.00, 1.26, 0.00, 55.78, 55.78
GPS, 3, 282798000, 10, 1.77, -33.7840797, 151.0681997, -0.14, 85.13, 0.02, 359.88
DU32, 7, 8793
CURR, 0, 0, 1219, 63, 4732, 0.988205
CTUN, 0, 0.00, -0.16, 0.000000, 0.00, 0, -1, 0, 0
ATT, 0.00, 0.76, 0.00, 1.27, 0.00, 55.78, 55.78
CTUN, 0, 0.00, -0.10, 0.000000, 0.00, 0, -1, 0, 0
ATT, 0.00, 0.75, 0.00, 1.28, 0.00, 55.79, 55.79
GPS, 3, 282798200, 10, 1.77, -33.7840795, 151.0681997, -0.14, 85.12, 0.00, 359.88
CTUN, 0, 0.00, -0.05, 0.000000, 0.00, 0, -1, 0, 0
ATT, 0.00, 0.75, 0.00, 1.29, 0.00, 55.80, 55.80
CTUN, 0, 0.00, -0.15, 0.000000, 0.00, 0, -1, 0, 0
ATT, 0.00, 0.76, 0.00, 1.29, 0.00, 55.81, 55.81
GPS, 3, 282798400, 10, 1.77, -33.7840793, 151.0681997, -0.14, 85.12, 0.06, 359.88
CTUN, 0, 0.00, -0.16, 0.000000, 0.00, 0, -1, 0, 0
ATT, 0.00, 0.75, 0.00, 1.29, 0.00, 55.82, 55.82
CTUN, 0, 0.00, -0.10, 0.000000, 0.00, 0, -1, 0, 0
ATT, 0.00, 0.74, 0.00, 1.29, 0.00, 55.83, 55.83
GPS, 3, 282798600, 10, 1.77, -33.7840791, 151.0681996, -0.14, 85.11, 0.02, 359.88
CTUN, 0, 0.00, -0.20, 0.000000, 0.00, 0, -1, 0, 0
ATT, 0.00, 0.74, 0.00, 1.30, 0.00, 55.84, 55.84
CTUN, 0, 0.00, -0.22, 0.000000, 0.00, 0, -1, 0, 0
ATT, 0.00, 0.74, 0.00, 1.33, 0.00, 55.85, 55.85
GPS, 3, 282798800, 10, 1.77, -33.7840790, 151.0681995, -0.15, 85.10, 0.03, 359.88
CTUN, 0, 0.00, -0.25, 0.000000, 0.00, 0, -1, 0, 0
ATT, 0.00, 0.74, 0.00, 1.35, 0.00, 55.86, 55.86
CTUN, 0, 0.00, -0.09, 0.000000, 0.00, 0, -1, 0, 0
ATT, 0.00, 0.75, 0.00, 1.36, 0.00, 55.87, 55.87
GPS, 3, 282799000, 10, 1.77, -33.7840788, 151.0681996, -0.16, 85.10, 0.02, 359.88
DU32, 7, 8793
CURR, 0, 0, 1219, 60, 4752, 1.161225
CTUN, 0, 0.00, -0.02, 0.000000, 0.00, 0, -1, 0, 0
ATT, 0.00, 0.74, 0.00, 1.37, 0.00, 55.88, 55.88
CTUN, 0, 0.00, -0.17, 0.000000, 0.00, 0, -1, 0, 0
ATT, 0.00, 0.74, 0.00, 1.37, 0.00, 55.89, 55.89
GPS, 3, 282799200, 10, 1.77, -33.7840786, 151.0681996, -0.15, 85.08, 0.03, 359.88
CTUN, 0, 0.00, -0.12, 0.000000, 0.00, 0, -1, 0, 0
ATT, 0.00, 0.73, 0.00, 1.37, 0.00, 55.89, 55.89
CTUN, 0, 0.00, -0.11, 0.000000, 0.00, 0, -1, 0, 0
ATT, 0.00, 0.72, 0.00, 1.36, 0.00, 55.89, 55.89
GPS, 3, 282799400, 10, 1.77, -33.7840784, 151.0681996, -0.15, 85.08, 0.03, 359.88
CTUN, 0, 0.00, -0.19, 0.000000, 0.00, 0, -1, 0, 0
ATT, 0.00, 0.72, 0.00, 1.38, 0.00, 55.91, 55.91
CTUN, 0, 0.00, -0.21, 0.000000, 0.00, 0, -1, 0, 0
ATT, 0.00, 0.72, 0.00, 1.38, 0.00, 55.92, 55.92
GPS, 3, 282799600, 10, 1.77, -33.7840782, 151.0681995, -0.16, 85.07, 0.02, 359.88
CTUN, 0, 0.00, -0.08, 0.000000, 0.00, 0, -1, 0, 0
ATT, 0.00, 0.72, 0.00, 1.40, 0.00, 55.91, 55.91
CTUN, 0, 0.00, -0.08, 0.000000, 0.00, 0, -1, 0, 0
ATT, 0.00, 0.72, 0.00, 1.43, 0.00, 55.92, 55.92
GPS, 3, 282799800, 10, 1.77, -33.7840780, 151.0681995, -0.16, 85.07, 0.03, 359.88
CTUN, 0, 0.00, -0.20, 0.000000, 0.00, 0, -1, 0, 0
ATT, 0.00, 0.72, 0.00, 1.42, 0.00, 55.93, 55.93
CTUN, 0, 0.00, -0.06, 0.000000, 0.00, 0, -1, 0, 0
EV, 15
ATT, 0.00, 0.70, 0.00, 1.41, 0.00, 55.94, 55.94
GPS, 3, 282800000, 10, 1.77, -33.7840778, 151.0681995, -0.16, 85.07, 0.03, 359.88
DU32, 7, 8825
CURR, 147, 0, 1221, 63, 4752, 1.336671
EV, 28
CTUN, 154, 0.00, -0.12, 0.000000, 0.00, 0, -1, 147, 0
ATT, 0.00, 0.73, 0.00, 1.42, 0.00, 55.93, 55.94
CTUN, 208, 0.00, -0.27, 0.000000, 0.00, 0, -1, 201, 0
ATT, 0.00, 0.76, 0.00, 1.43, 0.00, 55.91, 55.94
GPS, 3, 282800200, 10, 1.77, -33.7840776, 151.0681995, -0.16, 85.07, 0.02, 359.88
CTUN, 239, 0.00, -0.31, 0.000000, 0.00, 0, -1, 239, 0
ATT, 0.00, 0.81, 0.00, 1.47, 0.00, 55.93, 55.94
CTUN, 238, 0.00, -0.59, 0.000000, 0.00, 0, -1, 238, 0
ATT, 0.00, 0.82, 0.00, 1.46, 0.00, 55.92, 55.94
GPS, 3, 282800400, 10, 1.77, -33.7840775, 151.0681995, -0.18, 85.07, 0.02, 359.88
CTUN, 238, 0.00, -0.65, 0.000000, 0.00, 0, -1, 238, 0
ATT, 0.00, 0.81, 0.00, 1.45, 0.00, 55.96, 55.94
CTUN, 239, 0.00, -0.81, 0.000000, 0.00, 0, -2, 240, 0
ATT, 0.00, 0.82, 0.00, 1.51, 0.00, 55.96, 55.94
GPS, 3, 282800600, 10, 1.77, -33.7840773, 151.0681995, -0.25, 85.07, 0.05, 359.88
CTUN, 239, 0.00, -0.70, 0.000000, 0.00, 0, -3, 239, 0
ATT, 0.00, 0.80, 0.00, 1.49, 0.00, 56.01, 55.94
CTUN, 238, 0.00, -0.98, 0.000000, 0.00, 0, -3, 238, 0
PM, 0, 0, 50, 4, 1003, 7327788, 18, 4
ATT, 0.00, 0.82, 0.00, 1.48, 0.00, 55.99, 55.94
GPS, 3, 282800800, 9, 1.83, -33.7840771, 151.0681995, -0.32, 85.06, 0.00, 359.88
CTUN, 239, 0.00, -1.04, 0.000000, 0.00, 0, -4, 238, 0
ATT, 0.00, 0.80, 0.00, 1.51, 0.00, 56.01, 55.94
CTUN, 238, 0.00, -0.98, 0.000000, 0.00, 0, -5, 238, 0
ATT, 0.00, 0.81, 0.00, 1.52, 0.00, 56.03, 55.94
GPS, 3, 282801000, 9, 1.83, -33.7840768, 151.0681996, -0.41, 85.05, 0.10, 359.88
DU32, 7, 8313
CURR, 238, 2256, 1203, 391, 4772, 2.324000
CTUN, 238, 0.00, -0.83, 0.000000, 0.00, 0, -6, 238, 0
ATT, 0.00, 0.79, 0.00, 1.47, 0.00, 56.06, 55.94
CTUN, 240, 0.00, -0.78, 0.000000, 0.00, 0, -6, 240, 0
ATT, 0.00, 0.77, 0.00, 1.45, 0.00, 56.04, 55.94
GPS, 3, 282801200, 9, 1.83, -33.7840768, 151.0681995, -0.47, 85.05, 0.04, 359.88
CTUN, 239, 0.00, -0.79, 0.000000, 0.00, 0, -7, 239, 0
ATT, 0.00, 0.79, 0.00, 1.54, 0.00, 56.08, 55.94
CTUN, 273, 0.00, -0.72, 0.000000, 0.00, 0, -7, 259, 0
ATT, 0.00, 0.80, 0.00, 1.57, 0.00, 56.06, 55.94
GPS, 3, 282801400, 9, 1.83, -33.7840764, 151.0681996, -0.52, 85.04, 0.08, 359.88
CTUN, 310, 0.00, -0.88, 0.000000, 0.00, 0, -7, 310, 0
ATT, 0.00, 0.85, 0.00, 1.56, 0.00, 56.08, 55.94
CTUN, 312, 0.00, -1.01, 0.000000, 0.00, 0, -8, 312, 0
ATT, 0.00, 0.81, 0.00, 1.52, 0.00, 56.05, 55.94
GPS, 3, 282801600, 10, 1.77, -33.7840762, 151.0681996, -0.58, 85.04, 0.05, 359.88
CTUN, 312, 0.00, -0.98, 0.000000, 0.00, 0, -8, 312, 0
ATT, 0.00, 0.76, 0.00, 1.49, 0.00, 56.10, 55.94
CTUN, 331, 0.00, -1.12, 0.000000, 0.00, 0, -11, 324, 0
GPS, 3, 282801800, 9, 1.83, -33.7840759, 151.0681996, -0.65, 85.03, 0.07, 359.88
ATT, 0.00, 0.81, 0.00, 1.50, 0.00, 56.09, 55.94
CTUN, 427, 0.00, -1.20, 0.000000, 0.00, 0, -12, 427, 0
EV, 16
ATT, 0.00, 0.62, 0.00, 1.29, 0.00, 56.07, 55.94
CTUN, 464, 0.00, -1.55, 0.000000, 0.00, 0, -12, 454, 0
GPS, 3, 282802000, 9, 1.83, -33.7840757, 151.0681996, -0.74, 85.02, 0.04, 359.88
DU32, 7, 8569
CURR, 464, 5371, 1169, 927, 4732, 3.854798
ATT, 0.00, 0.27, 0.00, 0.91, 0.00, 56.07, 55.94
CTUN, 485, 0.00, -1.63, 0.000000, 0.00, 0, -13, 469, 0
ATT, 0.00, 0.08, 0.00, 0.67, 0.00, 55.95, 55.94
CTUN, 501, 0.00, -1.92, 0.000000, 0.00, 0, -14, 501, 0
GPS, 3, 282802200, 9, 1.83, -33.7840755, 151.0681996, -0.87, 85.01, 0.01, 359.88
ATT, 0.00, -0.24, 0.00, 0.62, 0.00, 55.16, 55.94
CTUN, 547, 0.00, -2.05, 0.000000, 0.00, 0, -14, 547, 0
ATT, 0.00, -0.82, 0.00, 0.95, 0.00, 53.62, 55.94
CTUN, 568, 0.00, -1.89, 0.000000, 0.00, 0, -10, 568, 0
GPS, 3, 282802400, 9, 1.83, -33.7840753, 151.0681996, -1.02, 85.01, 0.06, 359.88
ATT, 0.00, -0.87, 0.00, 1.86, 0.00, 51.43, 55.94
CTUN, 584, 0.00, -1.46, 0.000000, 0.00, 0, 1, 585, 0
ATT, 0.00, -0.33, 0.00, 2.70, 0.00, 48.99, 55.94
CTUN, 584, 0.00, -0.97, 0.000000, 0.00, 0, 17, 584, 0
GPS, 3, 282802600, 10, 1.77, -33.7840745, 151.0681998, -1.07, 84.98, 0.34, 359.88
ATT, 0.00, -0.49, 0.00, 2.89, 0.00, 46.57, 55.94
CTUN, 584, 0.00, -0.33, 0.000000, 0.00, 0, 31, 584, 0
ATT, 0.00, -0.56, -2.18, 2.85, 0.00, 44.28, 54.28
CTUN, 583, 0.00, -0.08, 0.000000, 0.00, 0, 41, 585, 0
GPS, 3, 282802800, 10, 1.77, -33.7840743, 151.0682009, -0.95, 84.91, 0.45, 359.88
ATT, 0.00, -0.11, -7.27, 1.57, 0.00, 41.84, 51.84
CTUN, 584, 0.00, 0.11, 0.000000, 0.00, 0, 49, 584, 0
ATT, 0.00, -0.44, -8.12, -1.94, 0.00, 39.81, 49.81
CTUN, 551, 0.00, 0.29, 0.000000, 0.00, 0, 56, 551, 0
GPS, 3, 282803000, 11, 1.59, -33.7840760, 151.0682018, -0.73, 84.88, 0.79, 33.01
DU32, 7, 8569
CURR, 551, 10883, 1142, 1434, 4752, 7.535488
ATT, 0.00, -0.41, -7.76, -5.00, 0.00, 37.72, 47.72
CTUN, 551, 0.00, 0.28, 0.000000, 0.00, 1, 57, 552, 0
ATT, 0.00, 0.96, -7.76, -5.51, 0.00, 35.87, 45.87
CTUN, 551, 0.00, 0.38, 0.000000, 0.00, 2, 55, 553, 0
GPS, 3, 282803200, 10, 1.77, -33.7840771, 151.0682026, -0.50, 84.83, 0.75, 33.01
ATT, 0.00, 2.00, -8.00, -5.36, 0.00, 34.24, 44.24
CTUN, 549, 0.00, 0.57, 0.000000, 0.00, 2, 52, 551, 0
ATT, 0.00, 1.85, -7.52, -5.70, 0.00, 32.92, 42.92
CTUN, 573, 0.00, 0.69, 0.000000, 0.00, 2, 50, 576, 0
GPS, 3, 282803400, 11, 1.59, -33.7840781, 151.0682025, -0.28, 84.83, 0.58, 134.90
ATT, 0.00, 1.62, -7.27, -5.89, 0.00, 31.85, 41.85
CTUN, 572, 0.00, 0.60, 0.000000, 0.00, 2, 49, 574, 0
ATT, 0.00, 1.38, -6.67, -5.32, 0.00, 30.93, 40.93
CTUN, 572, 0.00, 0.88, 0.000000, 0.00, 1, 50, 574, 0
GPS, 3, 282803600, 10, 1.67, -33.7840773, 151.0682025, -0.07, 84.98, 0.17, 134.90
ATT, 0.00, 1.30, -3.76, -4.74, 6.36, 30.04, 40.04
CTUN, 573, 0.00, 0.82, 0.000000, 0.00, 1, 53, 574, 0
ATT, 0.00, 1.20, -3.15, -3.25, 13.08, 30.35, 40.35
GPS, 3, 282803800, 10, 1.67, -33.7840766, 151.0682024, 0.11, 85.08, 0.23, 134.90
CTUN, 573, 0.00, 0.88, 0.000000, 0.00, 0, 60, 573, 0
ATT, 0.00, 2.47, -2.78, -0.93, 14.52, 32.90, 42.90
CTUN, 573, 0.00, 0.88, 0.000000, 0.00, 0, 67, 573, 0
ATT, 0.00, 2.05, -2.30, -0.01, 6.72, 36.80, 46.66
GPS, 3, 282804000, 11, 1.59, -33.7840757, 151.0682026, 0.35, 85.30, 0.48, 101.97
CTUN, 572, 0.00, 1.09, 0.000000, 0.00, 0, 69, 573, 0
DU32, 7, 8569
CURR, 572, 16557, 1138, 1378, 4752, 11.64258
ATT, 0.00, 0.36, -2.91, -0.80, 5.04, 39.96, 49.31
CTUN, 573, 0.00, 1.08, 0.000000, 0.00, 0, 67, 574, 0
ATT, 0.00, -0.20, -3.63, -1.87, 0.00, 41.78, 49.45
GPS, 3, 282804200, 11, 1.59, -33.7840748, 151.0682030, 0.56, 85.48, 0.58, 53.99
CTUN, 572, 0.00, 1.10, 0.000000, 0.00, 0, 64, 573, 0
ATT, 0.00, -0.45, -4.00, -2.50, 0.00, 42.27, 49.45
CTUN, 573, 0.00, 1.28, 0.000000, 0.00, 0, 65, 573, 0
ATT, 0.00, -0.22, -6.79, -2.89, 0.00, 42.17, 49.45
GPS, 3, 282804400, 11, 1.59, -33.7840740, 151.0682040, 0.76, 85.65, 0.67, 52.20
CTUN, 574, 0.00, 1.25, 0.000000, 0.00, 0, 66, 573, 0
ATT, 0.00, 0.21, -7.76, -4.11, 0.00, 41.70, 49.45
CTUN, 572, 0.00, 1.36, 0.000000, 0.00, 1, 68, 574, 0
ATT, 0.00, 0.14, -6.79, -5.28, 0.00, 41.03, 49.45
GPS, 3, 282804600, 11, 1.59, -33.7840735, 151.0682043, 0.95, 85.82, 0.39, 47.36
CTUN, 573, 0.00, 1.44, 0.000000, 0.00, 1, 69, 573, 0
ATT, 0.00, 0.61, -5.45, -5.24, 0.00, 40.13, 49.45
CTUN, 573, 0.00, 1.60, 0.000000, 0.00, 1, 72, 574, 0
GPS, 3, 282804800, 11, 1.59, -33.7840727, 151.0682048, 1.15, 86.02, 0.58, 40.47
ATT, 0.00, 0.64, -2.91, -4.28, 0.00, 39.26, 49.26
CTUN, 563, 0.00, 1.53, 0.000000, 0.00, 1, 74, 564, 0
ATT, 0.00, 0.88, -1.33, -2.74, 0.00, 38.60, 48.60
CTUN, 562, 0.00, 1.70, 0.000000, 0.00, 0, 74, 562, 0
GPS, 3, 282805000, 11, 1.59, -33.7840716, 151.0682057, 1.34, 86.22, 0.85, 39.45
ATT, 0.00, 0.67, 0.00, -1.22, 0.00, 37.97, 47.97
CTUN, 562, 0.00, 1.68, 0.000000, 0.00, 0, 73, 562, 0
DU32, 7, 8569
CURR, 562, 21697, 1140, 1349, 4732, 15.21659
ATT, 0.00, 0.24, 0.00, -0.15, 0.00, 37.52, 47.52
CTUN, 562, 0.00, 1.85, 0.000000, 0.00, 0, 72, 562, 0
GPS, 3, 282805200, 11, 1.59, -33.7840709, 151.0682068, 1.53, 86.33, 0.74, 43.45
ATT, 0.00, 0.02, 0.00, 0.65, 0.00, 37.13, 47.13
CTUN, 562, 0.00, 1.84, 0.000000, 0.00, 0, 71, 561, 0
ATT, 0.00, -0.16, 0.00, 1.18, 0.00, 36.89, 46.89
CTUN, 562, 0.00, 2.02, 0.000000, 0.00, 0, 70, 562, 0
GPS, 3, 282805400, 11, 1.59, -33.7840698, 151.0682077, 1.69, 86.46, 0.79, 41.87
ATT, 0.00, -0.37, 0.00, 1.39, 0.00, 36.74, 46.74
CTUN, 561, 0.00, 2.05, 0.000000, 0.00, 0, 68, 562, 0
ATT, 0.00, -0.51, 0.00, 1.42, 0.00, 36.74, 46.73
CTUN, 532, 0.00, 1.95, 0.000000, 0.00, 0, 67, 532, 0
GPS, 3, 282805600, 11, 1.59, -33.7840685, 151.0682085, 1.85, 86.64, 0.79, 39.32
ATT, 0.00, -0.50, 0.00, 1.40, 0.00, 36.83, 46.73
CTUN, 532, 0.00, 2.13, 0.000000, 0.00, 0, 64, 532, 0
ATT, 0.00, -0.53, 0.00, 1.38, 0.00, 37.06, 46.73
CTUN, 532, 0.00, 2.18, 0.000000, 0.00, 0, 59, 533, 0
GPS, 3, 282805800, 11, 1.59, -33.7840678, 151.0682094, 2.00, 86.73, 0.61, 42.56
ATT, 0.00, -0.51, 0.00, 1.22, 0.00, 37.37, 46.73
CTUN, 533, 0.00, 2.18, 0.000000, 0.00, 0, 53, 533, 0
ATT, 0.00, -0.45, 0.00, 1.01, 0.00, 37.70, 46.73
CTUN, 532, 0.00, 2.27, 0.000000, 0.00, 0, 44, 532, 0
GPS, 3, 282806000, 11, 1.59, -33.7840669, 151.0682103, 2.12, 86.86, 0.62, 43.63
ATT, 0.23, -0.36, 0.00, 0.82, 0.00, 38.00, 46.73
CTUN, 532, 0.00, 2.36, 0.000000, 0.00, 0, 36, 532, 0
DU32, 7, 8569
CURR, 532, 27159, 1142, 1219, 4752, 18.89096
ATT, 3.23, 0.17, 0.00, 0.56, 0.00, 38.20, 46.73
CTUN, 532, 0.00, 2.34, 0.000000, 0.00, 0, 31, 533, 0
GPS, 3, 282806200, 11, 1.59, -33.7840660, 151.0682110, 2.21, 87.04, 0.49, 42.31
ATT, 0.00, 1.53, 0.00, 0.59, 0.00, 38.33, 46.73
CTUN, 533, 0.00, 2.35, 0.000000, 0.00, 0, 24, 533, 0
ATT, 0.00, 0.74, 0.00, 1.00, 0.00, 38.51, 46.73
CTUN, 541, 0.00, 2.37, 0.000000, 0.00, 0, 18, 541, 0
GPS, 3, 282806400, 11, 1.59, -33.7840649, 151.0682114, 2.27, 87.12, 0.53, 34.61
ATT, 0.00, 0.00, 0.00, 0.46, 0.00, 38.60, 46.73
CTUN, 542, 0.00, 2.52, 0.000000, 0.00, 0, 12, 541, 0
ATT, 0.00, -0.23, 0.00, 0.41, 0.00, 38.60, 46.73
CTUN, 543, 0.00, 2.48, 0.000000, 0.00, 0, 7, 543, 0
GPS, 3, 282806600, 11, 1.59, -33.7840642, 151.0682120, 2.31, 87.19, 0.48, 38.05
ATT, 0.00, 0.01, 0.00, 0.50, 0.00, 38.56, 46.73
CTUN, 548, 0.00, 2.42, 0.000000, 0.00, 0, 4, 548, 0
ATT, 0.00, 0.00, 0.00, 0.52, 0.00, 38.54, 46.73
CTUN, 551, 0.00, 2.51, 0.000000, 0.00, 0, 1, 551, 0
GPS, 3, 282806800, 11, 1.59, -33.7840638, 151.0682125, 2.34, 87.13, 0.28, 38.05
ATT, 0.00, 0.06, 0.00, 0.30, 0.00, 38.55, 46.73
CTUN, 555, 0.00, 2.47, 0.000000, 0.00, 0, -2, 555, 0
ATT, 0.00, 0.07, 0.00, 0.26, 0.00, 38.54, 46.73
CTUN, 561, 0.00, 2.43, 0.000000, 0.00, 0, -6, 562, 0
GPS, 3, 282807000, 11, 1.59, -33.7840631, 151.0682130, 2.35, 87.18, 0.34, 36.12
ATT, 0.00, 0.02, 0.00, 0.28, 0.00, 38.52, 46.73
CTUN, 562, 0.00, 2.42, 0.000000, 0.00, 0, -5, 562, 0
DU32, 7, 8569
CURR, 562, 32609, 1136, 1329, 4732, 22.39568
ATT, 0.00, 0.09, 0.00, 0.17, 0.00, 38.48, 46.73
CTUN, 561, 0.00, 2.38, 0.000000, 0.00, 0, -5, 561, 0
GPS, 3, 282807200, 11, 1.59, -33.7840623, 151.0682133, 2.35, 87.20, 0.37, 30.54
ATT, 0.00, 0.08, 0.00, 0.17, 0.00, 38.46, 46.73
CTUN, 582, 0.00, 2.29, 0.000000, 0.00, 0, -4, 582, 0
ATT, 0.00, 0.06, 0.00, 0.11, 0.00, 38.47, 46.73
CTUN, 585, 0.00, 2.39, 0.000000, 0.00, 0, -3, 585, 0
GPS, 3, 282807400, 11, 1.59, -33.7840618, 151.0682134, 2.34, 87.29, 0.19, 30.54
ATT, 0.00, -0.03, 0.00, 0.06, 0.00, 38.42, 46.73
CTUN, 585, 0.00, 2.35, 0.000000, 0.00, 0, 0, 585, 0
ATT, 0.00, 0.08, 0.00, 0.23, 0.00, 38.31, 46.73
CTUN, 586, 0.00, 2.36, 0.000000, 0.00, 0, 4, 586, 0
GPS, 3, 282807600, 11, 1.59, -33.7840613, 151.0682136, 2.34, 87.39, 0.30, 32.35
ATT, 0.00, 0.11, 0.00, 0.29, 0.00, 38.21, 46.73
CTUN, 586, 0.00, 2.36, 0.000000, 0.00, 0, 9, 585, 0
ATT, 0.00, 0.02, 0.00, 0.19, 0.00, 38.17, 46.73
CTUN, 586, 0.00, 2.37, 0.000000, 0.00, 0, 12, 586, 0
GPS, 3, 282807800, 11, 1.59, -33.7840611, 151.0682138, 2.36, 87.47, 0.24, 37.34
CTUN, 586, 0.00, 2.49, 0.000000, 0.00, 0, 16, 586, 0
ATT, 0.00, -0.03, 0.00, 0.15, 0.00, 38.18, 46.73
CTUN, 586, 0.00, 2.42, 0.000000, 0.00, 0, 20, 585, 0
ATT, 0.00, -0.06, 0.00, 0.19, 0.00, 38.22, 46.73
GPS, 3, 282808000, 10, 1.77, -33.7840607, 151.0682140, 2.41, 87.53, 0.18, 37.34
CTUN, 585, 0.00, 2.43, 0.000000, 0.00, 0, 24, 584, 0
DU32, 7, 8569
CURR, 585, 38418, 1126, 1412, 4732, 26.38132
ATT, 0.00, -0.02, 0.00, 0.10, 0.00, 38.32, 46.73
CTUN, 586, 0.00, 2.57, 0.000000, 0.00, 0, 27, 586, 0
ATT, 0.00, -0.09, 0.00, 0.07, 0.00, 38.42, 46.73
GPS, 3, 282808200, 10, 1.77, -33.7840602, 151.0682143, 2.47, 87.56, 0.23, 37.34
CTUN, 584, 0.00, 2.51, 0.000000, 0.00, 0, 32, 586, 0
ATT, 0.00, -0.11, 0.00, -0.14, 0.00, 38.51, 46.73
CTUN, 585, 0.00, 2.60, 0.000000, 0.00, 0, 35, 585, 0
ATT, 0.00, -0.06, 0.00, -0.20, 0.00, 38.58, 46.73
GPS, 3, 282808400, 9, 2.04, -33.7840600, 151.0682145, 2.54, 87.61, 0.17, 37.34
CTUN, 586, 0.00, 2.55, 0.000000, 0.00, 0, 39, 586, 0
ATT, 0.00, -0.04, 0.00, -0.24, 0.00, 38.67, 46.73
CTUN, 585, 0.00, 2.49, 0.000000, 0.00, 0, 41, 585, 0
ATT, 0.00, -0.08, 0.00, -0.30, 0.00, 38.78, 46.73
GPS, 3, 282808600, 10, 1.74, -33.7840600, 151.0682147, 2.62, 87.71, 0.11, 37.34
CTUN, 585, 0.00, 2.61, 0.000000, 0.00, 0, 45, 585, 0
ATT, 0.00, -0.13, 0.00, -0.26, 0.00, 38.91, 46.73
CTUN, 585, 0.00, 2.71, 0.000000, 0.00, 0, 47, 585, 0
ATT, 0.57, -0.20, 0.00, -0.19, 0.00, 39.02, 46.73
GPS, 3, 282808800, 11, 1.59, -33.7840596, 151.0682149, 2.71, 87.83, 0.21, 37.34
CTUN, 585, 0.00, 2.74, 0.000000, 0.00, 0, 49, 585, 0
ATT, 5.30, 0.05, 0.00, -0.20, 0.00, 39.14, 46.73
CTUN, 585, 0.00, 2.85, 0.000000, 0.00, 0, 52, 585, 0
GPS, 3, 282809000, 10, 1.72, -33.7840597, 151.0682150, 2.81, 87.85, 0.10, 37.34
ATT, 5.19, 2.16, 0.00, -0.45, 0.00, 39.18, 46.73
CTUN, 576, 0.00, 2.94, 0.000000, 0.00, 0, 55, 588, 0
DU32, 7, 8569
CURR, 576, 44275, 1131, 1427, 4712, 30.43434
ATT, 2.19, 3.42, 0.00, 0.21, 0.00, 39.25, 46.73
CTUN, 569, 0.00, 2.78, 0.000000, 0.00, 0, 57, 569, 0
GPS, 3, 282809200, 11, 1.59, -33.7840592, 151.0682154, 2.93, 87.97, 0.23, 37.34
ATT, 0.46, 2.77, 0.00, 0.49, 0.00, 39.36, 46.73
CTUN, 562, 0.00, 2.84, 0.000000, 0.00, 0, 57, 569, 0
ATT, 0.57, 1.52, 0.00, 0.04, 0.00, 39.51, 46.73
CTUN, 562, 0.00, 2.91, 0.000000, 0.00, 0, 56, 562, 0
GPS, 3, 282809400, 11, 1.59, -33.7840591, 151.0682159, 3.03, 88.07, 0.21, 37.34
ATT, 6.92, 0.88, 0.11, -0.10, 0.00, 39.60, 46.73
CTUN, 554, 0.00, 2.94, 0.000000, 0.00, 0, 53, 554, 0
ATT, 5.65, 3.42, 0.23, -0.41, 0.00, 39.54, 46.73
CTUN, 517, 0.00, 3.00, 0.000000, 0.00, 0, 52, 523, 0
GPS, 3, 282809600, 11, 1.59, -33.7840589, 151.0682162, 3.12, 88.12, 0.14, 37.34
ATT, 2.19, 4.49, 0.00, 0.61, 0.00, 39.56, 46.73
CTUN, 517, 0.00, 3.12, 0.000000, 0.00, 1, 40, 518, 0
ATT, 3.34, 3.42, 0.00, 0.54, 0.00, 39.68, 46.73
CTUN, 517, 0.00, 3.17, 0.000000, 0.00, 0, 29, 517, 0
GPS, 3, 282809800, 11, 1.59, -33.7840587, 151.0682168, 3.19, 88.15, 0.24, 37.34
ATT, 3.34, 2.08, 0.00, -0.43, 0.00, 39.94, 46.73
CTUN, 517, 0.00, 3.25, 0.000000, 0.00, 0, 19, 517, 0
ATT, 1.96, 1.93, 0.00, -0.52, 0.00, 40.25, 46.73
CTUN, 517, 0.00, 3.23, 0.000000, 0.00, 0, 10, 517, 0
GPS, 3, 282810000, 11, 1.59, -33.7840588, 151.0682177, 3.22, 88.17, 0.38, 37.34
ATT, 1.03, 1.83, 0.35, -0.02, 0.00, 40.60, 46.73
CTUN, 517, 0.00, 3.18, 0.000000, 0.00, 0, -2, 517, 0
DU32, 7, 8569
CURR, 517, 49638, 1141, 1160, 4693, 33.96313
ATT, 0.00, 1.26, 0.35, -0.02, 0.00, 40.98, 46.73
CTUN, 537, 0.00, 3.11, 0.000000, 0.00, 0, -12, 537, 0
GPS, 3, 282810200, 11, 1.59, -33.7840590, 151.0682185, 3.21, 88.18, 0.39, 37.34
ATT, 0.00, 0.26, 0.00, -0.21, 0.00, 41.39, 46.73
CTUN, 543, 0.00, 3.09, 0.000000, 0.00, 0, -20, 539, 0
ATT, 0.00, -0.18, 0.00, -0.31, 0.00, 41.72, 46.73
CTUN, 546, 0.00, 3.13, 0.000000, 0.00, 0, -24, 544, 0
GPS, 3, 282810400, 11, 1.59, -33.7840589, 151.0682194, 3.16, 88.17, 0.39, 62.33
ATT, 0.00, -0.28, 0.00, -0.11, 0.00, 41.90, 46.73
CTUN, 551, 0.00, 3.13, 0.000000, 0.00, 0, -35, 551, 0
ATT, 0.00, -0.21, 0.00, -0.03, 0.00, 41.97, 46.73
CTUN, 569, 0.00, 3.07, 0.000000, 0.00, 0, -37, 562, 0
GPS, 3, 282810600, 11, 1.59, -33.7840589, 151.0682204, 3.09, 88.16, 0.45, 76.26
ATT, 0.00, -0.27, 0.00, -0.03, 0.00, 41.95, 46.73
CTUN, 577, 0.00, 3.07, 0.000000, 0.00, 0, -38, 577, 0
ATT, 0.00, -0.28, 0.00, 0.05, 0.00, 41.85, 46.73
PM, 0, 0, 50, 0, 1000, 10404, 10, 4
CTUN, 577, 0.00, 2.88, 0.000000, 0.00, 0, -39, 578, 0
GPS, 3, 282810800, 11, 1.59, -33.7840587, 151.0682213, 3.01, 88.18, 0.44, 79.86
ATT, 0.00, -0.21, 0.00, 0.20, 0.00, 41.67, 46.73
CTUN, 578, 0.00, 2.88, 0.000000, 0.00, 0, -36, 578, 0
ATT, 0.00, -0.26, 0.00, 0.35, 0.00, 41.43, 46.73
CTUN, 577, 0.00, 2.90, 0.000000, 0.00, 0, -36, 577, 0
GPS, 3, 282811000, 11, 1.59, -33.7840586, 151.0682221, 2.93, 88.15, 0.34, 79.86
ATT, 0.00, -0.35, 0.00, 0.35, 0.00, 41.26, 46.73
CTUN, 577, 0.00, 2.83, 0.000000, 0.00, 0, -32, 577, 0
DU32, 7, 8569
CURR, 577, 55256, 1131, 1367, 4712, 37.55244
ATT, 0.00, -0.29, 0.00, 0.37, 0.00, 41.09, 46.73
CTUN, 577, 0.00, 2.84, 0.000000, 0.00, 0, -32, 577, 0
GPS, 3, 282811200, 10, 1.74, -33.7840587, 151.0682230, 2.85, 88.07, 0.41, 80.22
ATT, 0.00, -0.22, 0.00, 0.37, 0.00, 40.96, 46.73
CTUN, 577, 0.00, 2.73, 0.000000, 0.00, 0, -29, 577, 0
ATT, 0.00, -0.22, 0.00, 0.32, 0.00, 40.92, 46.73
CTUN, 577, 0.00, 2.68, 0.000000, 0.00, 0, -29, 577, 0
GPS, 3, 282811400, 11, 1.59, -33.7840589, 151.0682239, 2.79, 87.97, 0.41, 80.22
ATT, 0.00, -0.27, 0.00, 0.29, 0.00, 40.97, 46.73
CTUN, 577, 0.00, 2.69, 0.000000, 0.00, 0, -28, 577, 0
ATT, 0.00, -0.18, 0.00, 0.33, 0.00, 41.12, 46.73
GPS, 3, 282811600, 10, 1.77, -33.7840589, 151.0682244, 2.73, 87.92, 0.24, 80.22
CTUN, 577, 0.00, 2.58, 0.000000, 0.00, 0, -26, 577, 0
ATT, 0.00, -0.20, 0.00, 0.27, 0.00, 41.36, 46.73
CTUN, 578, 0.00, 2.65, 0.000000, 0.00, 0, -25, 577, 0
ATT, 0.00, -0.21, 0.00, 0.16, 6.96, 41.62, 48.01
GPS, 3, 282811800, 11, 1.59, -33.7840589, 151.0682252, 2.66, 87.94, 0.37, 80.22
CTUN, 577, 0.00, 2.56, 0.000000, 0.00, 0, -23, 578, 0
ATT, 0.00, 0.33, 0.11, 0.24, 7.32, 43.61, 52.54
CTUN, 577, 0.00, 2.61, 0.000000, 0.00, 0, -17, 577, 0
ATT, 0.00, 0.68, 0.23, 0.45, 5.64, 47.06, 55.59
GPS, 3, 282812000, 11, 1.59, -33.7840590, 151.0682257, 2.61, 87.92, 0.25, 80.22
CTUN, 577, 0.00, 2.53, 0.000000, 0.00, 0, -15, 578, 0
ATT, 0.00, 0.23, 0.11, 0.12, 2.52, 50.29, 57.70
DU32, 7, 8569
CURR, 576, 60451, 1124, 1367, 4693, 41.23690
CTUN, 576, 0.00, 2.51, 0.000000, 0.00, 0, -14, 576, 0
ATT, 0.00, -0.17, 0.00, -0.16, 0.00, 53.09, 58.15
GPS, 3, 282812200, 11, 1.59, -33.7840592, 151.0682265, 2.58, 87.87, 0.31, 80.22
CTUN, 577, 0.00, 2.61, 0.000000, 0.00, 0, -16, 577, 0
ATT, 0.00, -0.46, 0.00, -0.40, 0.00, 54.90, 58.15
CTUN, 577, 0.00, 2.46, 0.000000, 0.00, 0, -14, 577, 0
ATT, 0.00, -0.27, 0.00, -0.27, 0.00, 55.95, 58.15
GPS, 3, 282812400, 11, 1.59, -33.7840592, 151.0682269, 2.54, 87.93, 0.24, 80.22
CTUN, 577, 0.00, 2.53, 0.000000, 0.00, 0, -15, 577, 0
ATT, 0.00, -0.06, 0.11, -0.12, 0.00, 56.45, 58.15
CTUN, 577, 0.00, 2.59, 0.000000, 0.00, 0, -17, 577, 0
ATT, 0.00, 0.06, 1.40, 0.07, 0.00, 56.55, 58.15
GPS, 3, 282812600, 11, 1.59, -33.7840592, 151.0682273, 2.51, 87.93, 0.25, 80.22
CTUN, 577, 0.00, 2.48, 0.000000, 0.00, 0, -16, 577, 0
ATT, 0.00, 0.12, 1.05, 0.72, 0.00, 56.33, 58.15
CTUN, 577, 0.00, 2.48, 0.000000, 0.00, 0, -13, 577, 0
ATT, 0.00, 0.37, 0.35, 0.88, 0.00, 55.94, 58.15
GPS, 3, 282812800, 11, 1.59, -33.7840592, 151.0682280, 2.48, 87.86, 0.29, 80.22
CTUN, 577, 0.00, 2.46, 0.000000, 0.00, 0, -11, 577, 0
ATT, 0.00, 0.32, 0.46, 0.49, 0.00, 55.48, 58.15
CTUN, 577, 0.00, 2.59, 0.000000, 0.00, 0, -11, 577, 0
GPS, 3, 282813000, 11, 1.59, -33.7840592, 151.0682283, 2.46, 87.83, 0.18, 80.22
ATT, 0.00, 0.27, 1.17, 0.40, 0.00, 55.03, 58.15
CTUN, 577, 0.00, 2.33, 0.000000, 0.00, 0, -11, 576, 0
DU32, 7, 8569
CURR, 577, 66219, 1127, 1362, 4712, 45.02845
ATT, 0.00, 0.46, 2.57, 0.82, 0.00, 54.62, 58.15
CTUN, 577, 0.00, 2.38, 0.000000, 0.00, 0, -10, 577, 0
GPS, 3, 282813200, 11, 1.59, -33.7840589, 151.0682290, 2.43, 87.82, 0.24, 80.22
ATT, 0.00, 0.40, 2.46, 1.81, 0.00, 54.29, 58.15
CTUN, 577, 0.00, 2.29, 0.000000, 0.00, 0, -9, 575, 0
ATT, 0.00, 0.58, 3.16, 2.17, 0.00, 54.07, 58.15
CTUN, 578, 0.00, 2.48, 0.000000, 0.00, 0, -9, 577, 0
GPS, 3, 282813400, 11, 1.59, -33.7840586, 151.0682295, 2.41, 87.89, 0.24, 80.22
ATT, 0.00, 0.21, 3.16, 2.36, 0.00, 53.95, 58.15
CTUN, 577, 0.00, 2.36, 0.000000, 0.00, 0, -7, 577, 0
ATT, 0.00, 0.34, 3.28, 2.40, 0.00, 53.94, 58.15
CTUN, 577, 0.00, 2.32, 0.000000, 0.00, 0, -8, 577, 0
GPS, 3, 282813600, 11, 1.59, -33.7840584, 151.0682299, 2.39, 87.92, 0.16, 80.22
ATT, 0.00, 0.17, 3.86, 2.53, 0.00, 54.01, 58.15
CTUN, 576, 0.00, 2.37, 0.000000, 0.00, 0, -8, 576, 0
ATT, 0.00, 0.10, 4.33, 2.78, 0.00, 54.12, 58.15
CTUN, 577, 0.00, 2.27, 0.000000, 0.00, 0, -8, 578, 0
GPS, 3, 282813800, 11, 1.59, -33.7840582, 151.0682303, 2.37, 87.90, 0.16, 80.22
ATT, 0.00, 0.09, 6.21, 3.06, 0.00, 54.18, 58.15
CTUN, 577, 0.00, 2.31, 0.000000, 0.00, 0, -10, 577, 0
ATT, 0.00, -0.03, 6.56, 3.82, 0.00, 54.21, 58.15
CTUN, 576, 0.00, 2.29, 0.000000, 0.00, 0, -9, 576, 0
GPS, 3, 282814000, 11, 1.59, -33.7840582, 151.0682307, 2.34, 87.89, 0.14, 80.22
ATT, 0.00, 0.25, 6.67, 4.55, 0.00, 54.17, 58.15
CTUN, 577, 0.00, 2.26, 0.000000, 0.00, 1, -9, 578, 0
DU32, 7, 8569
CURR, 577, 71410, 1122, 1347, 4693, 48.63546
ATT, 0.00, 0.10, 7.38, 4.99, 0.00, 54.14, 58.15
CTUN, 577, 0.00, 2.26, 0.000000, 0.00, 1, -11, 578, 0
GPS, 3, 282814200, 11, 1.59, -33.7840584, 151.0682309, 2.31, 87.89, 0.12, 80.22
ATT, 0.00, -0.06, 7.14, 5.33, 0.00, 54.09, 58.15
CTUN, 577, 0.00, 2.34, 0.000000, 0.00, 1, -11, 578, 0
ATT, 0.00, 0.13, 7.14, 5.41, 0.00, 53.96, 58.15
CTUN, 577, 0.00, 2.28, 0.000000, 0.00, 1, -11, 578, 0
GPS, 3, 282814400, 11, 1.59, -33.7840587, 151.0682307, 2.29, 87.86, 0.17, 80.22
CTUN, 577, 0.00, 2.33, 0.000000, 0.00, 2, -11, 579, 0
ATT, 0.00, -0.02, 6.56, 5.42, 0.00, 53.85, 58.15
CTUN, 576, 0.00, 2.26, 0.000000, 0.00, 1, -10, 578, 0
ATT, 0.00, 0.03, 5.97, 5.04, 0.00, 53.76, 58.15
GPS, 3, 282814600, 11, 1.59, -33.7840589, 151.0682302, 2.27, 87.85, 0.30, 161.54
CTUN, 578, 0.00, 2.33, 0.000000, 0.00, 1, -11, 579, 0
ATT, 0.00, 0.05, 4.33, 4.50, 0.00, 53.68, 58.15
CTUN, 577, 0.00, 2.18, 0.000000, 0.00, 1, -10, 578, 0
GPS, 3, 282814800, 11, 1.59, -33.7840594, 151.0682294, 2.25, 87.83, 0.48, 206.70
ATT, 0.00, 0.02, 1.40, 3.19, 0.00, 53.63, 58.15
CTUN, 577, 0.00, 2.11, 0.000000, 0.00, 0, -9, 577, 0
ATT, 0.00, 0.07, 1.05, 1.67, 0.00, 53.64, 58.15
CTUN, 577, 0.00, 2.20, 0.000000, 0.00, 0, -9, 578, 0
GPS, 3, 282815000, 11, 1.59, -33.7840601, 151.0682284, 2.22, 87.79, 0.65, 219.61
ATT, 0.00, -0.15, 0.35, 0.41, 0.00, 53.76, 58.15
CTUN, 577, 0.00, 2.12, 0.000000, 0.00, 0, -9, 577, 0
DU32, 7, 8569
CURR, 577, 77186, 1123, 1357, 4693, 52.65541
ATT, -1.97, 0.00, 0.35, -0.18, 0.00, 53.89, 58.15
CTUN, 577, 0.00, 2.20, 0.000000, 0.00, 0, -9, 577, 0
GPS, 3, 282815200, 11, 1.59, -33.7840608, 151.0682276, 2.19, 87.75, 0.58, 221.73
ATT, -1.51, -1.15, 0.23, -0.83, 0.00, 54.20, 58.15
CTUN, 577, 0.00, 2.18, 0.000000, 0.00, 0, -9, 577, 0
ATT, -1.51, -1.16, 0.35, -1.02, 0.00, 54.47, 58.15
CTUN, 576, 0.00, 2.04, 0.000000, 0.00, 0, -9, 577, 0
GPS, 3, 282815400, 11, 1.59, -33.7840613, 151.0682269, 2.17, 87.72, 0.52, 225.28
CTUN, 577, 0.00, 2.04, 0.000000, 0.00, 0, -9, 576, 0
ATT, -1.51, -1.03, 0.58, -0.69, 0.00, 54.77, 58.15
CTUN, 577, 0.00, 2.03, 0.000000, 0.00, 0, -9, 577, 0
ATT, -2.09, -1.16, 0.58, -0.40, 0.00, 55.05, 58.15
GPS, 3, 282815600, 11, 1.59, -33.7840617, 151.0682263, 2.14, 87.67, 0.51, 226.07
CTUN, 577, 0.00, 2.08, 0.000000, 0.00, 0, -10, 577, 0
ATT, -3.48, -1.39, 0.82, 0.06, 0.00, 55.32, 58.15
CTUN, 577, 0.00, 2.02, 0.000000, 0.00, 0, -9, 577, 0
GPS, 3, 282815800, 10, 1.77, -33.7840619, 151.0682258, 2.11, 87.62, 0.37, 229.87
ATT, -4.06, -2.26, 0.93, 0.48, 0.00, 55.53, 58.15
CTUN, 577, 0.00, 2.02, 0.000000, 0.00, 0, -10, 577, 0
ATT, -4.06, -3.07, 0.82, 0.51, 0.00, 55.73, 58.15
CTUN, 578, 0.00, 2.01, 0.000000, 0.00, 0, -10, 577, 0
GPS, 3, 282816000, 9, 2.43, -33.7840620, 151.0682254, 2.08, 87.67, 0.36, 236.30
ATT, -3.95, -3.53, 0.58, 0.69, 0.00, 55.90, 58.15
CTUN, 576, 0.00, 2.08, 0.000000, 0.00, 0, -9, 577, 0
ATT, -3.37, -3.66, 0.35, 0.82, 0.00, 56.03, 58.15
DU32, 7, 8569
CURR, 576, 82376, 1123, 1339, 4712, 56.29097
CTUN, 577, 0.00, 2.11, 0.000000, 0.00, 0, -10, 578, 0
GPS, 3, 282816200, 10, 1.77, -33.7840618, 151.0682248, 2.06, 87.68, 0.35, 247.47
ATT, 0.00, -3.48, 0.00, 0.79, 0.00, 56.18, 58.15
CTUN, 577, 0.00, 2.04, 0.000000, 0.00, 0, -11, 577, 0
ATT, 0.00, -1.92, 0.00, 0.53, 0.00, 56.20, 58.15
CTUN, 577, 0.00, 1.92, 0.000000, 0.00, 0, -11, 577, 0
GPS, 3, 282816400, 10, 1.77, -33.7840617, 151.0682241, 2.04, 87.68, 0.33, 262.97
ATT, 0.00, -1.11, 0.00, 0.58, 0.00, 56.18, 58.15
CTUN, 577, 0.00, 1.89, 0.000000, 0.00, 0, -10, 576, 0
ATT, 0.00, -0.75, 0.00, 0.33, 0.00, 56.13, 58.15
CTUN, 577, 0.00, 1.99, 0.000000, 0.00, 0, -10, 577, 0
GPS, 3, 282816600, 10, 1.77, -33.7840614, 151.0682230, 2.00, 87.75, 0.51, 283.39
ATT, 0.00, -0.58, 0.00, 0.36, 0.00, 55.97, 58.15
CTUN, 578, 0.00, 2.00, 0.000000, 0.00, 0, -10, 578, 0
ATT, 0.00, -0.41, 0.00, 0.46, 0.00, 55.72, 58.15
CTUN, 578, 0.00, 1.89, 0.000000, 0.00, 0, -9, 577, 0
GPS, 3, 282816800, 10, 1.77, -33.7840612, 151.0682223, 1.98, 87.74, 0.39, 288.35
ATT, 0.00, -0.41, 0.00, 0.51, 0.00, 55.37, 58.15
CTUN, 576, 0.00, 1.93, 0.000000, 0.00, 0, -7, 577, 0
ATT, 0.00, -0.21, 0.00, 0.65, 0.00, 54.97, 58.15
CTUN, 577, 0.00, 2.00, 0.000000, 0.00, 0, -6, 577, 0
GPS, 3, 282817000, 10, 1.77, -33.7840608, 151.0682213, 1.96, 87.75, 0.49, 290.35
ATT, 0.00, -0.06, 0.00, 0.52, 0.00, 54.60, 58.15
CTUN, 577, 0.00, 1.84, 0.000000, 0.00, 0, -5, 577, 0
DU32, 7, 8569
CURR, 576, 88148, 1120, 1358, 4693, 60.09050
ATT, 0.00, -0.19, 0.00, 0.37, 0.00, 54.37, 58.15
GPS, 3, 282817200, 10, 1.77, -33.7840607, 151.0682205, 1.94, 87.74, 0.36, 297.77
CTUN, 577, 0.00, 1.92, 0.000000, 0.00, 0, -6, 577, 0
ATT, 0.00, -0.12, 0.00, 0.21, 0.00, 54.15, 58.15
CTUN, 578, 0.00, 1.84, 0.000000, 0.00, 0, -6, 578, 0
ATT, 0.00, 0.04, 0.00, 0.09, 0.00, 53.98, 58.15
GPS, 3, 282817400, 10, 1.77, -33.7840602, 151.0682198, 1.92, 87.74, 0.37, 305.68
CTUN, 580, 0.00, 1.90, 0.000000, 0.00, 0, -5, 578, 0
ATT, 0.00, 0.18, 0.00, 0.13, 0.00, 53.78, 58.15
CTUN, 577, 0.00, 1.90, 0.000000, 0.00, 0, -6, 577, 0
ATT, 0.00, 0.13, 0.00, 0.15, 0.00, 53.58, 58.15
GPS, 3, 282817600, 10, 1.77, -33.7840596, 151.0682192, 1.91, 87.71, 0.39, 307.20
CTUN, 577, 0.00, 1.90, 0.000000, 0.00, 0, -5, 580, 0
ATT, 0.00, 0.11, 0.00, 0.15, 0.00, 53.39, 58.15
CTUN, 577, 0.00, 1.90, 0.000000, 0.00, 0, -5, 577, 0
ATT, 0.00, 0.14, 0.00, 0.15, 0.00, 53.20, 58.15
GPS, 3, 282817800, 10, 1.77, -33.7840590, 151.0682188, 1.89, 87.72, 0.34, 314.25
CTUN, 576, 0.00, 1.92, 0.000000, 0.00, 0, -4, 577, 0
ATT, 0.11, 0.18, 0.00, 0.23, 0.00, 53.05, 58.15
CTUN, 577, 0.00, 1.91, 0.000000, 0.00, 0, -5, 577, 0
ATT, 0.34, 0.48, 0.00, 0.19, 0.00, 52.88, 58.15
GPS, 3, 282818000, 10, 1.77, -33.7840586, 151.0682182, 1.89, 87.75, 0.34, 305.06
CTUN, 577, 0.00, 1.81, 0.000000, 0.00, 0, -5, 576, 0
ATT, 0.57, 0.71, 0.00, 0.37, 0.00, 52.70, 58.15
CTUN, 577, 0.00, 1.81, 0.000000, 0.00, 0, -6, 577, 0
DU32, 7, 8569
CURR, 577, 93921, 1118, 1354, 4712, 63.95388
ATT, 0.92, 0.88, 0.00, 0.50, 0.00, 52.53, 58.15
GPS, 3, 282818200, 10, 1.77, -33.7840581, 151.0682180, 1.87, 87.76, 0.31, 319.36
CTUN, 577, 0.00, 1.79, 0.000000, 0.00, 0, -6, 577, 0
ATT, 0.57, 1.14, 0.00, 0.41, 0.00, 52.36, 58.15
CTUN, 577, 0.00, 1.83, 0.000000, 0.00, 0, -7, 577, 0
ATT, 0.00, 1.23, 0.00, 0.47, 0.00, 52.24, 58.15
GPS, 3, 282818400, 10, 1.77, -33.7840577, 151.0682175, 1.85, 87.77, 0.31, 319.36
CTUN, 577, 0.00, 1.81, 0.000000, 0.00, 0, -6, 577, 0
ATT, 0.00, 0.96, 0.00, 0.51, 0.00, 52.19, 58.15
CTUN, 577, 0.00, 1.81, 0.000000, 0.00, 0, -7, 577, 0
ATT, 0.00, 0.65, 0.00, 0.44, 0.00, 52.22, 58.15
GPS, 3, 282818600, 10, 1.77, -33.7840572, 151.0682173, 1.83, 87.79, 0.27, 319.36
CTUN, 577, 0.00, 1.85, 0.000000, 0.00, 0, -7, 577, 0
ATT, 0.00, 0.56, 0.00, 0.35, 0.00, 52.28, 58.15
CTUN, 576, 0.00, 1.91, 0.000000, 0.00, 0, -7, 577, 0
ATT, 0.00, 0.48, 0.00, 0.30, 0.00, 52.41, 58.15
GPS, 3, 282818800, 10, 1.77, -33.7840570, 151.0682170, 1.82, 87.78, 0.16, 319.36
CTUN, 577, 0.00, 1.81, 0.000000, 0.00, 0, -8, 577, 0
ATT, 0.00, 0.43, 0.00, 0.30, 0.00, 52.58, 58.15
CTUN, 577, 0.00, 1.85, 0.000000, 0.00, 0, -9, 577, 0
GPS, 3, 282819000, 10, 1.77, -33.7840568, 151.0682167, 1.80, 87.76, 0.20, 319.36
ATT, 0.00, 0.39, 0.00, 0.28, 0.00, 52.76, 58.15
CTUN, 577, 0.00, 1.77, 0.000000, 0.00, 0, -9, 577, 0
ATT, 0.00, 0.35, 0.00, 0.26, 0.00, 52.92, 58.15
DU32, 7, 8569
CURR, 577, 99114, 1114, 1337, 4693, 67.48036
CTUN, 577, 0.00, 1.84, 0.000000, 0.00, 0, -11, 577, 0
GPS, 3, 282819200, 9, 1.83, -33.7840565, 151.0682165, 1.78, 87.77, 0.15, 319.36
ATT, 0.00, 0.21, 0.00, 0.19, 0.00, 53.06, 58.15
CTUN, 577, 0.00, 1.71, 0.000000, 0.00, 0, -10, 576, 0
ATT, 0.00, 0.14, 0.00, 0.17, 0.00, 53.13, 58.15
CTUN, 576, 0.00, 1.74, 0.000000, 0.00, 0, -12, 578, 0
GPS, 3, 282819400, 9, 1.83, -33.7840561, 151.0682163, 1.76, 87.79, 0.13, 319.36
ATT, 0.00, 0.21, 0.00, 0.17, 0.00, 53.20, 58.15
CTUN, 576, 0.00, 1.80, 0.000000, 0.00, 0, -12, 576, 0
ATT, 0.00, 0.15, 0.00, 0.15, 0.00, 53.26, 58.15
CTUN, 576, 0.00, 1.74, 0.000000, 0.00, 0, -13, 576, 0
GPS, 3, 282819600, 9, 1.83, -33.7840558, 151.0682162, 1.73, 87.79, 0.08, 319.36
ATT, 0.00, 0.11, 0.00, 0.13, 0.00, 53.30, 58.15
CTUN, 576, 0.00, 1.88, 0.000000, 0.00, 0, -13, 576, 0
ATT, 0.00, 0.13, 0.00, 0.11, 0.00, 53.33, 58.15
CTUN, 576, 0.00, 1.72, 0.000000, 0.00, 0, -14, 576, 0
GPS, 3, 282819800, 9, 1.83, -33.7840556, 151.0682159, 1.72, 87.79, 0.09, 319.36
ATT, 0.00, 0.13, 0.00, 0.09, 0.00, 53.36, 58.15
CTUN, 576, 0.00, 1.79, 0.000000, 0.00, 0, -15, 576, 0
ATT, 0.00, 0.05, 0.00, 0.06, 0.00, 53.39, 58.15
CTUN, 577, 0.00, 1.69, 0.000000, 0.00, 0, -15, 576, 0
GPS, 3, 282820000, 10, 1.77, -33.7840554, 151.0682158, 1.69, 87.77, 0.13, 319.36
ATT, 0.00, 0.07, 0.00, 0.08, 0.00, 53.43, 58.15
CTUN, 576, 0.00, 1.66, 0.000000, 0.00, 0, -16, 576, 0
ATT, 1.03, 0.06, 0.00, 0.06, 0.00, 53.47, 58.15
DU32, 7, 8569
CURR, 581, 104877, 1118, 1343, 4712, 71.20246
CTUN, 580, 0.00, 1.60, 0.000000, 0.00, 0, -17, 581, 0
GPS, 3, 282820200, 10, 1.77, -33.7840552, 151.0682157, 1.65, 87.76, 0.08, 319.36
ATT, 0.92, 0.33, 0.00, -0.11, 0.00, 53.54, 58.15
CTUN, 583, 0.00, 1.65, 0.000000, 0.00, 0, -18, 583, 0
ATT, 0.46, 0.86, 0.00, 0.03, 0.00, 53.52, 58.15
CTUN, 583, 0.00, 1.63, 0.000000, 0.00, 0, -17, 583, 0
GPS, 3, 282820400, 10, 1.77, -33.7840551, 151.0682158, 1.62, 87.74, 0.06, 319.36
ATT, 0.57, 0.75, 0.00, 0.04, 0.00, 53.52, 58.15
CTUN, 582, 0.00, 1.46, 0.000000, 0.00, 0, -17, 581, 0
ATT, 0.00, 0.74, 0.00, 0.06, 0.00, 53.50, 58.15
CTUN, 583, 0.00, 1.53, 0.000000, 0.00, 0, -18, 582, 0
GPS, 3, 282820600, 10, 1.77, -33.7840551, 151.0682157, 1.57, 87.70, 0.03, 319.36
ATT, 0.00, 0.66, 0.00, 0.17, 0.00, 53.47, 58.15
CTUN, 582, 0.00, 1.50, 0.000000, 0.00, 0, -18, 584, 0
ATT, 0.00, 0.42, 0.00, 0.20, 0.00, 53.43, 58.15
PM, 0, 0, 50, 0, 1000, 10416, 9, 4
CTUN, 583, 0.00, 1.59, 0.000000, 0.00, 0, -18, 585, 0
GPS, 3, 282820800, 10, 1.77, -33.7840551, 151.0682157, 1.53, 87.67, 0.02, 319.36
ATT, 0.00, 0.39, 0.00, 0.22, 0.00, 53.39, 58.15
CTUN, 583, 0.00, 1.60, 0.000000, 0.00, 0, -17, 583, 0
ATT, 0.00, 0.40, 0.00, 0.31, 0.00, 53.32, 58.15
CTUN, 583, 0.00, 1.63, 0.000000, 0.00, 0, -16, 583, 0
GPS, 3, 282821000, 10, 1.77, -33.7840552, 151.0682158, 1.50, 87.64, 0.06, 319.36
ATT, 0.00, 0.36, 0.00, 0.18, 0.00, 53.24, 58.15
CTUN, 583, 0.00, 1.57, 0.000000, 0.00, 0, -16, 583, 0
ATT, 0.00, 0.40, 0.00, 0.20, 0.00, 53.20, 58.15
DU32, 7, 8569
CURR, 582, 110704, 1114, 1365, 4712, 75.06958
CTUN, 583, 0.00, 1.59, 0.000000, 0.00, 0, -15, 583, 0
GPS, 3, 282821200, 10, 1.77, -33.7840554, 151.0682159, 1.48, 87.59, 0.06, 319.36
ATT, 0.00, 0.60, 0.00, 0.31, 0.00, 53.17, 58.15
CTUN, 581, 0.00, 1.56, 0.000000, 0.00, 0, -14, 581, 0
ATT, 0.00, 0.53, 0.00, 0.29, 0.00, 53.10, 58.15
CTUN, 583, 0.00, 1.51, 0.000000, 0.00, 0, -14, 582, 0
GPS, 3, 282821400, 9, 1.83, -33.7840556, 151.0682159, 1.46, 87.57, 0.08, 319.36
ATT, 0.00, 0.62, 0.00, 0.23, 0.00, 53.05, 58.15
CTUN, 581, 0.00, 1.47, 0.000000, 0.00, 0, -14, 583, 0
ATT, 0.00, 0.60, 0.00, 0.25, 0.00, 53.04, 58.15
CTUN, 583, 0.00, 1.43, 0.000000, 0.00, 0, -13, 582, 0
GPS, 3, 282821600, 9, 1.83, -33.7840556, 151.0682159, 1.44, 87.55, 0.05, 319.36
ATT, 0.00, 0.51, 0.00, 0.24, 0.00, 53.07, 58.15
CTUN, 584, 0.00, 1.41, 0.000000, 0.00, 0, -13, 583, 0
ATT, 0.00, 0.41, 0.00, 0.15, 0.00, 53.12, 58.15
CTUN, 584, 0.00, 1.44, 0.000000, 0.00, 0, -13, 583, 0
GPS, 3, 282821800, 9, 1.83, -33.7840557, 151.0682160, 1.41, 87.53, 0.08, 319.36
ATT, 0.00, 0.43, 0.00, 0.10, 0.00, 53.17, 58.15
CTUN, 583, 0.00, 1.34, 0.000000, 0.00, 0, -14, 584, 0
ATT, 0.00, 0.44, 0.00, 0.04, 0.00, 53.18, 58.15
CTUN, 583, 0.00, 1.50, 0.000000, 0.00, 0, -13, 583, 0
GPS, 3, 282822000, 10, 1.77, -33.7840562, 151.0682160, 1.38, 87.55, 0.13, 319.36
ATT, 0.00, 0.33, 0.00, 0.00, 0.00, 53.13, 58.15
CTUN, 582, 0.00, 1.44, 0.000000, 0.00, 0, -15, 582, 0
ATT, 0.00, 0.44, 0.00, -0.01, 0.00, 53.03, 58.15
DU32, 7, 8569
CURR, 584, 116532, 1108, 1360, 4712, 78.85967
CTUN, 583, 0.00, 1.45, 0.000000, 0.00, 0, -14, 583, 0
GPS, 3, 282822200, 10, 1.77, -33.7840565, 151.0682161, 1.36, 87.55, 0.16, 319.36
ATT, 0.00, 0.32, 0.00, 0.10, 0.00, 52.88, 58.15
CTUN, 582, 0.00, 1.37, 0.000000, 0.00, 0, -15, 582, 0
ATT, 0.00, 0.31, 0.00, 0.07, 0.00, 52.74, 58.15
CTUN, 584, 0.00, 1.40, 0.000000, 0.00, 0, -16, 584, 0
GPS, 3, 282822400, 10, 1.77, -33.7840568, 151.0682162, 1.34, 87.58, 0.14, 319.36
ATT, 0.00, 0.24, 0.00, 0.09, 0.00, 52.67, 58.15
CTUN, 583, 0.00, 1.38, 0.000000, 0.00, 0, -15, 583, 0
ATT, 0.00, 0.05, 0.00, 0.02, 0.00, 52.62, 58.15
GPS, 3, 282822600, 10, 1.77, -33.7840571, 151.0682164, 1.32, 87.56, 0.16, 319.36
CTUN, 592, 0.00, 1.38, 0.000000, 0.00, 0, -15, 588, 0
ATT, 0.00, 0.01, 0.00, -0.04, 0.00, 52.59, 58.15
CTUN, 595, 0.00, 1.31, 0.000000, 0.00, 0, -15, 595, 0
ATT, 0.00, -0.11, 0.00, 0.00, 0.00, 52.53, 58.15
GPS, 3, 282822800, 9, 1.82, -33.7840573, 151.0682167, 1.29, 87.55, 0.19, 319.36
CTUN, 594, 0.00, 1.29, 0.000000, 0.00, 0, -14, 596, 0
ATT, 0.00, -0.08, 0.00, -0.01, 0.00, 52.42, 58.15
CTUN, 594, 0.00, 1.37, 0.000000, 0.00, 0, -11, 594, 0
ATT, 0.00, -0.11, 0.00, 0.09, 0.00, 52.30, 58.15
GPS, 3, 282823000, 9, 1.82, -33.7840572, 151.0682168, 1.27, 87.59, 0.16, 319.36
CTUN, 594, 0.00, 1.35, 0.000000, 0.00, 0, -10, 594, 0
ATT, 0.00, -0.03, 0.00, 0.18, 0.00, 52.13, 58.15
CTUN, 594, 0.00, 1.37, 0.000000, 0.00, 0, -7, 594, 0
DU32, 7, 8569
CURR, 594, 122422, 1108, 1421, 4693, 82.99310
GPS, 3, 282823200, 9, 1.82, -33.7840570, 151.0682170, 1.26, 87.68, 0.16, 319.36
ATT, 0.00, 0.01, 0.00, 0.19, 0.00, 52.02, 58.15
CTUN, 594, 0.00, 1.27, 0.000000, 0.00, 0, -6, 594, 0
ATT, 0.00, 0.00, 0.00, 0.16, 0.00, 51.97, 58.15
CTUN, 592, 0.00, 1.29, 0.000000, 0.00, 0, -4, 594, 0
GPS, 3, 282823400, 9, 1.82, -33.7840571, 151.0682171, 1.26, 87.71, 0.15, 319.36
CTUN, 592, 0.00, 1.38, 0.000000, 0.00, 0, -2, 594, 0
ATT, 0.00, -0.04, 0.00, 0.19, 0.00, 51.99, 58.15
CTUN, 594, 0.00, 1.33, 0.000000, 0.00, 0, 0, 594, 0
ATT, 0.00, 0.03, 0.00, 0.20, 0.00, 52.03, 58.15
GPS, 3, 282823600, 9, 1.82, -33.7840573, 151.0682176, 1.27, 87.73, 0.21, 319.36
CTUN, 594, 0.00, 1.31, 0.000000, 0.00, 0, 1, 594, 0
ATT, 0.00, -0.04, 0.00, 0.34, 0.00, 52.14, 58.15
CTUN, 594, 0.00, 1.35, 0.000000, 0.00, 0, 4, 594, 0
ATT, 0.00, -0.05, 0.00, 0.38, 0.00, 52.24, 58.15
GPS, 3, 282823800, 9, 1.82, -33.7840574, 151.0682180, 1.28, 87.78, 0.20, 319.36
CTUN, 594, 0.00, 1.36, 0.000000, 0.00, 0, 5, 594, 0
ATT, 0.00, -0.10, 0.00, 0.35, 0.00, 52.36, 58.15
CTUN, 592, 0.00, 1.35, 0.000000, 0.00, 0, 7, 592, 0
ATT, 0.00, -0.20, 0.00, 0.38, 0.00, 52.49, 58.15
GPS, 3, 282824000, 9, 1.82, -33.7840575, 151.0682182, 1.30, 87.86, 0.12, 319.36
CTUN, 592, 0.00, 1.38, 0.000000, 0.00, 0, 8, 592, 0
ATT, 0.00, -0.22, 0.00, 0.40, 0.00, 52.63, 58.15
CTUN, 592, 0.00, 1.34, 0.000000, 0.00, 0, 9, 592, 0
DU32, 7, 8569
CURR, 592, 127762, 1106, 1402, 4693, 86.91276
GPS, 3, 282824200, 9, 1.82, -33.7840576, 151.0682183, 1.33, 87.99, 0.14, 319.36
ATT, 0.00, -0.27, 0.00, 0.41, 0.00, 52.74, 58.15
CTUN, 592, 0.00, 1.37, 0.000000, 0.00, 0, 10, 592, 0
ATT, 0.00, -0.24, 0.00, 0.41, 0.00, 52.79, 58.15
CTUN, 592, 0.00, 1.39, 0.000000, 0.00, 0, 11, 592, 0
GPS, 3, 282824400, 9, 1.82, -33.7840579, 151.0682184, 1.35, 88.09, 0.19, 319.36
CTUN, 592, 0.00, 1.44, 0.000000, 0.00, 0, 12, 592, 0
ATT, 0.00, -0.20, 0.00, 0.33, 0.00, 52.82, 58.15
CTUN, 595, 0.00, 1.39, 0.000000, 0.00, 0, 12, 595, 0
ATT, 0.00, -0.22, 0.00, 0.36, 0.00, 52.84, 58.15
GPS, 3, 282824600, 10, 1.63, -33.7840580, 151.0682185, 1.39, 88.18, 0.13, 319.36
CTUN, 592, 0.00, 1.53, 0.000000, 0.00, 0, 14, 592, 0
ATT, 0.00, -0.33, 0.00, 0.15, 0.00, 52.88, 58.15
CTUN, 592, 0.00, 1.35, 0.000000, 0.00, 0, 14, 592, 0
ATT, 0.00, -0.39, 0.00, 0.00, 0.00, 52.94, 58.15
GPS, 3, 282824800, 10, 1.63, -33.7840584, 151.0682186, 1.42, 88.24, 0.10, 319.36
CTUN, 594, 0.00, 1.45, 0.000000, 0.00, 0, 15, 594, 0
ATT, 0.00, -0.33, 0.00, -0.05, 0.00, 53.03, 58.15
CTUN, 594, 0.00, 1.48, 0.000000, 0.00, 0, 15, 594, 0
ATT, 0.00, -0.34, 0.00, -0.17, 0.00, 53.19, 58.15
GPS, 3, 282825000, 11, 1.59, -33.7840587, 151.0682188, 1.45, 88.29, 0.14, 319.36
CTUN, 594, 0.00, 1.43, 0.000000, 0.00, 0, 16, 594, 0
ATT, 0.00, -0.49, 0.00, -0.25, 0.00, 53.38, 58.15
CTUN, 594, 0.00, 1.48, 0.000000, 0.00, 0, 16, 594, 0
DU32, 7, 8569
CURR, 594, 133101, 1106, 1393, 4693, 90.79980
GPS, 3, 282825200, 11, 1.59, -33.7840588, 151.0682191, 1.49, 88.33, 0.11, 319.36
ATT, 0.00, -0.42, 0.00, -0.17, 0.00, 53.53, 58.15
CTUN, 594, 0.00, 1.60, 0.000000, 0.00, 0, 17, 594, 0
ATT, 0.00, -0.44, 0.00, -0.06, 0.00, 53.60, 58.15
CTUN, 594, 0.00, 1.47, 0.000000, 0.00, 0, 17, 594, 0
GPS, 3, 282825400, 10, 1.63, -33.7840587, 151.0682195, 1.53, 88.38, 0.10, 319.36
ATT, 0.00, -0.54, 0.00, -0.01, 0.00, 53.65, 58.15
CTUN, 591, 0.00, 1.52, 0.000000, 0.00, 0, 18, 594, 0
ATT, 0.00, -0.51, 0.00, 0.00, 0.00, 53.65, 58.15
CTUN, 595, 0.00, 1.56, 0.000000, 0.00, 0, 20, 595, 0
GPS, 3, 282825600, 10, 1.63, -33.7840585, 151.0682200, 1.56, 88.46, 0.12, 319.36
CTUN, 588, 0.00, 1.69, 0.000000, 0.00, 0, 20, 588, 0
ATT, 0.00, -0.44, 0.00, 0.12, 0.00, 53.61, 58.15
CTUN, 584, 0.00, 1.55, 0.000000, 0.00, 0, 21, 583, 0
ATT, 0.00, -0.39, 0.00, 0.23, 0.00, 53.56, 58.15
GPS, 3, 282825800, 11, 1.59, -33.7840582, 151.0682204, 1.61, 88.55, 0.05, 319.36
CTUN, 584, 0.00, 1.75, 0.000000, 0.00, 0, 20, 584, 0
ATT, 0.00, -0.39, 0.00, 0.23, 0.00, 53.53, 58.15
CTUN, 585, 0.00, 1.64, 0.000000, 0.00, 0, 19, 584, 0
ATT, 0.00, -0.38, 0.00, 0.23, 0.00, 53.51, 58.15
GPS, 3, 282826000, 11, 1.59, -33.7840580, 151.0682207, 1.66, 88.63, 0.04, 319.36
CTUN, 585, 0.00, 1.60, 0.000000, 0.00, 0, 18, 583, 0
ATT, 0.00, -0.30, 0.00, 0.29, 0.00, 53.48, 58.15
CTUN, 584, 0.00, 1.68, 0.000000, 0.00, 0, 16, 583, 0
ATT, 0.00, -0.25, 0.00, 0.20, 0.00, 53.46, 58.15
DU32, 7, 8569
CURR, 583, 138392, 1110, 1364, 4732, 94.44221
GPS, 3, 282826200, 11, 1.59, -33.7840579, 151.0682210, 1.69, 88.68, 0.09, 319.36
CTUN, 583, 0.00, 1.72, 0.000000, 0.00, 0, 16, 583, 0
ATT, 0.00, -0.33, 0.00, 0.01, 0.00, 53.45, 58.15
CTUN, 584, 0.00, 1.80, 0.000000, 0.00, 0, 15, 584, 0
ATT, 0.00, -0.31, 0.00, -0.05, 0.00, 53.48, 58.15
GPS, 3, 282826400, 11, 1.59, -33.7840576, 151.0682213, 1.72, 88.76, 0.03, 319.36
CTUN, 584, 0.00, 1.76, 0.000000, 0.00, 0, 13, 585, 0
ATT, 0.00, -0.25, 0.00, -0.06, 0.00, 53.51, 58.15
CTUN, 585, 0.00, 1.76, 0.000000, 0.00, 0, 12, 584, 0
ATT, 0.00, -0.21, 0.00, -0.08, 0.00, 53.53, 58.15
GPS, 3, 282826600, 11, 1.59, -33.7840572, 151.0682215, 1.75, 88.86, 0.02, 319.36
CTUN, 584, 0.00, 1.79, 0.000000, 0.00, 0, 12, 584, 0
ATT, 0.00, -0.27, 0.00, -0.04, 0.00, 53.63, 58.15
CTUN, 584, 0.00, 1.78, 0.000000, 0.00, 0, 11, 584, 0
ATT, 0.00, -0.35, 0.00, -0.11, 0.00, 53.71, 58.15
GPS, 3, 282826800, 11, 1.59, -33.7840568, 151.0682219, 1.78, 88.95, 0.05, 319.36
CTUN, 583, 0.00, 1.77, 0.000000, 0.00, 0, 10, 584, 0
ATT, 0.00, -0.23, 0.00, -0.11, 0.00, 53.76, 58.15
CTUN, 584, 0.00, 1.74, 0.000000, 0.00, 0, 9, 584, 0
ATT, 0.00, -0.13, 0.00, -0.05, 0.00, 53.78, 58.15
GPS, 3, 282827000, 11, 1.59, -33.7840564, 151.0682222, 1.80, 89.01, 0.05, 319.36
CTUN, 584, 0.00, 1.87, 0.000000, 0.00, 0, 8, 585, 0
ATT, 0.00, -0.08, 0.00, -0.01, 0.00, 53.80, 58.15
CTUN, 584, 0.00, 1.80, 0.000000, 0.00, 0, 7, 584, 0
ATT, 0.00, -0.07, 0.00, 0.00, 0.00, 53.80, 58.15
DU32, 7, 8569
CURR, 585, 144230, 1107, 1348, 4732, 98.21501
GPS, 3, 282827200, 11, 1.59, -33.7840562, 151.0682224, 1.81, 89.05, 0.03, 319.36
CTUN, 585, 0.00, 1.91, 0.000000, 0.00, 0, 6, 585, 0
ATT, 0.00, -0.01, 0.00, 0.08, 0.00, 53.79, 58.15
CTUN, 584, 0.00, 1.84, 0.000000, 0.00, 0, 5, 584, 0
ATT, 0.00, -0.03, 0.00, 0.09, 0.00, 53.77, 58.15
GPS, 3, 282827400, 11, 1.59, -33.7840560, 151.0682226, 1.83, 89.08, 0.03, 319.36
CTUN, 585, 0.00, 1.73, 0.000000, 0.00, 0, 4, 584, 0
ATT, 0.00, -0.17, 0.00, 0.07, 0.00, 53.77, 58.15
CTUN, 584, 0.00, 1.84, 0.000000, 0.00, 0, 2, 584, 0
ATT, 0.00, -0.17, 0.00, 0.11, 0.00, 53.80, 58.15
GPS, 3, 282827600, 11, 1.59, -33.7840558, 151.0682227, 1.83, 89.11, 0.01, 319.36
CTUN, 584, 0.00, 1.80, 0.000000, 0.00, 0, 2, 584, 0
ATT, 0.00, -0.13, 0.00, 0.18, 0.00, 53.82, 58.15
CTUN, 583, 0.00, 1.82, 0.000000, 0.00, 0, 0, 583, 0
ATT, 0.00, -0.24, 0.00, 0.05, 0.00, 53.88, 58.15
GPS, 3, 282827800, 11, 1.59, -33.7840554, 151.0682229, 1.83, 89.10, 0.01, 319.36
CTUN, 584, 0.00, 1.87, 0.000000, 0.00, 0, 0, 584, 0
ATT, 0.00, -0.36, 0.00, 0.00, 0.00, 53.95, 58.15
CTUN, 584, 0.00, 1.86, 0.000000, 0.00, 0, 0, 584, 0
ATT, 0.00, -0.17, 0.00, -0.02, 0.00, 54.00, 58.15
GPS, 3, 282828000, 11, 1.59, -33.7840552, 151.0682229, 1.83, 89.11, 0.02, 319.36
CTUN, 584, 0.00, 1.88, 0.000000, 0.00, 0, 0, 584, 0
ATT, 0.00, -0.21, 0.00, -0.01, 0.00, 54.07, 58.15
CTUN, 584, 0.00, 1.90, 0.000000, 0.00, 0, -1, 584, 0
ATT, 0.00, -0.28, 0.00, -0.09, 0.00, 54.14, 58.15
DU32, 7, 8569
CURR, 584, 150071, 1108, 1359, 4712, 102.0674
GPS, 3, 282828200, 11, 1.59, -33.7840550, 151.0682230, 1.84, 89.11, 0.03, 319.36
CTUN, 584, 0.00, 1.86, 0.000000, 0.00, 0, -1, 584, 0
ATT, 0.00, -0.20, 0.00, -0.14, 0.00, 54.21, 58.15
CTUN, 583, 0.00, 1.87, 0.000000, 0.00, 0, -1, 585, 0
ATT, 0.00, -0.24, 0.00, -0.15, 0.00, 54.27, 58.15
GPS, 3, 282828400, 11, 1.59, -33.7840547, 151.0682231, 1.84, 89.11, 0.04, 319.36
CTUN, 583, 0.00, 1.76, 0.000000, 0.00, 0, -1, 583, 0
ATT, 0.00, -0.17, 0.00, -0.23, 0.00, 54.35, 58.15
CTUN, 583, 0.00, 1.88, 0.000000, 0.00, 0, -2, 583, 0
ATT, 0.00, -0.14, 0.00, -0.30, 0.00, 54.45, 58.15
GPS, 3, 282828600, 11, 1.59, -33.7840544, 151.0682232, 1.83, 89.12, 0.04, 319.36
CTUN, 583, 0.00, 1.77, 0.000000, 0.00, 0, -2, 583, 0
ATT, 0.00, -0.16, 0.00, -0.32, 0.00, 54.56, 58.15
CTUN, 583, 0.00, 1.90, 0.000000, 0.00, 0, -2, 583, 0
ATT, 0.00, -0.04, 0.00, -0.26, 0.00, 54.63, 58.15
GPS, 3, 282828800, 11, 1.59, -33.7840542, 151.0682233, 1.83, 89.14, 0.05, 319.36
CTUN, 583, 0.00, 1.80, 0.000000, 0.00, 0, -4, 583, 0
ATT, 0.00, 0.04, 0.00, -0.22, 0.00, 54.64, 58.15
CTUN, 583, 0.00, 1.86, 0.000000, 0.00, 0, -3, 583, 0
ATT, 0.00, 0.05, 0.00, -0.23, 0.00, 54.62, 58.15
GPS, 3, 282829000, 11, 1.59, -33.7840539, 151.0682234, 1.82, 89.15, 0.07, 319.36
CTUN, 583, 0.00, 1.77, 0.000000, 0.00, 0, -4, 583, 0
ATT, 0.00, 0.06, 0.00, -0.19, 0.00, 54.54, 58.15
CTUN, 583, 0.00, 1.84, 0.000000, 0.00, 0, -4, 583, 0
ATT, 0.00, 0.09, 0.00, -0.16, 0.00, 54.44, 58.15
GPS, 3, 282829200, 11, 1.59, -33.7840537, 151.0682235, 1.81, 89.15, 0.07, 319.36
DU32, 7, 8569
CURR, 583, 155904, 1107, 1350, 4732, 105.8581
CTUN, 583, 0.00, 1.84, 0.000000, 0.00, 0, -4, 583, 0
ATT, 0.00, 0.03, 0.00, -0.12, 0.00, 54.38, 58.15
CTUN, 585, 0.00, 1.73, 0.000000, 0.00, 0, -5, 583, 0
ATT, 0.00, -0.06, 0.00, -0.11, 0.00, 54.34, 58.15
GPS, 3, 282829400, 11, 1.59, -33.7840535, 151.0682236, 1.80, 89.16, 0.10, 319.36
CTUN, 586, 0.00, 1.73, 0.000000, 0.00, 0, -5, 584, 0
ATT, 0.00, -0.16, 0.00, -0.10, 0.00, 54.27, 58.15
CTUN, 605, 0.00, 1.76, 0.000000, 0.00, 0, -7, 604, 0
ATT, 0.00, -0.23, 0.00, -0.18, 0.00, 54.22, 58.15
GPS, 3, 282829600, 11, 1.59, -33.7840533, 151.0682238, 1.78, 89.14, 0.08, 319.36
CTUN, 603, 0.00, 1.66, 0.000000, 0.00, 0, -4, 603, 0
ATT, 0.00, -0.29, 0.00, -0.27, 0.00, 54.12, 58.15
CTUN, 603, 0.00, 1.72, 0.000000, 0.00, 0, 0, 602, 0
GPS, 3, 282829800, 11, 1.59, -33.7840531, 151.0682239, 1.77, 89.11, 0.12, 319.36
ATT, 0.00, -0.22, 0.00, -0.21, 0.00, 54.00, 58.15
CTUN, 603, 0.00, 1.79, 0.000000, 0.00, 0, 2, 603, 0
ATT, 0.00, -0.18, 0.00, -0.17, 0.00, 53.93, 58.15
CTUN, 603, 0.00, 1.75, 0.000000, 0.00, 0, 6, 603, 0
GPS, 3, 282830000, 11, 1.59, -33.7840529, 151.0682240, 1.78, 89.09, 0.10, 319.36
ATT, 0.00, -0.26, 0.00, -0.15, 0.00, 53.87, 58.15
CTUN, 602, 0.00, 1.70, 0.000000, 0.00, 0, 9, 603, 0
ATT, 0.00, -0.14, 0.00, -0.21, 0.00, 53.85, 58.15
CTUN, 603, 0.00, 1.71, 0.000000, 0.00, 0, 11, 603, 0
GPS, 3, 282830200, 11, 1.59, -33.7840526, 151.0682240, 1.79, 89.09, 0.15, 319.36
DU32, 7, 8569
CURR, 603, 161874, 1105, 1433, 4752, 110.0325
CTUN, 603, 0.00, 1.64, 0.000000, 0.00, 0, 13, 603, 0
ATT, 0.00, -0.06, 0.00, -0.15, 0.00, 53.83, 58.15
CTUN, 603, 0.00, 1.76, 0.000000, 0.00, 0, 16, 603, 0
ATT, 0.00, -0.04, 0.00, -0.19, 0.00, 53.83, 58.15
GPS, 3, 282830400, 11, 1.59, -33.7840524, 151.0682240, 1.81, 89.10, 0.13, 319.36
CTUN, 603, 0.00, 1.79, 0.000000, 0.00, 0, 18, 603, 0
ATT, 0.00, -0.07, 0.00, -0.18, 0.00, 53.86, 58.15
CTUN, 589, 0.00, 1.84, 0.000000, 0.00, 0, 21, 589, 0
ATT, 0.00, -0.04, 0.00, -0.12, 0.00, 53.87, 58.15
GPS, 3, 282830600, 11, 1.59, -33.7840521, 151.0682239, 1.85, 89.11, 0.16, 319.36
CTUN, 590, 0.00, 1.85, 0.000000, 0.00, 0, 21, 588, 0
ATT, 0.00, 0.01, 0.00, 0.00, 0.00, 53.95, 58.15
CTUN, 589, 0.00, 1.85, 0.000000, 0.00, 0, 21, 589, 0
PM, 0, 0, 50, 0, 1001, 10452, 10, 4
GPS, 3, 282830800, 11, 1.59, -33.7840518, 151.0682238, 1.89, 89.13, 0.14, 319.36
ATT, 0.57, 0.04, 0.00, -0.05, 0.00, 54.12, 58.15
CTUN, 587, 0.00, 1.77, 0.000000, 0.00, 0, 20, 589, 0
ATT, 0.57, 0.24, 0.00, -0.07, 0.00, 54.23, 58.15
CTUN, 588, 0.00, 1.92, 0.000000, 0.00, 0, 19, 588, 0
GPS, 3, 282831000, 11, 1.59, -33.7840515, 151.0682238, 1.92, 89.14, 0.16, 319.36
ATT, 0.57, 0.20, 0.00, 0.05, 0.00, 54.33, 58.15
CTUN, 589, 0.00, 1.91, 0.000000, 0.00, 0, 19, 589, 0
ATT, 0.57, 0.21, 0.00, -0.02, 0.00, 54.37, 58.15
CTUN, 590, 0.00, 1.93, 0.000000, 0.00, 0, 17, 590, 0
GPS, 3, 282831200, 11, 1.59, -33.7840512, 151.0682236, 1.96, 89.18, 0.18, 319.36
DU32, 7, 8569
CURR, 589, 167200, 1108, 1371, 4732, 113.8469
ATT, 0.00, 0.12, 0.00, 0.03, 0.00, 54.36, 58.15
CTUN, 589, 0.00, 1.90, 0.000000, 0.00, 0, 17, 589, 0
ATT, 0.00, -0.01, 0.00, 0.10, 0.00, 54.33, 58.15
CTUN, 589, 0.00, 1.99, 0.000000, 0.00, 0, 15, 589, 0
GPS, 3, 282831400, 11, 1.59, -33.7840508, 151.0682236, 1.98, 89.21, 0.19, 319.36
ATT, 0.00, -0.06, 0.00, 0.08, 0.00, 54.31, 58.15
CTUN, 589, 0.00, 1.85, 0.000000, 0.00, 0, 16, 589, 0
ATT, 0.00, -0.08, 0.00, 0.12, 0.00, 54.23, 58.15
CTUN, 589, 0.00, 1.93, 0.000000, 0.00, 0, 15, 588, 0
GPS, 3, 282831600, 11, 1.59, -33.7840507, 151.0682235, 2.01, 89.24, 0.12, 319.36
ATT, 0.46, 0.10, 0.00, 0.13, 0.00, 54.16, 58.15
CTUN, 589, 0.00, 1.96, 0.000000, 0.00, 0, 16, 589, 0
ATT, 0.11, 0.36, 0.00, 0.26, 0.00, 54.07, 58.15
CTUN, 588, 0.00, 2.05, 0.000000, 0.00, 0, 15, 588, 0
