dump 1

ArduCopter V3.1-rc4.1
Free RAM: 1219
APM 2
FMT, 128, 89, FMT, BBnNZ, Type,Length,Name,Format
FMT, 129, 23, PARM, Nf, Name,Value
FMT, 130, 35, GPS, BIBcLLeeEe, Status,Time,NSats,HDop,Lat,Lng,RelAlt,Alt,Spd,GCrs
FMT, 131, 27, IMU, ffffff, GyrX,GyrY,GyrZ,AccX,AccY,AccZ
FMT, 132, 67, MSG, Z, Message
FMT, 9, 19, CURR, hIhhhf, Thr,ThrInt,Volt,Curr,Vcc,CurrTot
FMT, 11, 11, MOT, hhhh, Mot1,Mot2,Mot3,Mot4
FMT, 12, 28, OF, hhBccffee, Dx,Dy,SQual,X,Y,Lat,Lng,Roll,Pitch
FMT, 5, 49, NTUN, Ecffffffffee, WPDst,WPBrg,PErX,PErY,DVelX,DVelY,VelX,VelY,DAcX,DAcY,DRol,DPit
FMT, 4, 25, CTUN, hcefchhhh, ThrIn,SonAlt,BarAlt,WPAlt,DesSonAlt,AngBst,CRate,ThrOut,DCRate
FMT, 15, 21, MAG, hhhhhhhhh, MagX,MagY,MagZ,OfsX,OfsY,OfsZ,MOfsX,MOfsY,MOfsZ
FMT, 6, 17, PM, BBBHHIhB, RenCnt,RenBlw,FixCnt,NLon,NLoop,MaxT,PMT,I2CErr
FMT, 8, 20, CMD, BBBBBeLL, CTot,CNum,CId,COpt,Prm1,Alt,Lat,Lng
FMT, 1, 17, ATT, cccccCC, RollIn,Roll,PitchIn,Pitch,YawIn,Yaw,NavYaw
FMT, 17, 37, INAV, cccfffiiff, BAlt,IAlt,IClb,ACorrX,ACorrY,ACorrZ,GLat,GLng,ILat,ILng
FMT, 3, 6, MODE, Mh, Mode,ThrCrs
FMT, 10, 3, STRT, , 
FMT, 13, 4, EV, B, Id
FMT, 20, 6, D16, Bh, Id,Value
FMT, 21, 6, DU16, BH, Id,Value
FMT, 22, 8, D32, Bi, Id,Value
FMT, 23, 8, DU32, BI, Id,Value
FMT, 24, 8, DFLT, Bf, Id,Value
FMT, 14, 28, PID, Biiiiif, Id,Error,P,I,D,Out,Gain
FMT, 18, 25, CAM, ILLeccC, GPSTime,Lat,Lng,Alt,Roll,Pitch,Yaw
FMT, 19, 5, ERR, BB, Subsys,ECode
D32, 9, 4463
CMD, 1, 0, 16, 0, 0, 0.00, -33.7840897, 151.0681935
EV, 10
GPS, 3, 190395600, 13, 1.73, -33.7840896, 151.0681934, 1.35, 91.25, 0.00, 347.42
CTUN, 0, 0.00, -0.01, 0.000000, 0.00, 0, 1, 0, 0
ATT, 0.00, -0.78, 0.00, 2.09, 0.00, 44.63, 44.63
GPS, 3, 190402800, 13, 1.73, -33.7840855, 151.0681928, 1.34, 92.61, 0.02, 347.42
CTUN, 0, 0.00, 0.06, 0.000000, 0.00, 0, 0, 0, 0
ATT, 0.00, -0.78, 0.00, 2.11, 0.00, 44.65, 44.65
CTUN, 0, 0.00, 0.00, 0.000000, 0.00, 0, 0, 0, 0
ATT, 0.00, -0.79, 0.00, 2.13, 0.00, 44.66, 44.66
GPS, 3, 190403000, 13, 1.73, -33.7840854, 151.0681928, 1.20, 92.64, 0.03, 347.42
CTUN, 0, 0.00, -0.05, 0.000000, 0.00, 0, -2, 0, 0
ATT, 0.00, -0.79, 0.00, 2.14, 0.00, 44.67, 44.67
DU32, 7, 8793
CURR, 0, 0, 1213, 87, 4772, 0.306129
CTUN, 0, 0.00, 0.00, 0.000000, 0.00, 0, -3, 0, 0
ATT, 0.00, -0.79, 0.00, 2.16, 0.00, 44.69, 44.69
GPS, 3, 190403200, 13, 1.73, -33.7840853, 151.0681928, 1.05, 92.67, 0.02, 347.42
CTUN, 0, 0.00, -0.13, 0.000000, 0.00, 0, -4, 0, 0
ATT, 0.00, -0.79, 0.00, 2.18, 0.00, 44.69, 44.69
CTUN, 0, 0.00, -0.17, 0.000000, 0.00, 0, -6, 0, 0
ATT, 0.00, -0.80, 0.00, 2.19, 0.00, 44.70, 44.70
GPS, 3, 190403400, 13, 1.73, -33.7840852, 151.0681929, 0.90, 92.70, 0.02, 347.42
CTUN, 0, 0.00, -0.15, 0.000000, 0.00, 0, -7, 0, 0
ATT, 0.00, -0.80, 0.00, 2.19, 0.00, 44.72, 44.72
CTUN, 0, 0.00, -0.18, 0.000000, 0.00, 0, -8, 0, 0
ATT, 0.00, -0.79, 0.00, 2.21, 0.00, 44.74, 44.74
GPS, 3, 190403600, 13, 1.73, -33.7840851, 151.0681929, 0.76, 92.72, 0.03, 347.42
CTUN, 0, 0.00, -0.11, 0.000000, 0.00, 0, -10, 0, 0
ATT, 0.00, -0.77, 0.00, 2.22, 0.00, 44.74, 44.74
CTUN, 0, 0.00, -0.22, 0.000000, 0.00, 0, -11, 0, 0
ATT, 0.00, -0.76, 0.00, 2.24, 0.00, 44.76, 44.76
GPS, 3, 190403800, 13, 1.73, -33.7840850, 151.0681929, 0.63, 92.73, 0.04, 347.42
CTUN, 0, 0.00, -0.14, 0.000000, 0.00, 0, -12, 0, 0
ATT, 0.00, -0.76, 0.00, 2.27, 0.00, 44.77, 44.77
CTUN, 0, 0.00, -0.12, 0.000000, 0.00, 0, -13, 0, 0
ATT, 0.00, -0.76, 0.00, 2.27, 0.00, 44.77, 44.77
GPS, 3, 190404000, 13, 1.73, -33.7840850, 151.0681930, 0.51, 92.74, 0.03, 347.42
CTUN, 0, 0.00, -0.14, 0.000000, 0.00, 0, -14, 0, 0
ATT, 0.00, -0.76, 0.00, 2.29, 0.00, 44.79, 44.79
DU32, 7, 8793
CURR, 0, 0, 1213, 66, 4772, 0.494927
CTUN, 0, 0.00, -0.17, 0.000000, 0.00, 0, -15, 0, 0
ATT, 0.00, -0.76, 0.00, 2.31, 0.00, 44.79, 44.79
GPS, 3, 190404200, 13, 1.73, -33.7840849, 151.0681930, 0.41, 92.76, 0.02, 347.42
CTUN, 0, 0.00, -0.08, 0.000000, 0.00, 0, -16, 0, 0
ATT, 0.00, -0.76, 0.00, 2.31, 0.00, 44.80, 44.80
CTUN, 0, 0.00, -0.04, 0.000000, 0.00, 0, -16, 0, 0
ATT, 0.00, -0.76, 0.00, 2.33, 0.00, 44.82, 44.82
GPS, 3, 190404400, 13, 1.73, -33.7840849, 151.0681930, 0.32, 92.78, 0.02, 347.42
CTUN, 0, 0.00, -0.11, 0.000000, 0.00, 0, -17, 0, 0
ATT, 0.00, -0.76, 0.00, 2.34, 0.00, 44.83, 44.83
CTUN, 0, 0.00, -0.31, 0.000000, 0.00, 0, -17, 0, 0
ATT, 0.00, -0.76, 0.00, 2.35, 0.00, 44.84, 44.84
GPS, 3, 190404600, 13, 1.73, -33.7840848, 151.0681931, 0.22, 92.80, 0.02, 347.42
CTUN, 0, 0.00, -0.12, 0.000000, 0.00, 0, -18, 0, 0
ATT, 0.00, -0.76, 0.00, 2.36, 0.00, 44.85, 44.85
CTUN, 0, 0.00, -0.12, 0.000000, 0.00, 0, -19, 0, 0
ATT, 0.00, -0.76, 0.00, 2.37, 0.00, 44.86, 44.86
GPS, 3, 190404800, 13, 1.73, -33.7840848, 151.0681931, 0.14, 92.81, 0.01, 347.42
CTUN, 0, 0.00, -0.12, 0.000000, 0.00, 0, -19, 0, 0
EV, 28
ATT, 0.00, -0.77, 0.00, 2.38, 0.00, 44.87, 44.87
CTUN, 0, 0.00, -0.12, 0.000000, 0.00, 0, -20, 0, 0
ATT, 0.00, -0.77, 0.00, 2.40, 0.00, 44.88, 44.88
GPS, 3, 190405000, 13, 1.73, -33.7840847, 151.0681931, 0.07, 92.82, 0.02, 347.42
CTUN, 0, 0.00, -0.40, 0.000000, 0.00, 0, -20, 0, 0
ATT, 0.00, -0.76, 0.00, 2.41, 0.00, 44.90, 44.90
DU32, 7, 8281
CURR, 0, 0, 1211, 64, 4732, 0.683886
CTUN, 0, 0.00, -0.19, 0.000000, 0.00, 0, -21, 0, 0
ATT, 0.00, -0.76, 0.00, 2.42, 0.00, 44.91, 44.91
GPS, 3, 190405200, 13, 1.73, -33.7840847, 151.0681932, 0.00, 92.83, 0.02, 347.42
CTUN, 0, 0.00, -0.10, 0.000000, 0.00, 0, -21, 0, 0
ATT, 0.00, -0.76, 0.00, 2.44, 0.00, 44.93, 44.93
CTUN, 0, 0.00, -0.14, 0.000000, 0.00, 0, -22, 0, 0
ATT, 0.00, -0.76, 0.00, 2.45, 0.00, 44.94, 44.94
GPS, 3, 190405400, 13, 1.73, -33.7840847, 151.0681932, -0.06, 92.83, 0.02, 347.42
CTUN, 0, 0.00, -0.17, 0.000000, 0.00, 0, -22, 0, 0
ATT, 0.00, -0.77, 0.00, 2.46, 0.00, 44.95, 44.95
CTUN, 0, 0.00, -0.12, 0.000000, 0.00, 0, -22, 0, 0
ATT, 0.00, -0.76, 0.00, 2.47, 0.00, 44.96, 44.96
GPS, 3, 190405600, 13, 1.73, -33.7840846, 151.0681932, -0.11, 92.85, 0.01, 347.42
CTUN, 0, 0.00, -0.18, 0.000000, 0.00, 0, -22, 0, 0
ATT, 0.00, -0.76, 0.00, 2.48, 0.00, 44.98, 44.98
CTUN, 0, 0.00, -0.12, 0.000000, 0.00, 0, -22, 0, 0
ATT, 0.00, -0.77, 0.00, 2.50, 0.00, 45.00, 45.00
GPS, 3, 190405800, 13, 1.73, -33.7840846, 151.0681932, -0.16, 92.86, 0.02, 347.42
CTUN, 0, 0.00, -0.12, 0.000000, 0.00, 0, -23, 0, 0
ATT, 0.00, -0.77, 0.00, 2.51, 0.00, 45.01, 45.01
CTUN, 0, 0.00, -0.22, 0.000000, 0.00, 0, -23, 0, 0
ATT, 0.00, -0.77, 0.00, 2.52, 0.00, 45.03, 45.03
GPS, 3, 190406000, 13, 1.73, -33.7840846, 151.0681933, -0.21, 92.85, 0.02, 347.42
CTUN, 0, 0.00, -0.18, 0.000000, 0.00, 0, -23, 0, 0
ATT, 0.00, -0.77, 0.00, 2.52, 0.00, 45.05, 45.05
DU32, 7, 8281
CURR, 0, 0, 1213, 63, 4772, 0.870523
CTUN, 0, 0.00, -0.25, 0.000000, 0.00, 0, -23, 0, 0
ATT, 0.00, -0.77, 0.00, 2.54, 0.00, 45.05, 45.05
GPS, 3, 190406200, 13, 1.73, -33.7840846, 151.0681934, -0.25, 92.85, 0.02, 347.42
CTUN, 0, 0.00, -0.16, 0.000000, 0.00, 0, -23, 0, 0
ATT, 0.00, -0.77, 0.00, 2.55, 0.00, 45.06, 45.06
CTUN, 0, 0.00, -0.09, 0.000000, 0.00, 0, -23, 0, 0
ATT, 0.00, -0.77, 0.00, 2.55, 0.00, 45.07, 45.07
GPS, 3, 190406400, 13, 1.73, -33.7840846, 151.0681934, -0.28, 92.85, 0.02, 347.42
CTUN, 0, 0.00, -0.09, 0.000000, 0.00, 0, -23, 0, 0
ATT, 0.00, -0.77, 0.00, 2.57, 0.00, 45.08, 45.08
CTUN, 0, 0.00, -0.26, 0.000000, 0.00, 0, -23, 0, 0
ATT, 0.00, -0.77, 0.00, 2.58, 0.00, 45.10, 45.10
GPS, 3, 190406600, 13, 1.73, -33.7840845, 151.0681935, -0.31, 92.86, 0.01, 347.42
CTUN, 0, 0.00, -0.33, 0.000000, 0.00, 0, -23, 0, 0
ATT, 0.00, -0.77, 0.00, 2.59, 0.00, 45.11, 45.11
CTUN, 0, 0.00, -0.26, 0.000000, 0.00, 0, -23, 0, 0
ATT, 0.00, -0.78, 0.00, 2.60, 0.00, 45.12, 45.12
GPS, 3, 190406800, 13, 1.73, -33.7840846, 151.0681936, -0.36, 92.85, 0.05, 347.42
CTUN, 0, 0.00, -0.35, 0.000000, 0.00, 0, -23, 0, 0
ATT, 0.00, -0.77, 0.00, 2.62, 0.00, 45.14, 45.14
CTUN, 0, 0.00, -0.24, 0.000000, 0.00, 0, -23, 0, 0
ATT, 0.00, -0.76, 0.00, 2.63, 0.00, 45.14, 45.14
GPS, 3, 190407000, 13, 1.73, -33.7840845, 151.0681936, -0.40, 92.85, 0.00, 347.42
CTUN, 0, 0.00, -0.12, 0.000000, 0.00, 0, -23, 0, 0
ATT, 0.00, -0.77, 0.00, 2.63, 0.00, 45.15, 45.15
DU32, 7, 8281
CURR, 0, 0, 1210, 74, 4732, 1.055649
PM, 0, 0, 50, 2, 1000, 7330193, 17, 4
CTUN, 0, 0.00, -0.31, 0.000000, 0.00, 0, -23, 0, 0
ATT, 0.00, -0.78, 0.00, 2.64, 0.00, 45.17, 45.17
GPS, 3, 190407200, 13, 1.73, -33.7840845, 151.0681936, -0.42, 92.86, 0.01, 347.42
CTUN, 0, 0.00, -0.33, 0.000000, 0.00, 0, -23, 0, 0
ATT, 0.00, -0.78, 0.00, 2.65, 0.00, 45.18, 45.18
CTUN, 0, 0.00, -0.17, 0.000000, 0.00, 0, -24, 0, 0
ATT, 0.00, -0.78, 0.00, 2.66, 0.00, 45.19, 45.19
GPS, 3, 190407400, 13, 1.73, -33.7840844, 151.0681937, -0.45, 92.86, 0.01, 347.42
CTUN, 0, 0.00, -0.13, 0.000000, 0.00, 0, -23, 0, 0
ATT, 0.00, -0.78, 0.00, 2.67, 0.00, 45.22, 45.22
CTUN, 0, 0.00, -0.26, 0.000000, 0.00, 0, -23, 0, 0
ATT, 0.00, -0.79, 0.00, 2.67, 0.00, 45.22, 45.22
GPS, 3, 190407600, 13, 1.73, -33.7840844, 151.0681937, -0.46, 92.87, 0.01, 347.42
CTUN, 0, 0.00, -0.23, 0.000000, 0.00, 0, -23, 0, 0
ATT, 0.00, -0.79, 0.00, 2.68, 0.00, 45.24, 45.24
CTUN, 0, 0.00, -0.09, 0.000000, 0.00, 0, -23, 0, 0
ATT, 0.00, -0.78, 0.00, 2.69, 0.00, 45.26, 45.26
GPS, 3, 190407800, 13, 1.73, -33.7840844, 151.0681937, -0.48, 92.87, 0.01, 347.42
CTUN, 0, 0.00, -0.20, 0.000000, 0.00, 0, -23, 0, 0
ATT, 0.00, -0.78, 0.00, 2.70, 0.00, 45.28, 45.28
CTUN, 0, 0.00, -0.07, 0.000000, 0.00, 0, -23, 0, 0
ATT, 0.00, -0.79, 0.00, 2.72, 0.00, 45.29, 45.29
GPS, 3, 190408000, 13, 1.73, -33.7840843, 151.0681938, -0.48, 92.88, 0.02, 347.42
CTUN, 0, 0.00, -0.28, 0.000000, 0.00, 0, -22, 0, 0
ATT, 0.00, -0.78, 0.00, 2.72, 0.00, 45.30, 45.30
DU32, 7, 8281
CURR, 0, 0, 1210, 78, 4752, 1.241379
CTUN, 0, 0.00, -0.14, 0.000000, 0.00, 0, -22, 0, 0
ATT, 0.00, -0.79, 0.00, 2.72, 0.00, 45.31, 45.31
GPS, 3, 190408200, 13, 1.73, -33.7840843, 151.0681938, -0.49, 92.89, 0.01, 347.42
CTUN, 0, 0.00, -0.19, 0.000000, 0.00, 0, -22, 0, 0
ATT, 0.00, -0.79, 0.00, 2.73, 0.00, 45.33, 45.33
CTUN, 0, 0.00, -0.13, 0.000000, 0.00, 0, -21, 0, 0
ATT, 0.00, -0.79, 0.00, 2.73, 0.00, 45.33, 45.33
GPS, 3, 190408400, 13, 1.73, -33.7840842, 151.0681938, -0.50, 92.89, 0.01, 347.42
CTUN, 0, 0.00, -0.11, 0.000000, 0.00, 0, -21, 0, 0
ATT, 0.00, -0.79, 0.00, 2.75, 0.00, 45.35, 45.35
CTUN, 0, 0.00, -0.19, 0.000000, 0.00, 0, -21, 0, 0
ATT, 0.00, -0.79, 0.00, 2.76, 0.00, 45.35, 45.35
GPS, 3, 190408600, 13, 1.73, -33.7840841, 151.0681939, -0.50, 92.89, 0.01, 347.42
CTUN, 0, 0.00, -0.29, 0.000000, 0.00, 0, -21, 0, 0
ATT, 0.00, -0.79, 0.00, 2.76, 0.00, 45.37, 45.37
CTUN, 0, 0.00, -0.20, 0.000000, 0.00, 0, -20, 0, 0
ATT, 0.00, -0.79, 0.00, 2.77, 0.00, 45.39, 45.39
GPS, 3, 190408800, 12, 1.84, -33.7840841, 151.0681939, -0.51, 92.89, 0.02, 347.42
CTUN, 0, 0.00, -0.21, 0.000000, 0.00, 0, -20, 0, 0
ATT, 0.00, -0.79, 0.00, 2.78, 0.00, 45.40, 45.40
CTUN, 0, 0.00, -0.19, 0.000000, 0.00, 0, -20, 0, 0
ATT, 0.00, -0.78, 0.00, 2.79, 0.00, 45.41, 45.41
GPS, 3, 190409000, 12, 1.84, -33.7840841, 151.0681940, -0.51, 92.87, 0.02, 347.42
CTUN, 0, 0.00, -0.16, 0.000000, 0.00, 0, -20, 0, 0
ATT, 0.00, -0.78, 0.00, 2.80, 0.00, 45.43, 45.43
DU32, 7, 8281
CURR, 0, 0, 1213, 75, 4772, 1.423895
CTUN, 0, 0.00, -0.17, 0.000000, 0.00, 0, -19, 0, 0
ATT, 0.00, -0.78, 0.00, 2.82, 0.00, 45.43, 45.43
CTUN, 0, 0.00, -0.26, 0.000000, 0.00, 0, -19, 0, 0
GPS, 3, 190409200, 12, 1.84, -33.7840840, 151.0681941, -0.51, 92.87, 0.00, 347.42
ATT, 0.00, -0.79, 0.00, 2.82, 0.00, 45.45, 45.45
CTUN, 0, 0.00, -0.14, 0.000000, 0.00, 0, -19, 0, 0
ATT, 0.00, -0.79, 0.00, 2.84, 0.00, 45.46, 45.46
GPS, 3, 190409400, 12, 1.84, -33.7840839, 151.0681941, -0.51, 92.87, 0.02, 347.42
CTUN, 0, 0.00, -0.20, 0.000000, 0.00, 0, -19, 0, 0
ATT, 0.00, -0.79, 0.00, 2.84, 0.00, 45.48, 45.48
CTUN, 0, 0.00, -0.30, 0.000000, 0.00, 0, -18, 0, 0
ATT, 0.00, -0.80, 0.00, 2.84, 0.00, 45.50, 45.50
GPS, 3, 190409600, 12, 1.84, -33.7840839, 151.0681942, -0.52, 92.86, 0.01, 347.42
CTUN, 0, 0.00, -0.13, 0.000000, 0.00, 0, -18, 0, 0
ATT, 0.00, -0.79, 0.00, 2.84, 0.00, 45.51, 45.51
CTUN, 0, 0.00, -0.29, 0.000000, 0.00, 0, -18, 0, 0
ATT, 0.00, -0.78, 0.00, 2.85, 0.00, 45.53, 45.53
GPS, 3, 190409800, 12, 1.84, -33.7840838, 151.0681942, -0.52, 92.87, 0.02, 347.42
CTUN, 0, 0.00, -0.05, 0.000000, 0.00, 0, -18, 0, 0
ATT, 0.00, -0.78, 0.00, 2.86, 0.00, 45.54, 45.54
CTUN, 0, 0.00, -0.08, 0.000000, 0.00, 0, -17, 0, 0
ATT, 0.00, -0.79, 0.00, 2.86, 0.00, 45.56, 45.56
GPS, 3, 190410000, 12, 1.84, -33.7840838, 151.0681942, -0.50, 92.87, 0.01, 347.42
CTUN, 0, 0.00, -0.22, 0.000000, 0.00, 0, -17, 0, 0
ATT, 0.00, -0.79, 0.00, 2.86, 0.00, 45.58, 45.58
EV, 18
DU32, 7, 8793
CURR, 0, 0, 1210, 60, 4752, 1.600769
CTUN, 0, 0.00, -0.22, 0.000000, 0.00, 0, -17, 0, 0
ATT, 0.00, -0.78, 0.00, 2.88, 0.00, 45.60, 45.60
GPS, 3, 190410200, 12, 1.84, -33.7840837, 151.0681942, -0.50, 92.87, 0.00, 347.42
CTUN, 0, 0.00, -0.17, 0.000000, 0.00, 0, -16, 0, 0
ATT, 0.00, -0.79, 0.00, 2.89, 0.00, 45.61, 45.61
CTUN, 0, 0.00, -0.16, 0.000000, 0.00, 0, -16, 0, 0
ATT, 0.00, -0.79, 0.00, 2.88, 0.00, 45.63, 45.63
GPS, 3, 190410400, 12, 1.84, -33.7840836, 151.0681943, -0.49, 92.88, 0.01, 347.42
CTUN, 0, 0.00, -0.09, 0.000000, 0.00, 0, -16, 0, 0
ATT, 0.00, -0.79, 0.00, 2.88, 0.00, 45.64, 45.64
CTUN, 0, 0.00, -0.09, 0.000000, 0.00, 0, -15, 0, 0
ATT, 0.00, -0.80, 0.00, 2.89, 0.00, 45.66, 45.66
GPS, 3, 190410600, 12, 1.84, -33.7840835, 151.0681943, -0.48, 92.87, 0.00, 347.42
CTUN, 0, 0.00, -0.10, 0.000000, 0.00, 0, -15, 0, 0
ATT, 0.00, -0.79, 0.00, 2.89, 0.00, 45.67, 45.67
CTUN, 0, 0.00, -0.21, 0.000000, 0.00, 0, -15, 0, 0
ATT, 0.00, -0.79, 0.00, 2.89, 0.00, 45.69, 45.69
GPS, 3, 190410800, 12, 1.84, -33.7840834, 151.0681943, -0.47, 92.87, 0.02, 347.42
CTUN, 0, 0.00, -0.11, 0.000000, 0.00, 0, -14, 0, 0
ATT, 0.00, -0.79, 0.00, 2.90, 0.00, 45.71, 45.71
CTUN, 0, 0.00, -0.07, 0.000000, 0.00, 0, -14, 0, 0
ATT, 0.00, -0.80, 0.00, 2.91, 0.00, 45.72, 45.72
CTUN, 0, 0.00, -0.13, 0.000000, 0.00, 0, -13, 0, 0
GPS, 3, 190411000, 12, 1.84, -33.7840834, 151.0681944, -0.45, 92.87, 0.01, 347.42
ATT, 0.00, -0.79, 0.00, 2.91, 0.00, 45.74, 45.74
DU32, 7, 8793
CURR, 0, 0, 1214, 71, 4772, 1.790513
CTUN, 0, 0.00, -0.12, 0.000000, 0.00, 0, -13, 0, 0
ATT, 0.00, -0.79, 0.00, 2.92, 0.00, 45.76, 45.76
CTUN, 0, 0.00, -0.13, 0.000000, 0.00, 0, -13, 0, 0
GPS, 3, 190411200, 12, 1.84, -33.7840833, 151.0681944, -0.44, 92.87, 0.01, 347.42
ATT, 0.00, -0.79, 0.00, 2.92, 0.00, 45.77, 45.77
CTUN, 0, 0.00, -0.14, 0.000000, 0.00, 0, -12, 0, 0
ATT, 0.00, -0.79, 0.00, 2.92, 0.00, 45.79, 45.79
CTUN, 0, 0.00, 0.00, 0.000000, 0.00, 0, -12, 0, 0
GPS, 3, 190411400, 12, 1.84, -33.7840832, 151.0681945, -0.43, 92.86, 0.01, 347.42
ATT, 0.00, -0.78, 0.00, 2.93, 0.00, 45.79, 45.79
CTUN, 0, 0.00, -0.16, 0.000000, 0.00, 0, -12, 0, 0
ATT, 0.00, -0.79, 0.00, 2.93, 0.00, 45.81, 45.81
CTUN, 0, 0.00, -0.16, 0.000000, 0.00, 0, -12, 0, 0
GPS, 3, 190411600, 12, 1.84, -33.7840832, 151.0681945, -0.41, 92.85, 0.01, 347.42
ATT, 0.00, -0.79, 0.00, 2.94, 0.00, 45.82, 45.82
CTUN, 0, 0.00, -0.08, 0.000000, 0.00, 0, -11, 0, 0
ATT, 0.00, -0.78, 0.00, 2.94, 0.00, 45.84, 45.84
CTUN, 0, 0.00, -0.17, 0.000000, 0.00, 0, -11, 0, 0
GPS, 3, 190411800, 12, 1.84, -33.7840831, 151.0681945, -0.40, 92.86, 0.01, 347.42
ATT, 0.00, -0.79, 0.00, 2.95, 0.00, 45.86, 45.86
EV, 15
CTUN, 148, 0.00, -0.11, 0.000000, 0.00, 0, -11, 148, 0
ATT, 0.00, -0.80, 0.00, 2.96, 0.00, 45.88, 45.88
EV, 28
CTUN, 163, 0.00, -0.04, 0.000000, 0.00, 0, -10, 163, 0
GPS, 3, 190412000, 12, 1.84, -33.7840831, 151.0681945, -0.39, 92.85, 0.01, 347.42
ATT, 0.00, -0.79, 0.00, 2.96, 0.00, 45.90, 45.88
DU32, 7, 8313
CURR, 171, 301, 1205, 247, 4772, 2.022645
CTUN, 177, 0.00, -0.22, 0.000000, 0.00, 0, -10, 177, 0
ATT, 0.00, -0.79, 0.00, 2.94, 0.00, 45.91, 45.88
CTUN, 181, 0.00, -0.62, 0.000000, 0.00, 0, -10, 181, 0
GPS, 3, 190412200, 12, 1.84, -33.7840830, 151.0681945, -0.39, 92.86, 0.01, 347.42
ATT, 0.00, -0.79, 0.00, 2.96, 0.00, 45.92, 45.88
CTUN, 181, 0.00, -0.66, 0.000000, 0.00, 0, -10, 181, 0
ATT, 0.00, -0.83, 0.00, 2.96, 0.00, 45.93, 45.88
CTUN, 181, 0.00, -0.85, 0.000000, 0.00, 0, -10, 181, 0
GPS, 3, 190412400, 12, 1.84, -33.7840830, 151.0681946, -0.44, 92.84, 0.02, 347.42
ATT, 0.00, -0.83, 0.00, 2.99, 0.00, 45.94, 45.88
CTUN, 181, 0.00, -0.83, 0.000000, 0.00, 0, -11, 181, 0
ATT, 0.00, -0.80, 0.00, 2.98, 0.00, 45.94, 45.88
CTUN, 249, 0.00, -0.82, 0.000000, 0.00, 0, -12, 249, 0
GPS, 3, 190412600, 12, 1.84, -33.7840831, 151.0681947, -0.51, 92.82, 0.08, 347.42
ATT, 0.00, -0.80, 0.00, 2.98, 0.00, 45.96, 45.88
CTUN, 279, 0.00, -0.76, 0.000000, 0.00, 0, -12, 279, 0
ATT, 0.00, -0.78, 0.00, 2.98, 0.00, 45.94, 45.88
CTUN, 338, 0.00, -1.19, 0.000000, 0.00, 0, -12, 338, 0
GPS, 3, 190412800, 12, 1.84, -33.7840832, 151.0681949, -0.57, 92.78, 0.12, 347.42
ATT, 0.00, -0.76, 0.00, 2.90, 0.00, 45.94, 45.88
CTUN, 367, 0.00, -1.10, 0.000000, 0.00, 0, -14, 367, 0
ATT, 0.00, -0.73, 0.00, 2.90, 0.00, 45.89, 45.88
CTUN, 415, 0.00, -1.62, 0.000000, 0.00, 0, -15, 415, 0
GPS, 3, 190413000, 12, 1.84, -33.7840833, 151.0681950, -0.67, 92.73, 0.11, 347.42
ATT, 0.00, -0.68, 0.00, 2.83, 0.00, 45.77, 45.88
DU32, 7, 8313
CURR, 426, 2774, 1174, 697, 4732, 3.104950
CTUN, 430, 0.00, -2.05, 0.000000, 0.00, 0, -17, 430, 0
ATT, 0.00, -0.70, 0.00, 2.78, 0.00, 45.84, 45.88
CTUN, 480, 0.00, -1.94, 0.000000, 0.00, 0, -18, 480, 0
GPS, 3, 190413200, 12, 1.84, -33.7840833, 151.0681951, -0.84, 92.74, 0.03, 347.42
ATT, 0.00, -0.72, 0.00, 2.57, 0.00, 45.77, 45.88
CTUN, 514, 0.00, -2.04, 0.000000, 0.00, 0, -19, 514, 0
EV, 16
ATT, 0.00, -0.88, 0.00, 2.41, 0.00, 45.63, 45.88
CTUN, 533, 0.00, -2.58, 0.000000, 0.00, 0, -20, 533, 0
GPS, 3, 190413400, 12, 1.84, -33.7840833, 151.0681952, -1.02, 92.70, 0.07, 347.42
ATT, 0.00, -0.91, 0.00, 1.99, 0.00, 45.35, 45.88
CTUN, 562, 0.00, -2.33, 0.000000, 0.00, 0, -21, 562, 0
ATT, 0.00, -0.66, 0.00, 1.26, 0.00, 44.98, 45.88
CTUN, 566, 0.00, -2.39, 0.000000, 0.00, 0, -18, 566, 0
GPS, 3, 190413600, 12, 1.84, -33.7840834, 151.0681953, -1.23, 92.66, 0.10, 347.42
ATT, 0.00, 0.23, 0.00, 0.64, 0.00, 44.58, 45.88
CTUN, 617, 0.00, -1.93, 0.000000, 0.00, 0, -12, 617, 0
ATT, 0.00, 0.02, 0.00, 0.39, 0.00, 44.09, 45.88
CTUN, 620, 0.00, -1.05, 0.000000, 0.00, 0, -1, 620, 0
GPS, 3, 190413800, 12, 1.84, -33.7840834, 151.0681952, -1.34, 92.64, 0.04, 347.42
ATT, 0.00, 0.12, 0.00, 0.81, 0.00, 43.52, 45.88
CTUN, 627, 0.00, -0.48, 0.000000, 0.00, 0, 12, 627, 0
ATT, 0.00, -0.47, 0.00, 1.23, 0.00, 42.85, 45.88
CTUN, 627, 0.00, -0.25, 0.000000, 0.00, 0, 25, 627, 0
GPS, 3, 190414000, 12, 1.84, -33.7840834, 151.0681953, -1.23, 92.62, 0.05, 347.42
ATT, 0.00, -0.47, 0.00, 1.31, 0.00, 42.08, 45.88
DU32, 7, 8569
CURR, 639, 8310, 1117, 1440, 4732, 6.358201
CTUN, 639, 0.00, 0.10, 0.000000, 0.00, 0, 37, 639, 0
ATT, 0.00, -0.57, 0.00, 1.12, 0.00, 41.15, 45.88
CTUN, 639, 0.00, 0.09, 0.000000, 0.00, 0, 51, 639, 0
GPS, 3, 190414200, 12, 1.84, -33.7840831, 151.0681952, -1.01, 92.67, 0.12, 347.42
ATT, 0.00, -0.63, 0.00, 0.95, 0.00, 40.22, 45.88
CTUN, 636, 0.00, 0.05, 0.000000, 0.00, 0, 61, 636, 0
ATT, 0.00, -0.61, 0.00, 0.78, 0.00, 39.45, 45.88
CTUN, 640, 0.00, 0.21, 0.000000, 0.00, 0, 70, 640, 0
GPS, 3, 190414400, 12, 1.84, -33.7840827, 151.0681950, -0.76, 92.77, 0.17, 347.42
ATT, 0.00, -0.62, 0.00, 0.70, 0.00, 38.94, 45.88
CTUN, 638, 0.00, 0.28, 0.000000, 0.00, 0, 78, 638, 0
ATT, 0.00, -0.63, 0.00, 0.69, 0.00, 38.60, 45.88
CTUN, 638, 0.00, 0.44, 0.000000, 0.00, 0, 84, 638, 0
GPS, 3, 190414600, 12, 1.84, -33.7840826, 151.0681950, -0.49, 92.93, 0.06, 347.42
ATT, 0.00, -0.64, 0.00, 0.73, 0.00, 38.45, 45.88
CTUN, 639, 0.00, 0.57, 0.000000, 0.00, 0, 91, 639, 0
ATT, 0.00, -0.65, 0.00, 0.78, 0.00, 38.42, 45.88
CTUN, 638, 0.00, 0.64, 0.000000, 0.00, 0, 97, 638, 0
GPS, 3, 190414800, 12, 1.84, -33.7840824, 151.0681952, -0.19, 93.25, 0.13, 347.42
ATT, 0.00, -0.74, 0.00, 0.73, 0.00, 38.46, 45.88
CTUN, 612, 0.00, 0.60, 0.000000, 0.00, 0, 105, 612, 0
ATT, 0.00, -0.90, 0.00, 0.69, 0.00, 38.54, 45.88
CTUN, 612, 0.00, 0.99, 0.000000, 0.00, 0, 108, 612, 0
GPS, 3, 190415000, 12, 1.84, -33.7840819, 151.0681950, 0.11, 93.60, 0.19, 347.42
ATT, 0.00, -0.86, 0.00, 0.57, 0.00, 38.72, 45.88
DU32, 7, 8569
CURR, 611, 14646, 1122, 1388, 4732, 10.47313
CTUN, 611, 0.00, 1.09, 0.000000, 0.00, 0, 108, 611, 0
ATT, 0.00, -0.77, 0.00, 0.34, 0.00, 38.94, 45.88
CTUN, 585, 0.00, 1.33, 0.000000, 0.00, 0, 110, 585, 0
GPS, 3, 190415200, 12, 1.84, -33.7840811, 151.0681944, 0.43, 94.02, 0.34, 347.13
ATT, 0.00, -0.70, 0.00, 0.25, 0.00, 39.16, 45.88
CTUN, 575, 0.00, 1.33, 0.000000, 0.00, 0, 108, 575, 0
ATT, 0.00, -0.35, 0.00, 0.13, 0.00, 39.34, 45.88
CTUN, 554, 0.00, 1.37, 0.000000, 0.00, 0, 102, 554, 0
GPS, 3, 190415400, 12, 1.84, -33.7840804, 151.0681945, 0.74, 94.26, 0.36, 357.71
ATT, 0.00, -0.11, 0.00, 0.03, 0.00, 39.50, 45.88
CTUN, 555, 0.00, 1.48, 0.000000, 0.00, 0, 93, 555, 0
ATT, 0.00, 0.13, 0.00, -0.07, 0.00, 39.59, 45.88
CTUN, 554, 0.00, 1.57, 0.000000, 0.00, 0, 85, 554, 0
GPS, 3, 190415600, 12, 1.84, -33.7840797, 151.0681945, 1.00, 94.51, 0.38, 2.56
ATT, 0.00, 0.24, 0.00, -0.14, 0.00, 39.59, 45.88
CTUN, 554, 0.00, 1.74, 0.000000, 0.00, 0, 76, 554, 0
ATT, 0.00, 0.40, 0.00, -0.14, 0.00, 39.49, 45.88
CTUN, 555, 0.00, 1.73, 0.000000, 0.00, 0, 68, 555, 0
GPS, 3, 190415800, 13, 1.73, -33.7840790, 151.0681949, 1.23, 94.60, 0.43, 11.06
ATT, 0.00, 0.62, 0.00, 0.01, 0.00, 39.32, 45.88
CTUN, 554, 0.00, 1.83, 0.000000, 0.00, 0, 60, 554, 0
ATT, 0.00, 0.81, 0.00, 0.15, 0.00, 39.14, 45.88
CTUN, 554, 0.00, 1.94, 0.000000, 0.00, 0, 53, 554, 0
GPS, 3, 190416000, 12, 1.84, -33.7840785, 151.0681954, 1.41, 94.73, 0.35, 21.04
ATT, 0.00, 0.82, 0.00, 0.33, 0.00, 38.95, 45.88
DU32, 7, 8569
CURR, 556, 20306, 1128, 1196, 4732, 13.91351
CTUN, 556, 0.00, 2.01, 0.000000, 0.00, 0, 46, 556, 0
ATT, 0.00, 0.91, 0.00, 0.57, 0.00, 38.82, 45.88
CTUN, 554, 0.00, 2.06, 0.000000, 0.00, 0, 39, 554, 0
GPS, 3, 190416200, 12, 1.84, -33.7840777, 151.0681958, 1.56, 94.77, 0.54, 17.96
ATT, 0.00, 0.81, 0.00, 0.65, 0.00, 38.80, 45.88
CTUN, 554, 0.00, 2.14, 0.000000, 0.00, 0, 32, 554, 0
ATT, 0.00, 0.58, 0.00, 0.64, 0.00, 38.84, 45.88
CTUN, 555, 0.00, 2.20, 0.000000, 0.00, 0, 25, 555, 0
GPS, 3, 190416400, 12, 1.84, -33.7840769, 151.0681962, 1.69, 94.85, 0.48, 20.34
ATT, 0.00, 0.47, 0.00, 0.65, 0.00, 38.95, 45.88
CTUN, 554, 0.00, 2.13, 0.000000, 0.00, 0, 19, 554, 0
ATT, 0.00, 0.39, 0.00, 0.72, 0.00, 39.10, 45.88
CTUN, 554, 0.00, 2.24, 0.000000, 0.00, 0, 12, 554, 0
GPS, 3, 190416600, 12, 1.84, -33.7840761, 151.0681968, 1.78, 94.87, 0.52, 25.14
ATT, 0.00, 0.26, 0.00, 0.72, 0.00, 39.25, 45.88
CTUN, 556, 0.00, 2.20, 0.000000, 0.00, 0, 7, 556, 0
ATT, 0.00, 0.27, 0.00, 0.68, 0.00, 39.37, 45.88
CTUN, 554, 0.00, 2.12, 0.000000, 0.00, 0, 1, 554, 0
GPS, 3, 190416800, 12, 1.84, -33.7840755, 151.0681977, 1.84, 94.88, 0.53, 35.13
ATT, 0.00, 0.26, 0.00, 0.76, 0.00, 39.44, 45.88
CTUN, 556, 0.00, 2.27, 0.000000, 0.00, 0, -3, 556, 0
ATT, 0.00, 0.42, 0.00, 0.81, 0.00, 39.46, 45.88
CTUN, 554, 0.00, 2.28, 0.000000, 0.00, 0, -8, 554, 0
GPS, 3, 190417000, 13, 1.73, -33.7840749, 151.0681983, 1.87, 94.84, 0.51, 34.39
ATT, 0.00, 0.35, 0.00, 0.84, 0.00, 39.45, 45.88
DU32, 7, 8569
CURR, 554, 25853, 1127, 1208, 4712, 17.23811
PM, 0, 0, 50, 0, 1000, 10168, 10, 4
CTUN, 554, 0.00, 2.25, 0.000000, 0.00, 0, -13, 554, 0
ATT, 0.00, 0.36, 0.00, 0.86, 0.00, 39.38, 45.88
CTUN, 556, 0.00, 2.21, 0.000000, 0.00, 0, -19, 556, 0
GPS, 3, 190417200, 12, 1.84, -33.7840742, 151.0681992, 1.89, 94.78, 0.55, 35.72
ATT, 0.00, 0.39, 0.00, 0.87, 0.00, 39.28, 45.88
CTUN, 554, 0.00, 2.14, 0.000000, 0.00, 0, -24, 554, 0
ATT, 0.00, 0.38, 0.00, 0.90, 0.00, 39.15, 45.88
CTUN, 554, 0.00, 2.24, 0.000000, 0.00, 0, -29, 554, 0
GPS, 3, 190417400, 12, 1.84, -33.7840736, 151.0682001, 1.87, 94.73, 0.53, 43.19
ATT, 0.00, 0.37, 0.00, 0.90, 0.00, 39.02, 45.88
CTUN, 554, 0.00, 2.06, 0.000000, 0.00, 0, -34, 554, 0
ATT, 0.00, 0.32, 0.00, 0.88, 0.00, 38.90, 45.88
CTUN, 556, 0.00, 2.05, 0.000000, 0.00, 0, -39, 556, 0
GPS, 3, 190417600, 12, 1.84, -33.7840730, 151.0682012, 1.83, 94.67, 0.65, 50.25
ATT, 0.00, 0.28, 0.00, 0.84, 0.00, 38.81, 45.88
CTUN, 554, 0.00, 1.96, 0.000000, 0.00, 0, -43, 554, 0
ATT, 0.00, 0.15, 0.00, 0.74, 0.00, 38.73, 45.88
CTUN, 554, 0.00, 2.04, 0.000000, 0.00, 0, -48, 554, 0
GPS, 3, 190417800, 13, 1.73, -33.7840723, 151.0682020, 1.77, 94.59, 0.54, 47.81
ATT, 0.00, -0.09, 0.00, 0.62, 0.00, 38.71, 45.88
CTUN, 554, 0.00, 1.98, 0.000000, 0.00, 0, -53, 554, 0
ATT, 0.00, -0.26, 0.00, 0.44, 0.00, 38.73, 45.88
CTUN, 554, 0.00, 1.89, 0.000000, 0.00, 0, -59, 554, 0
GPS, 3, 190418000, 12, 1.84, -33.7840718, 151.0682030, 1.69, 94.44, 0.55, 54.17
ATT, 0.00, -0.32, 0.00, 0.36, 0.00, 38.74, 45.88
DU32, 7, 8569
CURR, 554, 31397, 1125, 1192, 4752, 20.56222
CTUN, 555, 0.00, 1.96, 0.000000, 0.00, 0, -64, 555, 0
ATT, 0.00, -0.30, 0.00, 0.20, 0.00, 38.72, 45.88
CTUN, 554, 0.00, 1.78, 0.000000, 0.00, 0, -69, 554, 0
GPS, 3, 190418200, 12, 1.84, -33.7840711, 151.0682039, 1.59, 94.28, 0.57, 49.54
ATT, 0.00, -0.34, 0.00, 0.10, 0.00, 38.62, 45.88
CTUN, 566, 0.00, 1.72, 0.000000, 0.00, 0, -74, 566, 0
ATT, 0.00, -0.46, 0.00, 0.10, 0.00, 38.45, 45.88
CTUN, 586, 0.00, 1.71, 0.000000, 0.00, 0, -78, 586, 0
GPS, 3, 190418400, 12, 1.84, -33.7840705, 151.0682052, 1.46, 94.06, 0.68, 52.41
ATT, 0.00, -0.78, 0.00, 0.07, 0.00, 38.26, 45.88
CTUN, 591, 0.00, 1.68, 0.000000, 0.00, 0, -76, 591, 0
ATT, 0.00, -0.61, 0.00, 0.09, 0.00, 37.95, 45.88
CTUN, 610, 0.00, 1.49, 0.000000, 0.00, 0, -73, 610, 0
GPS, 3, 190418600, 12, 1.84, -33.7840699, 151.0682063, 1.34, 93.88, 0.63, 54.14
ATT, 0.00, -0.75, 0.00, 0.38, 0.00, 37.66, 45.88
CTUN, 616, 0.00, 1.36, 0.000000, 0.00, 0, -68, 616, 0
ATT, 0.00, -0.89, 0.00, 0.52, 0.00, 37.37, 45.88
CTUN, 619, 0.00, 1.41, 0.000000, 0.00, 0, -63, 619, 0
GPS, 3, 190418800, 12, 1.84, -33.7840691, 151.0682073, 1.22, 93.71, 0.67, 51.85
ATT, 0.00, -0.89, 0.00, 0.65, 0.00, 37.11, 45.88
CTUN, 619, 0.00, 1.12, 0.000000, 0.00, 0, -57, 619, 0
ATT, 0.00, -0.76, 0.00, 0.82, 0.00, 36.94, 45.88
CTUN, 618, 0.00, 1.15, 0.000000, 0.00, 0, -51, 618, 0
GPS, 3, 190419000, 12, 1.84, -33.7840684, 151.0682087, 1.11, 93.51, 0.74, 53.50
ATT, 0.00, -0.70, 0.00, 0.93, 0.00, 36.90, 45.88
DU32, 7, 8569
CURR, 618, 37324, 1108, 1429, 4732, 24.21088
CTUN, 618, 0.00, 1.09, 0.000000, 0.00, 0, -46, 618, 0
ATT, 0.00, -0.79, 0.00, 0.91, 0.00, 37.01, 45.88
CTUN, 618, 0.00, 0.92, 0.000000, 0.00, 0, -41, 618, 0
GPS, 3, 190419200, 12, 1.84, -33.7840676, 151.0682100, 1.02, 93.37, 0.72, 55.38
ATT, 0.00, -0.78, 0.00, 0.91, 0.00, 37.23, 45.88
CTUN, 618, 0.00, 1.01, 0.000000, 0.00, 0, -35, 618, 0
ATT, 0.00, -0.82, 0.00, 1.03, 0.00, 37.48, 45.88
CTUN, 620, 0.00, 0.97, 0.000000, 0.00, 0, -29, 620, 0
GPS, 3, 190419400, 11, 1.88, -33.7840668, 151.0682110, 0.95, 93.30, 0.68, 52.97
ATT, 0.00, -0.99, 0.00, 1.00, 0.00, 37.82, 45.88
CTUN, 648, 0.00, 0.76, 0.000000, 0.00, 0, -22, 648, 0
ATT, 0.00, -1.03, 0.00, 0.95, 0.00, 38.17, 45.88
CTUN, 667, 0.00, 0.93, 0.000000, 0.00, 0, -14, 667, 0
GPS, 3, 190419600, 11, 1.88, -33.7840658, 151.0682123, 0.90, 93.23, 0.78, 49.85
ATT, 0.00, -0.93, 0.00, 0.98, 0.00, 38.49, 45.88
CTUN, 669, 0.00, 0.85, 0.000000, 0.00, 0, -2, 669, 0
ATT, 0.00, -1.01, 0.00, 1.08, 0.00, 38.80, 45.88
CTUN, 669, 0.00, 0.72, 0.000000, 0.00, 0, 9, 669, 0
GPS, 3, 190419800, 12, 1.84, -33.7840645, 151.0682132, 0.90, 93.16, 0.81, 40.99
ATT, 0.00, -0.93, 0.00, 1.30, 0.00, 39.05, 45.88
CTUN, 667, 0.00, 0.75, 0.000000, 0.00, 0, 22, 667, 0
ATT, 0.00, -1.02, 0.00, 1.51, 0.00, 39.22, 45.88
CTUN, 668, 0.00, 0.78, 0.000000, 0.00, 0, 34, 668, 0
GPS, 3, 190420000, 12, 1.84, -33.7840635, 151.0682143, 0.93, 93.07, 0.77, 41.18
ATT, 0.00, -0.98, 0.00, 1.52, 0.00, 39.37, 45.88
DU32, 7, 8569
CURR, 668, 43779, 1097, 1603, 4752, 28.39866
CTUN, 669, 0.00, 0.72, 0.000000, 0.00, 0, 44, 669, 0
ATT, 0.57, -0.93, 0.00, 1.53, 0.00, 39.47, 45.88
CTUN, 648, 0.00, 0.61, 0.000000, 0.00, 0, 53, 648, 0
GPS, 3, 190420200, 12, 1.84, -33.7840620, 151.0682151, 0.99, 93.05, 0.89, 32.51
ATT, 3.92, -0.66, 0.00, 1.54, 0.00, 39.54, 45.88
CTUN, 649, 0.00, 0.89, 0.000000, 0.00, 0, 60, 649, 0
ATT, 3.92, 1.16, 0.00, 1.41, 0.00, 39.54, 45.88
CTUN, 652, 0.00, 0.83, 0.000000, 0.00, 0, 67, 652, 0
GPS, 3, 190420400, 12, 1.84, -33.7840611, 151.0682162, 1.09, 93.08, 0.67, 36.15
ATT, 3.92, 1.75, 0.46, 1.66, 0.00, 39.64, 45.88
CTUN, 649, 0.00, 0.69, 0.000000, 0.00, 0, 72, 649, 0
ATT, 3.92, 2.29, 0.93, 1.69, 0.00, 39.77, 45.88
CTUN, 649, 0.00, 0.97, 0.000000, 0.00, 0, 78, 649, 0
GPS, 3, 190420600, 12, 1.84, -33.7840603, 151.0682170, 1.19, 93.17, 0.57, 39.37
ATT, 5.30, 2.68, 2.22, 2.02, 0.00, 39.95, 45.88
CTUN, 649, 0.00, 0.94, 0.000000, 0.00, 1, 85, 650, 0
ATT, 5.42, 3.47, 3.16, 2.78, 0.00, 40.10, 45.88
CTUN, 649, 0.00, 1.08, 0.000000, 0.00, 1, 91, 650, 0
GPS, 3, 190420800, 12, 1.84, -33.7840592, 151.0682180, 1.33, 93.33, 0.72, 42.22
ATT, 7.15, 3.94, 5.39, 3.76, 0.00, 40.27, 45.88
CTUN, 649, 0.00, 1.17, 0.000000, 0.00, 2, 96, 651, 0
ATT, 7.50, 5.00, 6.67, 4.90, 0.00, 40.41, 45.88
CTUN, 649, 0.00, 1.23, 0.000000, 0.00, 4, 100, 653, 0
GPS, 3, 190421000, 11, 1.88, -33.7840582, 151.0682188, 1.50, 93.53, 0.65, 41.99
ATT, 5.76, 5.42, 7.73, 5.64, 0.00, 40.49, 45.88
DU32, 7, 8569
CURR, 649, 50297, 1097, 1525, 4693, 32.63163
CTUN, 649, 0.00, 1.43, 0.000000, 0.00, 5, 103, 654, 0
ATT, 4.96, 5.23, 9.02, 6.77, 0.00, 40.57, 45.88
CTUN, 602, 0.00, 1.31, 0.000000, 0.00, 5, 106, 607, 0
GPS, 3, 190421200, 11, 1.88, -33.7840577, 151.0682197, 1.68, 93.76, 0.52, 46.75
ATT, 3.46, 4.89, 9.96, 7.87, 0.00, 40.72, 45.88
CTUN, 604, 0.00, 1.61, 0.000000, 0.00, 6, 102, 610, 0
ATT, 2.76, 3.94, 11.95, 8.38, 0.00, 40.99, 45.88
CTUN, 604, 0.00, 1.61, 0.000000, 0.00, 6, 98, 610, 0
GPS, 3, 190421400, 11, 1.88, -33.7840579, 151.0682208, 1.86, 93.98, 0.51, 75.21
ATT, 1.50, 3.30, 12.07, 9.35, 0.00, 41.36, 45.88
CTUN, 604, 0.00, 1.80, 0.000000, 0.00, 7, 96, 611, 0
ATT, 0.92, 2.26, 12.30, 9.61, 0.00, 41.78, 45.88
CTUN, 604, 0.00, 1.88, 0.000000, 0.00, 7, 94, 611, 0
GPS, 3, 190421600, 11, 1.88, -33.7840583, 151.0682216, 2.03, 94.12, 0.41, 92.79
ATT, 0.00, 1.22, 12.65, 9.90, 0.00, 42.25, 45.88
CTUN, 604, 0.00, 1.97, 0.000000, 0.00, 7, 91, 611, 0
ATT, 0.00, -0.15, 10.42, 10.30, 0.00, 42.78, 45.88
CTUN, 605, 0.00, 2.04, 0.000000, 0.00, 7, 89, 612, 0
GPS, 3, 190421800, 11, 1.88, -33.7840588, 151.0682220, 2.20, 94.20, 0.35, 123.72
ATT, 0.00, -0.77, 6.79, 9.43, 0.00, 43.32, 45.88
CTUN, 604, 0.00, 2.12, 0.000000, 0.00, 5, 87, 609, 0
ATT, 0.00, -1.26, 4.45, 6.95, 0.00, 43.80, 45.88
CTUN, 604, 0.00, 2.17, 0.000000, 0.00, 3, 85, 607, 0
GPS, 3, 190422000, 12, 1.84, -33.7840579, 151.0682212, 2.35, 94.33, 0.55, 46.85
ATT, 0.00, -1.41, 0.00, 4.81, 0.00, 44.14, 45.88
DU32, 7, 8569
CURR, 604, 56441, 1108, 1346, 4772, 36.46009
CTUN, 604, 0.00, 2.30, 0.000000, 0.00, 1, 84, 605, 0
ATT, 0.00, -1.60, 0.00, 1.54, 0.00, 44.39, 45.88
CTUN, 592, 0.00, 2.35, 0.000000, 0.00, 0, 83, 592, 0
GPS, 3, 190422200, 12, 1.84, -33.7840566, 151.0682204, 2.50, 94.45, 0.79, 16.67
ATT, 0.00, -1.51, 0.00, -0.34, 0.00, 44.46, 45.88
CTUN, 592, 0.00, 2.49, 0.000000, 0.00, 0, 81, 592, 0
ATT, 0.00, -1.38, 0.00, -1.17, 0.00, 44.41, 45.88
CTUN, 592, 0.00, 2.48, 0.000000, 0.00, 0, 79, 592, 0
GPS, 3, 190422400, 11, 1.88, -33.7840578, 151.0682201, 2.65, 94.54, 0.44, 16.67
ATT, 0.00, -1.11, 0.00, -1.56, 0.00, 44.29, 45.88
CTUN, 595, 0.00, 2.65, 0.000000, 0.00, 0, 76, 595, 0
ATT, 0.00, -0.60, 0.00, -1.40, 0.00, 44.09, 45.88
CTUN, 592, 0.00, 2.71, 0.000000, 0.00, 0, 74, 592, 0
GPS, 3, 190422600, 11, 1.88, -33.7840590, 151.0682198, 2.79, 94.68, 0.65, 106.49
ATT, 0.00, -0.41, 0.00, -1.01, 0.00, 43.78, 45.88
CTUN, 588, 0.00, 2.67, 0.000000, 0.00, 0, 71, 588, 0
ATT, 0.00, -0.39, 0.00, -0.59, 0.00, 43.45, 45.88
CTUN, 569, 0.00, 2.85, 0.000000, 0.00, 0, 68, 569, 0
GPS, 3, 190422800, 11, 1.88, -33.7840596, 151.0682194, 2.92, 94.75, 0.38, 148.71
ATT, 0.00, -0.22, 0.00, -0.41, 0.00, 43.13, 45.88
CTUN, 570, 0.00, 2.80, 0.000000, 0.00, 0, 62, 570, 0
ATT, 0.00, -0.06, 0.00, -0.42, 0.00, 42.88, 45.88
CTUN, 569, 0.00, 2.94, 0.000000, 0.00, 0, 56, 569, 0
GPS, 3, 190423000, 11, 1.88, -33.7840604, 151.0682195, 3.03, 94.94, 0.44, 169.78
ATT, 0.00, -0.06, 0.00, -0.27, 0.00, 42.76, 45.88
DU32, 7, 8569
CURR, 569, 62311, 1110, 1216, 4772, 40.01355
CTUN, 569, 0.00, 3.00, 0.000000, 0.00, 0, 50, 569, 0
ATT, 0.00, 0.08, 0.00, 0.02, 0.00, 42.76, 45.88
CTUN, 569, 0.00, 2.88, 0.000000, 0.00, 0, 44, 569, 0
GPS, 3, 190423200, 11, 1.88, -33.7840610, 151.0682196, 3.11, 95.09, 0.38, 167.94
ATT, 0.00, 0.46, 0.00, 0.25, 0.00, 42.88, 45.88
CTUN, 569, 0.00, 3.01, 0.000000, 0.00, 0, 37, 569, 0
ATT, 0.00, 0.58, 0.00, 0.26, 0.00, 43.05, 45.88
CTUN, 569, 0.00, 3.12, 0.000000, 0.00, 0, 31, 569, 0
GPS, 3, 190423400, 11, 1.88, -33.7840614, 151.0682199, 3.17, 95.17, 0.25, 164.77
ATT, 0.00, 0.79, 0.00, 0.14, 0.00, 43.22, 45.88
CTUN, 572, 0.00, 3.13, 0.000000, 0.00, 0, 26, 572, 0
ATT, 0.00, 0.92, 0.00, 0.13, 0.00, 43.44, 45.88
CTUN, 570, 0.00, 3.24, 0.000000, 0.00, 0, 20, 570, 0
GPS, 3, 190423600, 12, 1.84, -33.7840610, 151.0682198, 3.21, 95.21, 0.09, 164.77
ATT, 0.00, 0.83, 0.00, -0.06, 0.00, 43.65, 45.88
CTUN, 570, 0.00, 3.22, 0.000000, 0.00, 0, 15, 570, 0
ATT, 0.00, 0.73, 0.00, -0.23, 0.00, 43.80, 45.88
CTUN, 572, 0.00, 3.12, 0.000000, 0.00, 0, 8, 572, 0
GPS, 3, 190423800, 12, 1.84, -33.7840607, 151.0682200, 3.24, 95.31, 0.15, 164.77
ATT, 0.00, 0.89, 0.00, -0.22, 0.00, 43.87, 45.88
CTUN, 571, 0.00, 3.17, 0.000000, 0.00, 0, 3, 571, 0
ATT, 0.00, 1.05, 0.00, -0.23, 0.00, 43.85, 45.88
CTUN, 572, 0.00, 3.28, 0.000000, 0.00, 0, -1, 572, 0
GPS, 3, 190424000, 12, 1.84, -33.7840602, 151.0682204, 3.24, 95.32, 0.26, 164.77
ATT, 0.00, 0.94, 0.00, -0.30, 0.00, 43.77, 45.88
DU32, 7, 8569
CURR, 571, 68014, 1106, 1225, 4752, 43.39219
CTUN, 572, 0.00, 3.11, 0.000000, 0.00, 0, -5, 572, 0
ATT, 0.00, 0.79, 0.00, -0.16, 0.00, 43.64, 45.88
CTUN, 572, 0.00, 3.15, 0.000000, 0.00, 0, -10, 572, 0
GPS, 3, 190424200, 11, 1.88, -33.7840604, 151.0682211, 3.22, 95.26, 0.28, 164.77
ATT, 0.00, 0.87, 0.00, 0.27, 0.00, 43.51, 45.88
CTUN, 571, 0.00, 3.22, 0.000000, 0.00, 0, -15, 571, 0
ATT, 0.00, 0.93, 0.00, 0.81, 0.00, 43.45, 45.88
CTUN, 572, 0.00, 3.13, 0.000000, 0.00, 0, -20, 572, 0
GPS, 3, 190424400, 11, 1.88, -33.7840606, 151.0682221, 3.18, 95.30, 0.47, 138.07
ATT, 0.00, 1.05, 0.00, 1.24, 0.00, 43.48, 45.88
CTUN, 570, 0.00, 3.02, 0.000000, 0.00, 0, -24, 570, 0
ATT, 0.00, 1.10, 0.00, 1.49, 0.00, 43.70, 45.88
CTUN, 569, 0.00, 3.14, 0.000000, 0.00, 0, -29, 569, 0
GPS, 3, 190424600, 11, 1.88, -33.7840607, 151.0682230, 3.12, 95.21, 0.39, 138.07
ATT, 0.00, 0.76, 0.00, 1.48, 0.00, 44.14, 45.88
CTUN, 570, 0.00, 3.14, 0.000000, 0.00, 0, -34, 570, 0
ATT, 0.00, 0.62, 0.00, 1.36, 0.00, 44.71, 45.88
CTUN, 573, 0.00, 2.99, 0.000000, 0.00, 0, -39, 573, 0
GPS, 3, 190424800, 11, 1.88, -33.7840608, 151.0682241, 3.05, 95.08, 0.49, 110.32
ATT, 0.00, 0.69, 0.00, 1.45, 0.00, 45.34, 45.88
CTUN, 584, 0.00, 3.01, 0.000000, 0.00, 0, -44, 584, 0
ATT, 0.00, 0.45, 0.00, 1.40, 0.00, 45.99, 45.88
CTUN, 647, 0.00, 2.89, 0.000000, 0.00, 0, -46, 647, 0
GPS, 3, 190425000, 11, 1.88, -33.7840610, 151.0682251, 2.96, 94.98, 0.43, 102.03
ATT, 0.00, 0.45, 0.00, 1.47, 0.00, 46.61, 45.88
DU32, 7, 8569
CURR, 656, 73784, 1103, 1287, 4752, 46.78314
CTUN, 656, 0.00, 2.97, 0.000000, 0.00, 0, -40, 656, 0
ATT, 0.00, 0.37, 0.00, 1.86, 0.00, 47.15, 45.88
CTUN, 670, 0.00, 2.94, 0.000000, 0.00, 0, -27, 670, 0
GPS, 3, 190425200, 11, 1.88, -33.7840612, 151.0682261, 2.88, 94.84, 0.51, 104.84
ATT, 0.00, 0.41, 0.00, 2.06, 0.00, 47.61, 45.88
CTUN, 670, 0.00, 2.77, 0.000000, 0.00, 0, -14, 670, 0
ATT, 0.00, 0.59, 0.00, 2.09, 0.00, 47.95, 45.88
CTUN, 670, 0.00, 2.78, 0.000000, 0.00, 0, -1, 670, 0
GPS, 3, 190425400, 11, 1.88, -33.7840614, 151.0682271, 2.86, 94.72, 0.46, 100.35
ATT, 0.00, 0.69, 1.52, 2.05, 0.00, 48.23, 45.88
CTUN, 670, 0.00, 2.78, 0.000000, 0.00, 0, 11, 670, 0
ATT, 0.00, 0.68, 5.03, 2.61, 0.00, 48.37, 45.88
CTUN, 670, 0.00, 2.71, 0.000000, 0.00, 0, 23, 670, 0
GPS, 3, 190425600, 10, 1.98, -33.7840616, 151.0682282, 2.87, 94.64, 0.48, 100.89
ATT, 0.00, 0.53, 7.14, 4.20, 0.00, 48.37, 45.88
CTUN, 627, 0.00, 2.73, 0.000000, 0.00, 1, 30, 628, 0
ATT, 0.00, 0.27, 8.55, 5.21, 0.00, 48.25, 45.88
CTUN, 627, 0.00, 3.03, 0.000000, 0.00, 2, 33, 629, 0
GPS, 3, 190425800, 9, 2.26, -33.7840618, 151.0682287, 2.92, 94.70, 0.32, 100.09
ATT, 0.00, -0.05, 7.61, 5.66, 0.00, 48.09, 45.88
CTUN, 627, 0.00, 2.91, 0.000000, 0.00, 2, 34, 629, 0
ATT, 0.00, -0.30, 4.92, 5.35, 0.00, 47.89, 45.88
CTUN, 627, 0.00, 2.87, 0.000000, 0.00, 1, 36, 628, 0
GPS, 3, 190426000, 10, 1.98, -33.7840620, 151.0682296, 2.99, 94.66, 0.38, 106.25
ATT, 0.00, -0.35, 3.86, 4.07, 0.00, 47.61, 45.88
DU32, 7, 8569
CURR, 628, 80306, 1101, 1398, 4712, 50.92234
CTUN, 627, 0.00, 2.92, 0.000000, 0.00, 1, 40, 628, 0
ATT, 0.00, -0.35, 0.11, 2.84, 0.00, 47.24, 45.88
CTUN, 627, 0.00, 2.89, 0.000000, 0.00, 0, 42, 627, 0
GPS, 3, 190426200, 10, 1.98, -33.7840623, 151.0682298, 3.06, 94.73, 0.20, 106.25
ATT, 0.00, -0.46, 0.00, 0.65, 0.00, 46.85, 45.88
CTUN, 627, 0.00, 2.87, 0.000000, 0.00, 0, 45, 627, 0
ATT, 0.00, -0.67, 0.35, -0.19, 0.00, 46.37, 45.88
CTUN, 627, 0.00, 3.04, 0.000000, 0.00, 0, 48, 627, 0
GPS, 3, 190426400, 10, 1.98, -33.7840623, 151.0682299, 3.13, 94.84, 0.11, 106.25
ATT, 0.00, -0.60, 2.92, -0.19, 0.00, 45.93, 45.88
CTUN, 627, 0.00, 3.13, 0.000000, 0.00, 0, 53, 627, 0
ATT, 0.00, -0.73, 3.16, 1.15, 0.00, 45.47, 45.88
CTUN, 609, 0.00, 2.95, 0.000000, 0.00, 0, 57, 609, 0
GPS, 3, 190426600, 10, 1.98, -33.7840623, 151.0682299, 3.23, 94.92, 0.08, 106.25
ATT, 0.00, -0.66, 3.16, 1.96, 0.00, 44.99, 45.88
CTUN, 594, 0.00, 3.02, 0.000000, 0.00, 0, 58, 594, 0
ATT, 0.00, -0.51, 4.80, 2.60, 0.00, 44.46, 45.88
CTUN, 594, 0.00, 3.16, 0.000000, 0.00, 0, 56, 594, 0
GPS, 3, 190426800, 10, 1.98, -33.7840621, 151.0682299, 3.31, 95.05, 0.08, 106.25
ATT, 0.00, -0.22, 5.97, 3.42, 0.00, 43.86, 45.88
CTUN, 594, 0.00, 3.17, 0.000000, 0.00, 1, 53, 595, 0
ATT, 0.00, 0.06, 6.32, 4.30, 0.00, 43.26, 45.88
CTUN, 594, 0.00, 3.36, 0.000000, 0.00, 1, 51, 595, 0
GPS, 3, 190427000, 10, 1.98, -33.7840620, 151.0682302, 3.40, 95.09, 0.14, 106.25
ATT, 0.00, 0.27, 5.97, 4.70, 0.00, 42.76, 45.88
DU32, 7, 8569
CURR, 583, 86454, 1099, 1295, 4712, 54.67594
PM, 0, 0, 50, 0, 1000, 10268, 10, 4
CTUN, 585, 0.00, 3.36, 0.000000, 0.00, 1, 47, 586, 0
ATT, 0.00, 0.44, 5.97, 4.80, 0.00, 42.32, 45.88
CTUN, 584, 0.00, 3.21, 0.000000, 0.00, 1, 45, 585, 0
GPS, 3, 190427200, 10, 1.98, -33.7840621, 151.0682303, 3.49, 95.13, 0.06, 106.25
ATT, 0.00, 0.74, 4.80, 4.93, 0.00, 42.03, 45.88
CTUN, 582, 0.00, 3.41, 0.000000, 0.00, 1, 40, 583, 0
ATT, 0.00, 0.97, 4.80, 4.60, 0.00, 41.97, 45.88
CTUN, 585, 0.00, 3.47, 0.000000, 0.00, 1, 37, 586, 0
GPS, 3, 190427400, 10, 1.98, -33.7840624, 151.0682304, 3.55, 95.16, 0.11, 106.25
ATT, 0.00, 0.99, 5.50, 4.26, 0.00, 42.12, 45.88
CTUN, 583, 0.00, 3.52, 0.000000, 0.00, 1, 33, 584, 0
ATT, 0.00, 1.04, 5.85, 4.34, 0.00, 42.43, 45.88
CTUN, 581, 0.00, 3.59, 0.000000, 0.00, 1, 30, 582, 0
GPS, 3, 190427600, 10, 1.98, -33.7840628, 151.0682303, 3.60, 95.17, 0.24, 149.56
ATT, 0.00, 0.88, 6.91, 4.49, 0.00, 42.89, 45.88
CTUN, 582, 0.00, 3.55, 0.000000, 0.00, 1, 26, 583, 0
ATT, 0.00, 0.81, 6.91, 5.04, 0.00, 43.40, 45.88
CTUN, 582, 0.00, 3.48, 0.000000, 0.00, 1, 22, 583, 0
GPS, 3, 190427800, 10, 1.98, -33.7840633, 151.0682301, 3.65, 95.18, 0.28, 176.18
ATT, 0.00, 0.59, 8.20, 5.36, 0.00, 43.92, 45.88
CTUN, 582, 0.00, 3.64, 0.000000, 0.00, 2, 18, 584, 0
ATT, -0.93, 0.37, 8.67, 5.97, 0.00, 44.38, 45.88
CTUN, 583, 0.00, 3.65, 0.000000, 0.00, 2, 14, 585, 0
GPS, 3, 190428000, 10, 1.98, -33.7840640, 151.0682298, 3.67, 95.19, 0.34, 193.87
ATT, -0.34, -0.20, 8.55, 6.50, 0.00, 44.77, 45.88
DU32, 7, 8569
CURR, 583, 92294, 1099, 1249, 4752, 58.14670
CTUN, 581, 0.00, 3.60, 0.000000, 0.00, 3, 11, 584, 0
ATT, -0.34, -0.37, 8.55, 6.65, 0.00, 45.08, 45.88
CTUN, 581, 0.00, 3.55, 0.000000, 0.00, 3, 8, 584, 0
GPS, 3, 190428200, 10, 1.98, -33.7840648, 151.0682294, 3.69, 95.18, 0.43, 204.59
ATT, -0.58, -0.30, 8.55, 6.84, 0.00, 45.30, 45.88
CTUN, 582, 0.00, 3.65, 0.000000, 0.00, 3, 5, 585, 0
ATT, -0.81, -0.46, 8.43, 6.77, 0.00, 45.42, 45.88
CTUN, 584, 0.00, 3.73, 0.000000, 0.00, 3, 4, 587, 0
GPS, 3, 190428400, 10, 1.98, -33.7840659, 151.0682288, 3.69, 95.20, 0.60, 209.39
ATT, -0.93, -0.72, 6.91, 6.61, 0.00, 45.48, 45.88
CTUN, 584, 0.00, 3.69, 0.000000, 0.00, 2, 1, 586, 0
ATT, -1.16, -0.67, 0.70, 5.81, 0.00, 45.52, 45.88
CTUN, 583, 0.00, 3.71, 0.000000, 0.00, 1, 0, 584, 0
GPS, 3, 190428600, 10, 1.98, -33.7840667, 151.0682278, 3.70, 95.18, 0.65, 218.67
ATT, -0.46, -0.54, 0.00, 2.97, 0.00, 45.57, 45.88
CTUN, 583, 0.00, 3.66, 0.000000, 0.00, 0, -2, 583, 0
ATT, -0.46, -0.69, 0.00, 0.47, 0.00, 45.59, 45.88
CTUN, 582, 0.00, 3.70, 0.000000, 0.00, 0, -3, 582, 0
GPS, 3, 190428800, 10, 1.98, -33.7840674, 151.0682264, 3.69, 95.19, 0.75, 225.72
ATT, -1.04, -0.45, 0.00, -0.29, 0.00, 45.62, 45.88
CTUN, 584, 0.00, 3.84, 0.000000, 0.00, 0, -5, 584, 0
ATT, -3.72, -0.92, 0.00, -0.75, 0.00, 45.66, 45.88
CTUN, 583, 0.00, 3.67, 0.000000, 0.00, 0, -7, 583, 0
GPS, 3, 190429000, 11, 1.85, -33.7840682, 151.0682251, 3.69, 95.14, 0.77, 226.71
ATT, -4.18, -2.15, 0.00, -0.87, 0.00, 45.72, 45.88
DU32, 7, 8569
CURR, 583, 98134, 1100, 1248, 4752, 61.61161
CTUN, 583, 0.00, 3.53, 0.000000, 0.00, 0, -10, 583, 0
ATT, -5.93, -3.03, 0.00, -0.76, 0.00, 45.80, 45.88
CTUN, 585, 0.00, 3.66, 0.000000, 0.00, 0, -12, 585, 0
GPS, 3, 190429200, 11, 1.85, -33.7840689, 151.0682239, 3.65, 95.10, 0.63, 228.47
ATT, -6.97, -4.02, 0.00, -0.66, 0.00, 45.93, 45.88
CTUN, 582, 0.00, 3.64, 0.000000, 0.00, 1, -15, 583, 0
ATT, -8.48, -5.32, 0.00, -0.29, 0.00, 46.09, 45.88
CTUN, 584, 0.00, 3.40, 0.000000, 0.00, 2, -18, 586, 0
GPS, 3, 190429400, 12, 1.76, -33.7840694, 151.0682230, 3.61, 95.00, 0.52, 233.10
ATT, -8.60, -6.45, 0.00, 0.09, 0.00, 46.24, 45.88
CTUN, 584, 0.00, 3.65, 0.000000, 0.00, 3, -20, 587, 0
ATT, -8.72, -7.05, 0.00, 0.40, 0.00, 46.33, 45.88
CTUN, 584, 0.00, 3.52, 0.000000, 0.00, 3, -24, 587, 0
GPS, 3, 190429600, 12, 1.76, -33.7840695, 151.0682219, 3.56, 94.95, 0.49, 244.40
ATT, -8.60, -7.54, 0.00, 0.55, 0.00, 46.30, 45.88
CTUN, 582, 0.00, 3.42, 0.000000, 0.00, 3, -25, 585, 0
ATT, -5.93, -7.54, 0.00, 0.66, 0.00, 46.11, 45.88
CTUN, 582, 0.00, 3.38, 0.000000, 0.00, 3, -28, 585, 0
GPS, 3, 190429800, 12, 1.76, -33.7840691, 151.0682208, 3.50, 94.88, 0.56, 270.07
ATT, -1.86, -5.83, 0.00, 0.78, 0.00, 45.80, 45.88
CTUN, 584, 0.00, 3.45, 0.000000, 0.00, 1, -31, 585, 0
ATT, 0.00, -3.17, 0.00, 0.91, 0.00, 45.43, 45.88
CTUN, 584, 0.00, 3.20, 0.000000, 0.00, 0, -33, 584, 0
GPS, 3, 190430000, 12, 1.76, -33.7840684, 151.0682194, 3.42, 94.78, 0.70, 287.71
ATT, 0.00, -1.30, 0.00, 0.83, 0.00, 45.17, 45.88
DU32, 7, 8569
CURR, 584, 103976, 1101, 1252, 4752, 65.07774
CTUN, 581, 0.00, 3.19, 0.000000, 0.00, 0, -36, 581, 0
ATT, 0.00, -0.45, 0.00, 0.69, 0.00, 44.98, 45.88
CTUN, 582, 0.00, 3.27, 0.000000, 0.00, 0, -39, 582, 0
GPS, 3, 190430200, 12, 1.76, -33.7840674, 151.0682181, 3.32, 94.62, 0.81, 302.02
ATT, 0.00, 0.05, 0.00, 0.82, 0.00, 44.83, 45.88
CTUN, 582, 0.00, 3.19, 0.000000, 0.00, 0, -41, 582, 0
ATT, 0.00, 0.43, 0.00, 0.99, 0.00, 44.74, 45.88
CTUN, 584, 0.00, 3.14, 0.000000, 0.00, 0, -44, 584, 0
GPS, 3, 190430400, 12, 1.76, -33.7840665, 151.0682167, 3.23, 94.52, 0.78, 304.42
ATT, 0.00, 0.59, 0.00, 1.03, 0.00, 44.71, 45.88
CTUN, 584, 0.00, 3.12, 0.000000, 0.00, 0, -47, 584, 0
ATT, 0.00, 0.69, 0.00, 1.14, 0.00, 44.68, 45.88
CTUN, 581, 0.00, 2.94, 0.000000, 0.00, 0, -50, 581, 0
GPS, 3, 190430600, 13, 1.73, -33.7840654, 151.0682154, 3.12, 94.43, 0.79, 309.78
ATT, 0.00, 0.74, 0.00, 1.15, 0.00, 44.71, 45.88
CTUN, 583, 0.00, 3.06, 0.000000, 0.00, 0, -54, 583, 0
ATT, 0.00, 0.68, 0.00, 1.00, 0.00, 44.78, 45.88
CTUN, 582, 0.00, 2.95, 0.000000, 0.00, 0, -57, 582, 0
GPS, 3, 190430800, 13, 1.73, -33.7840643, 151.0682142, 2.99, 94.29, 0.79, 312.24
ATT, 0.00, 0.77, 0.00, 0.96, 0.00, 44.85, 45.88
CTUN, 583, 0.00, 2.77, 0.000000, 0.00, 0, -60, 583, 0
ATT, 0.00, 0.88, 0.00, 0.96, 0.00, 44.93, 45.88
CTUN, 583, 0.00, 2.86, 0.000000, 0.00, 0, -64, 583, 0
GPS, 3, 190431000, 12, 1.76, -33.7840633, 151.0682133, 2.86, 94.14, 0.70, 316.18
ATT, 0.00, 0.90, 0.00, 0.84, 0.00, 44.99, 45.88
DU32, 7, 8569
CURR, 584, 109810, 1096, 1240, 4732, 68.51691
CTUN, 583, 0.00, 2.77, 0.000000, 0.00, 0, -67, 583, 0
ATT, 0.00, 1.04, 0.00, 0.80, 0.00, 45.10, 45.88
CTUN, 584, 0.00, 2.49, 0.000000, 0.00, 0, -70, 584, 0
GPS, 3, 190431200, 12, 1.76, -33.7840626, 151.0682123, 2.71, 93.99, 0.63, 315.10
ATT, 0.00, 0.97, 0.23, 0.75, 0.00, 45.24, 45.88
CTUN, 581, 0.00, 2.62, 0.000000, 0.00, 0, -74, 581, 0
ATT, 0.00, 1.10, 1.05, 0.78, 0.00, 45.38, 45.88
CTUN, 583, 0.00, 2.36, 0.000000, 0.00, 0, -78, 583, 0
GPS, 3, 190431400, 12, 1.76, -33.7840619, 151.0682115, 2.54, 93.84, 0.56, 316.82
ATT, 0.00, 1.19, 2.22, 1.11, 0.00, 45.58, 45.88
CTUN, 584, 0.00, 2.27, 0.000000, 0.00, 0, -81, 584, 0
ATT, 0.00, 1.09, 2.92, 1.62, 0.00, 45.90, 45.88
CTUN, 584, 0.00, 2.26, 0.000000, 0.00, 0, -85, 584, 0
GPS, 3, 190431600, 11, 1.88, -33.7840610, 151.0682106, 2.37, 93.70, 0.63, 317.06
ATT, 0.00, 0.85, 3.98, 1.92, 0.00, 46.27, 45.88
CTUN, 584, 0.00, 2.17, 0.000000, 0.00, 0, -88, 584, 0
ATT, 0.00, 0.74, 4.21, 2.64, 0.00, 46.64, 45.88
CTUN, 584, 0.00, 2.01, 0.000000, 0.00, 0, -92, 584, 0
GPS, 3, 190431800, 12, 1.84, -33.7840603, 151.0682101, 2.16, 93.50, 0.48, 321.31
ATT, 0.00, 0.40, 3.98, 2.99, 0.00, 46.99, 45.88
CTUN, 583, 0.00, 2.05, 0.000000, 0.00, 0, -95, 583, 0
ATT, 0.00, 0.05, 3.98, 3.38, 0.00, 47.28, 45.88
CTUN, 584, 0.00, 2.03, 0.000000, 0.00, 0, -97, 584, 0
GPS, 3, 190432000, 12, 1.84, -33.7840598, 151.0682094, 1.95, 93.32, 0.44, 317.83
ATT, 0.00, 0.01, 3.98, 3.84, 0.00, 47.31, 45.88
DU32, 7, 8569
CURR, 584, 115643, 1096, 1232, 4772, 71.92558
CTUN, 584, 0.00, 1.72, 0.000000, 0.00, 1, -100, 585, 0
ATT, 0.00, 0.03, 3.98, 4.23, 0.00, 47.07, 45.88
CTUN, 584, 0.00, 1.68, 0.000000, 0.00, 1, -103, 585, 0
GPS, 3, 190432200, 12, 1.84, -33.7840593, 151.0682088, 1.74, 93.12, 0.40, 316.58
ATT, 0.00, 0.35, 3.98, 4.35, 0.00, 46.71, 45.88
CTUN, 584, 0.00, 1.71, 0.000000, 0.00, 1, -107, 585, 0
ATT, 0.00, 0.26, 3.63, 3.67, 0.00, 46.42, 45.88
CTUN, 600, 0.00, 1.45, 0.000000, 0.00, 0, -109, 600, 0
GPS, 3, 190432400, 12, 1.84, -33.7840586, 151.0682079, 1.52, 92.87, 0.56, 309.95
ATT, 0.00, 0.45, 3.63, 3.04, 0.00, 46.12, 45.88
CTUN, 621, 0.00, 1.30, 0.000000, 0.00, 0, -107, 621, 0
ATT, 0.00, 0.69, 3.63, 3.19, 0.00, 45.81, 45.88
CTUN, 626, 0.00, 1.30, 0.000000, 0.00, 0, -107, 626, 0
GPS, 3, 190432600, 12, 1.84, -33.7840584, 151.0682070, 1.29, 92.63, 0.40, 303.53
ATT, 0.00, 1.03, 1.75, 2.39, 0.00, 45.53, 45.88
CTUN, 634, 0.00, 1.16, 0.000000, 0.00, 0, -104, 634, 0
ATT, 0.00, 1.88, 0.58, 1.50, 0.00, 45.23, 45.88
CTUN, 652, 0.00, 1.07, 0.000000, 0.00, 0, -98, 652, 0
GPS, 3, 190432800, 12, 1.84, -33.7840579, 151.0682060, 1.08, 92.46, 0.52, 300.08
ATT, 0.00, 1.62, 0.00, 0.00, 0.00, 44.90, 45.88
CTUN, 654, 0.00, 0.97, 0.000000, 0.00, 0, -92, 654, 0
ATT, 0.00, 1.58, 0.00, -0.87, 0.00, 44.50, 45.88
CTUN, 678, 0.00, 0.91, 0.000000, 0.00, 0, -84, 678, 0
GPS, 3, 190433000, 13, 1.73, -33.7840577, 151.0682052, 0.90, 92.21, 0.40, 295.83
ATT, 0.00, 1.22, 0.00, -0.44, 0.00, 44.14, 45.88
DU32, 7, 8569
CURR, 678, 121855, 1082, 1502, 4752, 75.65797
CTUN, 678, 0.00, 0.86, 0.000000, 0.00, 0, -74, 678, 0
ATT, 0.00, 0.56, 0.00, 0.29, 0.00, 43.82, 45.88
CTUN, 678, 0.00, 0.80, 0.000000, 0.00, 0, -63, 678, 0
GPS, 3, 190433200, 12, 1.81, -33.7840580, 151.0682047, 0.76, 92.08, 0.24, 295.83
ATT, 0.00, -0.63, 0.00, 0.95, 0.00, 43.49, 45.88
CTUN, 679, 0.00, 0.67, 0.000000, 0.00, 0, -52, 679, 0
ATT, 0.00, -0.64, 0.00, 1.27, 0.00, 43.31, 45.88
CTUN, 677, 0.00, 0.63, 0.000000, 0.00, 0, -43, 677, 0
GPS, 3, 190433400, 12, 1.81, -33.7840576, 151.0682041, 0.66, 91.91, 0.34, 301.04
ATT, 0.00, -0.93, 0.00, 1.28, 0.00, 43.29, 45.88
CTUN, 677, 0.00, 0.60, 0.000000, 0.00, 0, -30, 677, 0
ATT, 0.00, -0.85, 0.00, 1.30, 0.00, 43.40, 45.88
CTUN, 677, 0.00, 0.57, 0.000000, 0.00, 0, -18, 677, 0
GPS, 3, 190433600, 11, 1.93, -33.7840575, 151.0682038, 0.60, 91.83, 0.20, 301.04
ATT, 0.00, -0.68, 0.00, 1.68, 0.00, 43.62, 45.88
CTUN, 677, 0.00, 0.64, 0.000000, 0.00, 0, -6, 677, 0
ATT, 0.00, 0.12, 0.00, 1.67, 0.00, 43.82, 45.88
CTUN, 677, 0.00, 0.65, 0.000000, 0.00, 0, 4, 677, 0
GPS, 3, 190433800, 10, 1.96, -33.7840576, 151.0682035, 0.60, 91.82, 0.12, 301.04
ATT, 0.00, -0.14, 0.00, 1.96, 0.00, 44.01, 45.88
CTUN, 613, 0.00, 0.80, 0.000000, 0.00, 0, 13, 613, 0
ATT, 0.00, 0.04, 0.00, 1.57, 0.00, 44.00, 45.88
CTUN, 611, 0.00, 0.63, 0.000000, 0.00, 0, 16, 611, 0
GPS, 3, 190434000, 9, 2.02, -33.7840577, 151.0682033, 0.64, 91.85, 0.13, 301.04
ATT, 0.00, -0.29, 0.00, 1.01, 0.00, 43.83, 45.88
DU32, 7, 8569
CURR, 613, 128507, 1090, 1305, 4732, 79.91686
CTUN, 611, 0.00, 0.58, 0.000000, 0.00, 0, 17, 611, 0
ATT, 0.00, -0.91, 0.00, 0.94, 0.00, 43.60, 45.88
CTUN, 613, 0.00, 0.68, 0.000000, 0.00, 0, 14, 613, 0
GPS, 3, 190434200, 10, 1.91, -33.7840578, 151.0682030, 0.67, 91.92, 0.14, 301.04
ATT, 0.00, -1.18, 0.00, 1.12, 0.00, 43.41, 45.88
CTUN, 612, 0.00, 0.53, 0.000000, 0.00, 0, 13, 612, 0
ATT, 0.00, -1.30, 0.00, 1.22, 0.00, 43.16, 45.88
CTUN, 613, 0.00, 0.58, 0.000000, 0.00, 0, 11, 613, 0
GPS, 3, 190434400, 10, 1.91, -33.7840579, 151.0682028, 0.68, 91.96, 0.13, 301.04
ATT, 0.00, -1.37, 0.00, 1.05, 0.00, 43.05, 45.88
CTUN, 614, 0.00, 0.83, 0.000000, 0.00, 0, 9, 614, 0
ATT, 0.00, -1.23, 0.00, 0.90, 0.00, 43.02, 45.88
CTUN, 614, 0.00, 0.64, 0.000000, 0.00, 0, 9, 614, 0
GPS, 3, 190434600, 11, 1.88, -33.7840579, 151.0682025, 0.71, 92.00, 0.14, 301.04
ATT, 0.00, -1.01, 0.00, 0.85, 0.00, 43.17, 45.88
CTUN, 612, 0.00, 0.72, 0.000000, 0.00, 0, 7, 612, 0
ATT, 0.00, -1.24, 0.00, 0.57, 0.00, 43.57, 45.88
CTUN, 615, 0.00, 0.74, 0.000000, 0.00, 0, 5, 615, 0
GPS, 3, 190434800, 11, 1.88, -33.7840578, 151.0682022, 0.72, 92.04, 0.15, 301.04
ATT, 0.00, -1.43, 0.00, 0.11, 0.00, 44.01, 45.88
CTUN, 613, 0.00, 0.56, 0.000000, 0.00, 0, 4, 613, 0
ATT, 0.00, -1.08, 0.00, -0.14, 0.00, 44.36, 45.88
CTUN, 611, 0.00, 0.70, 0.000000, 0.00, 0, 2, 611, 0
GPS, 3, 190435000, 10, 1.98, -33.7840575, 151.0682019, 0.72, 92.04, 0.16, 301.04
ATT, 0.00, -1.05, 0.00, -0.19, 0.00, 44.68, 45.88
DU32, 7, 8569
CURR, 614, 134635, 1086, 1335, 4752, 83.63194
CTUN, 614, 0.00, 0.72, 0.000000, 0.00, 0, 2, 614, 0
ATT, 0.00, -0.87, 0.00, -0.32, 0.00, 45.00, 45.88
CTUN, 629, 0.00, 0.57, 0.000000, 0.00, 0, 3, 629, 0
GPS, 3, 190435200, 10, 1.98, -33.7840573, 151.0682017, 0.72, 92.05, 0.14, 301.04
ATT, 0.00, -0.73, 0.00, -0.36, 0.00, 45.27, 45.88
CTUN, 638, 0.00, 0.80, 0.000000, 0.00, 0, 4, 638, 0
ATT, 0.00, -0.50, 0.00, -0.42, 0.00, 45.53, 45.88
CTUN, 642, 0.00, 0.74, 0.000000, 0.00, 0, 8, 642, 0
GPS, 3, 190435400, 9, 2.31, -33.7840569, 151.0682015, 0.73, 92.05, 0.17, 315.19
ATT, 0.23, -0.29, 0.00, -0.14, 0.00, 45.69, 45.88
CTUN, 642, 0.00, 0.65, 0.000000, 0.00, 0, 12, 642, 0
ATT, 1.96, -0.21, 0.00, -0.01, 0.00, 45.70, 45.88
CTUN, 642, 0.00, 0.74, 0.000000, 0.00, 0, 16, 642, 0
GPS, 3, 190435600, 10, 2.23, -33.7840564, 151.0682014, 0.75, 92.08, 0.20, 334.14
ATT, 2.53, 0.71, 0.11, -0.17, 0.00, 45.50, 45.88
CTUN, 642, 0.00, 0.64, 0.000000, 0.00, 0, 21, 642, 0
ATT, 3.80, 1.77, 0.11, 0.19, 0.00, 45.22, 45.88
CTUN, 642, 0.00, 0.69, 0.000000, 0.00, 0, 24, 642, 0
GPS, 3, 190435800, 10, 2.23, -33.7840558, 151.0682014, 0.79, 92.11, 0.28, 348.58
ATT, 3.69, 2.90, 0.46, 0.47, 0.00, 44.91, 45.88
CTUN, 642, 0.00, 0.79, 0.000000, 0.00, 0, 26, 642, 0
ATT, 4.50, 3.24, 0.11, 0.84, 0.00, 44.67, 45.88
CTUN, 642, 0.00, 0.82, 0.000000, 0.00, 0, 29, 642, 0
GPS, 3, 190436000, 10, 2.23, -33.7840554, 151.0682017, 0.83, 92.14, 0.25, 348.58
ATT, 4.50, 3.68, 0.46, 0.90, 0.00, 44.45, 45.88
DU32, 7, 8569
CURR, 635, 141010, 1081, 1439, 4752, 87.56227
CTUN, 631, 0.00, 0.87, 0.000000, 0.00, 1, 34, 632, 0
ATT, 4.50, 3.92, 0.46, 1.02, 0.00, 44.34, 45.88
CTUN, 631, 0.00, 0.74, 0.000000, 0.00, 1, 36, 632, 0
GPS, 3, 190436200, 10, 1.98, -33.7840551, 151.0682021, 0.90, 92.22, 0.23, 348.58
ATT, 4.50, 3.97, 0.23, 1.21, 0.00, 44.28, 45.88
CTUN, 631, 0.00, 0.92, 0.000000, 0.00, 1, 37, 632, 0
ATT, 4.50, 3.96, 0.35, 1.42, 0.00, 44.24, 45.88
CTUN, 631, 0.00, 0.82, 0.000000, 0.00, 1, 38, 632, 0
GPS, 3, 190436400, 11, 1.88, -33.7840550, 151.0682026, 0.97, 92.28, 0.25, 348.58
ATT, 3.34, 3.91, 0.35, 1.56, 0.00, 44.20, 45.88
CTUN, 631, 0.00, 0.91, 0.000000, 0.00, 1, 39, 632, 0
ATT, 2.65, 3.34, 0.35, 1.52, 0.00, 44.16, 45.88
CTUN, 631, 0.00, 1.09, 0.000000, 0.00, 0, 39, 631, 0
GPS, 3, 190436600, 11, 1.88, -33.7840552, 151.0682034, 1.04, 92.32, 0.36, 47.08
ATT, 1.15, 2.54, 0.35, 1.52, 0.00, 44.10, 45.88
CTUN, 631, 0.00, 0.98, 0.000000, 0.00, 0, 41, 631, 0
ATT, 0.00, 1.62, 1.05, 1.57, 0.00, 44.07, 45.88
CTUN, 630, 0.00, 1.08, 0.000000, 0.00, 0, 42, 630, 0
GPS, 3, 190436800, 11, 1.88, -33.7840553, 151.0682041, 1.12, 92.40, 0.38, 79.54
ATT, 0.00, 0.38, 1.52, 1.79, 0.00, 44.11, 45.88
CTUN, 631, 0.00, 1.02, 0.000000, 0.00, 0, 43, 631, 0
ATT, 0.00, -0.25, 1.52, 1.84, 0.00, 44.14, 45.88
CTUN, 631, 0.00, 1.09, 0.000000, 0.00, 0, 44, 631, 0
GPS, 3, 190437000, 10, 2.23, -33.7840556, 151.0682050, 1.20, 92.47, 0.45, 103.13
ATT, 0.00, -0.81, 1.52, 1.79, 0.00, 44.15, 45.88
DU32, 7, 8569
CURR, 631, 147328, 1084, 1404, 4752, 91.46337
PM, 0, 0, 50, 0, 1000, 10241, 10, 4
CTUN, 631, 0.00, 1.09, 0.000000, 0.00, 0, 45, 631, 0
ATT, 0.00, -1.04, 1.52, 1.65, 0.00, 44.16, 45.88
CTUN, 631, 0.00, 1.16, 0.000000, 0.00, 0, 46, 631, 0
GPS, 3, 190437200, 11, 1.88, -33.7840559, 151.0682059, 1.28, 92.58, 0.50, 110.32
ATT, 0.00, -1.12, 1.52, 1.53, 0.00, 44.12, 45.88
CTUN, 631, 0.00, 1.25, 0.000000, 0.00, 0, 46, 631, 0
ATT, 0.00, -1.21, 1.52, 1.39, 0.00, 44.09, 45.88
CTUN, 621, 0.00, 1.26, 0.000000, 0.00, 0, 48, 621, 0
GPS, 3, 190437400, 12, 1.76, -33.7840561, 151.0682066, 1.36, 92.67, 0.36, 111.99
ATT, 0.00, -1.03, 1.75, 1.40, 0.00, 44.06, 45.88
CTUN, 619, 0.00, 1.38, 0.000000, 0.00, 0, 48, 619, 0
ATT, 0.00, -0.97, 2.34, 1.26, 0.00, 44.07, 45.88
CTUN, 619, 0.00, 1.39, 0.000000, 0.00, 0, 47, 619, 0
GPS, 3, 190437600, 12, 1.76, -33.7840564, 151.0682073, 1.45, 92.76, 0.38, 119.40
ATT, 0.00, -0.89, 2.92, 1.48, 0.00, 44.09, 45.88
CTUN, 619, 0.00, 1.44, 0.000000, 0.00, 0, 46, 619, 0
ATT, 0.00, -0.54, 1.05, 2.10, 0.00, 44.07, 45.88
CTUN, 605, 0.00, 1.61, 0.000000, 0.00, 0, 45, 605, 0
GPS, 3, 190437800, 12, 1.76, -33.7840567, 151.0682078, 1.54, 92.84, 0.31, 124.08
ATT, 0.00, -0.41, 0.11, 1.68, 0.00, 44.06, 45.88
CTUN, 559, 0.00, 1.55, 0.000000, 0.00, 0, 42, 559, 0
ATT, 0.00, -0.47, 0.00, 0.76, 0.00, 44.01, 45.88
CTUN, 542, 0.00, 1.60, 0.000000, 0.00, 0, 36, 542, 0
GPS, 3, 190438000, 12, 1.76, -33.7840568, 151.0682085, 1.62, 92.94, 0.31, 116.36
ATT, 0.00, 0.06, 0.00, 0.36, 0.00, 43.90, 45.88
DU32, 7, 8569
CURR, 542, 153449, 1097, 1139, 4732, 95.19142
CTUN, 542, 0.00, 1.76, 0.000000, 0.00, 0, 23, 542, 0
ATT, 0.00, 0.44, 0.00, 0.10, 0.00, 43.89, 45.88
CTUN, 542, 0.00, 1.75, 0.000000, 0.00, 0, 10, 542, 0
GPS, 3, 190438200, 12, 1.76, -33.7840568, 151.0682089, 1.67, 93.02, 0.20, 116.36
ATT, 0.00, 0.41, 0.00, -0.26, 0.00, 43.94, 45.88
CTUN, 542, 0.00, 1.73, 0.000000, 0.00, 0, -1, 542, 0
ATT, 0.00, 0.44, 0.82, -0.31, 0.00, 43.96, 45.88
CTUN, 583, 0.00, 1.82, 0.000000, 0.00, 0, -14, 583, 0
GPS, 3, 190438400, 12, 1.76, -33.7840570, 151.0682094, 1.67, 93.02, 0.25, 115.14
ATT, 0.00, 0.38, 0.93, -0.01, 0.00, 44.00, 45.88
CTUN, 610, 0.00, 1.77, 0.000000, 0.00, 0, -22, 610, 0
ATT, 0.00, 0.27, 0.82, 0.17, 0.00, 44.01, 45.88
CTUN, 614, 0.00, 1.59, 0.000000, 0.00, 0, -23, 614, 0
GPS, 3, 190438600, 12, 1.76, -33.7840573, 151.0682101, 1.63, 92.98, 0.31, 114.87
ATT, 0.00, 0.08, 2.92, 0.44, 0.00, 44.01, 45.88
CTUN, 614, 0.00, 1.75, 0.000000, 0.00, 0, -23, 614, 0
ATT, 0.00, 0.01, 3.98, 1.21, 0.00, 44.08, 45.88
CTUN, 616, 0.00, 1.76, 0.000000, 0.00, 0, -21, 616, 0
GPS, 3, 190438800, 12, 1.76, -33.7840574, 151.0682107, 1.60, 92.94, 0.30, 113.22
ATT, 0.00, 0.09, 4.10, 2.65, 0.00, 44.20, 45.88
CTUN, 614, 0.00, 1.70, 0.000000, 0.00, 0, -20, 614, 0
ATT, 0.00, 0.13, 5.74, 3.33, 0.00, 44.40, 45.88
CTUN, 614, 0.00, 1.64, 0.000000, 0.00, 0, -19, 614, 0
GPS, 3, 190439000, 12, 1.76, -33.7840574, 151.0682113, 1.57, 92.93, 0.27, 107.26
ATT, 0.00, 0.20, 5.97, 4.46, 0.00, 44.64, 45.88
DU32, 7, 8569
CURR, 614, 159312, 1085, 1331, 4752, 98.63467
CTUN, 614, 0.00, 1.64, 0.000000, 0.00, 1, -19, 615, 0
ATT, 0.00, 0.36, 6.44, 4.96, 0.00, 44.92, 45.88
CTUN, 614, 0.00, 1.74, 0.000000, 0.00, 1, -21, 615, 0
GPS, 3, 190439200, 12, 1.76, -33.7840578, 151.0682118, 1.54, 92.88, 0.31, 120.37
ATT, 0.00, 0.20, 7.03, 5.33, 0.00, 45.26, 45.88
CTUN, 614, 0.00, 1.64, 0.000000, 0.00, 2, -21, 616, 0
ATT, 0.00, 0.14, 7.61, 5.80, 0.00, 45.59, 45.88
CTUN, 614, 0.00, 1.47, 0.000000, 0.00, 2, -22, 616, 0
GPS, 3, 190439400, 12, 1.76, -33.7840580, 151.0682121, 1.51, 92.85, 0.19, 125.85
ATT, -3.37, 0.05, 8.55, 6.28, 0.00, 45.94, 45.88
CTUN, 616, 0.00, 1.57, 0.000000, 0.00, 3, -23, 619, 0
ATT, -4.41, -1.22, 9.02, 6.97, 0.00, 46.27, 45.88
CTUN, 615, 0.00, 1.54, 0.000000, 0.00, 4, -23, 619, 0
GPS, 3, 190439600, 11, 1.88, -33.7840585, 151.0682120, 1.47, 92.79, 0.28, 171.96
ATT, -4.06, -2.38, 6.91, 7.45, 0.00, 46.55, 45.88
CTUN, 614, 0.00, 1.44, 0.000000, 0.00, 4, -25, 618, 0
ATT, -4.30, -2.59, 6.44, 6.85, 0.00, 46.85, 45.88
CTUN, 614, 0.00, 1.59, 0.000000, 0.00, 3, -25, 617, 0
GPS, 3, 190439800, 11, 1.88, -33.7840591, 151.0682117, 1.42, 92.74, 0.32, 182.80
ATT, -2.90, -3.22, 4.21, 6.12, 0.00, 47.23, 45.88
CTUN, 615, 0.00, 1.47, 0.000000, 0.00, 3, -25, 618, 0
ATT, -3.02, -3.32, 1.75, 4.79, 0.00, 47.66, 45.88
CTUN, 614, 0.00, 1.45, 0.000000, 0.00, 2, -26, 616, 0
GPS, 3, 190440000, 11, 1.88, -33.7840596, 151.0682109, 1.38, 92.68, 0.48, 206.64
ATT, -2.20, -3.47, 0.00, 2.66, 0.00, 48.03, 45.88
DU32, 7, 8569
CURR, 614, 165482, 1083, 1334, 4772, 102.3363
CTUN, 614, 0.00, 1.49, 0.000000, 0.00, 1, -24, 615, 0
ATT, -1.86, -3.15, 0.00, 1.10, 0.00, 48.17, 45.88
CTUN, 614, 0.00, 1.43, 0.000000, 0.00, 0, -23, 614, 0
GPS, 3, 190440200, 11, 1.88, -33.7840602, 151.0682099, 1.34, 92.66, 0.59, 222.30
ATT, -1.62, -3.06, 0.00, 0.35, 0.00, 48.05, 45.88
CTUN, 620, 0.00, 1.49, 0.000000, 0.00, 0, -23, 620, 0
ATT, -0.58, -2.36, 0.00, 0.08, 0.00, 47.75, 45.88
CTUN, 618, 0.00, 1.46, 0.000000, 0.00, 0, -22, 618, 0
GPS, 3, 190440400, 11, 1.88, -33.7840606, 151.0682087, 1.31, 92.60, 0.61, 231.88
ATT, 0.00, -1.65, 0.00, -0.13, 0.00, 47.46, 45.88
CTUN, 618, 0.00, 1.29, 0.000000, 0.00, 0, -21, 618, 0
ATT, 0.00, -0.88, 0.00, -0.12, 0.00, 47.10, 45.88
CTUN, 626, 0.00, 1.43, 0.000000, 0.00, 0, -21, 626, 0
GPS, 3, 190440600, 12, 1.76, -33.7840607, 151.0682073, 1.28, 92.54, 0.65, 249.03
ATT, 0.00, -0.36, 0.00, -0.23, 0.00, 46.68, 45.88
CTUN, 639, 0.00, 1.18, 0.000000, 0.00, 0, -19, 639, 0
ATT, 0.00, 0.02, 0.00, -0.15, 0.00, 46.19, 45.88
CTUN, 639, 0.00, 1.15, 0.000000, 0.00, 0, -16, 639, 0
GPS, 3, 190440800, 12, 1.76, -33.7840608, 151.0682063, 1.24, 92.51, 0.44, 251.05
ATT, 0.00, 0.56, 0.00, 0.03, 0.00, 45.75, 45.88
CTUN, 639, 0.00, 1.37, 0.000000, 0.00, 0, -12, 639, 0
ATT, -0.23, 1.06, 0.00, 0.08, 0.00, 45.47, 45.88
CTUN, 640, 0.00, 1.12, 0.000000, 0.00, 0, -7, 640, 0
GPS, 3, 190441000, 12, 1.76, -33.7840608, 151.0682052, 1.22, 92.49, 0.49, 257.62
ATT, 0.00, 1.24, 0.00, 0.24, 0.00, 45.43, 45.88
DU32, 7, 8569
CURR, 639, 171751, 1072, 1419, 4732, 106.1299
CTUN, 640, 0.00, 1.14, 0.000000, 0.00, 0, -3, 640, 0
ATT, 0.00, 1.50, 0.00, 0.34, 0.00, 45.64, 45.88
CTUN, 639, 0.00, 1.29, 0.000000, 0.00, 0, 0, 639, 0
GPS, 3, 190441200, 12, 1.76, -33.7840608, 151.0682042, 1.21, 92.43, 0.39, 258.89
ATT, 0.00, 1.43, 0.00, 0.33, 0.00, 46.13, 45.88
