dump 6

ArduCopter V3.1-rc2
Free RAM: 1133
APM 2
FMT, 128, 89, FMT, BBnNZ, Type,Length,Name,Format
FMT, 129, 23, PARM, Nf, Name,Value
FMT, 130, 35, GPS, BIBcLLeeEe, Status,Time,NSats,HDop,Lat,Lng,RelAlt,Alt,Spd,GCrs
FMT, 131, 27, IMU, ffffff, GyrX,GyrY,GyrZ,AccX,AccY,AccZ
FMT, 132, 67, MSG, Z, Message
FMT, 9, 19, CURR, hIhhhf, Thr,ThrInt,Volt,Curr,Vcc,CurrTot
FMT, 11, 11, MOT, hhhh, Mot1,Mot2,Mot3,Mot4
FMT, 12, 28, OF, hhBccffee, Dx,Dy,SQual,X,Y,Lat,Lng,Roll,Pitch
FMT, 5, 49, NTUN, Ecffffffffee, WPDst,WPBrg,PErX,PErY,DVelX,DVelY,VelX,VelY,DAcX,DAcY,DRol,DPit
FMT, 4, 25, CTUN, hcefchhhh, ThrIn,SonAlt,BarAlt,WPAlt,DesSonAlt,AngBst,CRate,ThrOut,DCRate
FMT, 15, 21, MAG, hhhhhhhhh, MagX,MagY,MagZ,OfsX,OfsY,OfsZ,MOfsX,MOfsY,MOfsZ
FMT, 6, 17, PM, BBBHHIhB, RenCnt,RenBlw,FixCnt,NLon,NLoop,MaxT,PMT,I2CErr
FMT, 8, 20, CMD, BBBBBeLL, CTot,CNum,CId,COpt,Prm1,Alt,Lat,Lng
FMT, 1, 17, ATT, cccccCC, RollIn,Roll,PitchIn,Pitch,YawIn,Yaw,NavYaw
FMT, 17, 37, INAV, cccfffiiff, BAlt,IAlt,IClb,ACorrX,ACorrY,ACorrZ,GLat,GLng,ILat,ILng
FMT, 3, 6, MODE, Mh, Mode,ThrCrs
FMT, 10, 3, STRT, , 
FMT, 13, 4, EV, B, Id
FMT, 20, 6, D16, Bh, Id,Value
FMT, 21, 6, DU16, BH, Id,Value
FMT, 22, 8, D32, Bi, Id,Value
FMT, 23, 8, DU32, BI, Id,Value
FMT, 24, 8, DFLT, Bf, Id,Value
FMT, 14, 28, PID, Biiiiif, Id,Error,P,I,D,Out,Gain
FMT, 16, 15, DMP, ccccCC, DCMRoll,DMPRoll,DCMPtch,DMPPtch,DCMYaw,DMPYaw
FMT, 18, 25, CAM, ILLeccC, GPSTime,Lat,Lng,Alt,Roll,Pitch,Yaw
FMT, 19, 5, ERR, BB, Subsys,ECode
D32, 9, 7092
CMD, 6, 0, 16, 0, 0, 0.00, -33.7840431, 151.0681817
EV, 10
GPS, 3, 112057000, 11, 1.58, -33.7840432, 151.0681812, -0.22, 104.05, 0.09, 158.33
ATT, 0.00, 0.24, 0.00, -0.64, 0.00, 70.92, 70.92
GPS, 3, 112064400, 11, 1.58, -33.7840433, 151.0681749, -0.21, 101.54, 0.04, 158.33
CTUN, 0, 0.00, 0.03, 0.000000, 0.00, 0, -5, 0, 0
ATT, 0.00, 0.23, 0.00, -0.67, 0.00, 70.93, 70.93
CTUN, 0, 0.00, -0.01, 0.000000, 0.00, 0, -5, 0, 0
DU32, 7, 98393
CURR, 0, 0, 1102, 0, 4505, 0.000000
ATT, 0.00, 0.23, 0.00, -0.76, 0.00, 70.93, 70.93
GPS, 3, 112064600, 11, 1.58, -33.7840434, 151.0681747, -0.20, 101.53, 0.06, 158.33
CTUN, 0, 0.00, -0.04, 0.000000, 0.00, 0, -5, 0, 0
ATT, 0.00, 0.24, 0.00, -0.76, 0.00, 70.93, 70.93
CTUN, 0, 0.00, -0.08, 0.000000, 0.00, 0, -5, 0, 0
ATT, 0.00, 0.25, 0.00, -0.73, 0.00, 70.94, 70.94
GPS, 3, 112064800, 11, 1.58, -33.7840435, 151.0681746, -0.19, 101.51, 0.10, 158.33
CTUN, 0, 0.00, -0.06, 0.000000, 0.00, 0, -4, 0, 0
ATT, 0.00, 0.26, 0.00, -0.71, 0.00, 70.94, 70.94
CTUN, 0, 0.00, 0.05, 0.000000, 0.00, 0, -4, 0, 0
ATT, 0.00, 0.27, 0.00, -0.70, 0.00, 70.94, 70.94
GPS, 3, 112065000, 11, 1.58, -33.7840436, 151.0681745, -0.18, 101.51, 0.11, 158.33
CTUN, 0, 0.00, 0.03, 0.000000, 0.00, 0, -4, 0, 0
ATT, 0.00, 0.28, 0.00, -0.69, 0.00, 70.94, 70.94
CTUN, 0, 0.00, -0.03, 0.000000, 0.00, 0, -4, 0, 0
ATT, 0.00, 0.29, 0.00, -0.68, 0.00, 70.94, 70.94
GPS, 3, 112065200, 11, 1.58, -33.7840437, 151.0681741, -0.17, 101.53, 0.19, 158.33
CTUN, 0, 0.00, 0.02, 0.000000, 0.00, 0, -4, 0, 0
ATT, 0.00, 0.28, 0.00, -0.65, 0.00, 70.94, 70.94
CTUN, 0, 0.00, -0.05, 0.000000, 0.00, 0, -4, 0, 0
GPS, 3, 112065400, 11, 1.58, -33.7840437, 151.0681740, -0.16, 101.53, 0.11, 158.33
ATT, 0.00, 0.26, 0.00, -0.62, 0.00, 70.95, 70.95
CTUN, 0, 0.00, 0.06, 0.000000, 0.00, 0, -4, 0, 0
ATT, 0.00, 0.26, 0.00, -0.64, 0.00, 70.95, 70.95
CTUN, 0, 0.00, 0.00, 0.000000, 0.00, 0, -4, 0, 0
DU32, 7, 98393
CURR, 0, 0, 1102, 0, 4523, 0.000000
GPS, 3, 112065600, 11, 1.58, -33.7840437, 151.0681740, -0.14, 101.50, 0.03, 158.33
ATT, 0.00, 0.27, 0.00, -0.66, -2.44, 70.96, 70.96
CTUN, 0, 0.00, 0.03, 0.000000, 0.00, 0, -4, 0, 0
ATT, 0.00, 0.26, 0.00, -0.69, -20.11, 70.96, 70.96
CTUN, 0, 0.00, -0.04, 0.000000, 0.00, 0, -3, 0, 0
GPS, 3, 112065800, 11, 1.58, -33.7840438, 151.0681741, -0.13, 101.48, 0.02, 158.33
ATT, 0.00, 0.26, 0.00, -0.71, -43.37, 70.97, 70.97
CTUN, 0, 0.00, 0.09, 0.000000, 0.00, 0, -3, 0, 0
ATT, 0.00, 0.27, 0.00, -0.71, -44.41, 70.97, 70.97
CTUN, 0, 0.00, 0.06, 0.000000, 0.00, 0, -3, 0, 0
GPS, 3, 112066000, 11, 1.58, -33.7840438, 151.0681738, -0.12, 101.48, 0.14, 158.33
ATT, 0.00, 0.28, 0.00, -0.70, -45.00, 70.98, 70.98
CTUN, 0, 0.00, 0.06, 0.000000, 0.00, 0, -3, 0, 0
ATT, 0.00, 0.29, 0.00, -0.66, -45.23, 70.98, 70.98
CTUN, 0, 0.00, 0.06, 0.000000, 0.00, 0, -3, 0, 0
GPS, 3, 112066200, 11, 1.58, -33.7840438, 151.0681737, -0.10, 101.46, 0.09, 158.33
ATT, 0.00, 0.30, 0.00, -0.63, -45.23, 70.98, 70.98
CTUN, 0, 0.00, -0.06, 0.000000, 0.00, 0, -3, 0, 0
ATT, 0.00, 0.29, 0.00, -0.63, -45.23, 70.99, 70.99
CTUN, 0, 0.00, -0.03, 0.000000, 0.00, 0, -3, 0, 0
GPS, 3, 112066400, 11, 1.58, -33.7840436, 151.0681736, -0.10, 101.44, 0.09, 158.33
ATT, 0.00, 0.28, 0.00, -0.64, -45.23, 70.99, 70.99
CTUN, 0, 0.00, 0.09, 0.000000, 0.00, 0, -2, 0, 0
ATT, 0.00, 0.27, 0.00, -0.64, -45.23, 71.00, 71.00
CTUN, 0, 0.00, 0.03, 0.000000, 0.00, 0, -2, 0, 0
DU32, 7, 98393
CURR, 0, 0, 1102, 0, 4541, 0.000000
GPS, 3, 112066600, 11, 1.58, -33.7840437, 151.0681735, -0.09, 101.41, 0.11, 158.33
ATT, 0.00, 0.27, 0.00, -0.63, -45.11, 71.00, 71.00
CTUN, 0, 0.00, 0.05, 0.000000, 0.00, 0, -2, 0, 0
ATT, 0.00, 0.29, 0.00, -0.62, -45.23, 71.00, 71.00
CTUN, 0, 0.00, 0.03, 0.000000, 0.00, 0, -2, 0, 0
GPS, 3, 112066800, 11, 1.58, -33.7840437, 151.0681734, -0.07, 101.39, 0.07, 158.33
ATT, 0.00, 0.31, 0.00, -0.62, -45.23, 71.00, 71.00
CTUN, 0, 0.00, 0.03, 0.000000, 0.00, 0, -2, 0, 0
ATT, 0.00, 0.30, 0.00, -0.62, -45.23, 71.01, 71.01
CTUN, 0, 0.00, -0.02, 0.000000, 0.00, 0, -2, 0, 0
GPS, 3, 112067000, 11, 1.58, -33.7840436, 151.0681736, -0.07, 101.34, 0.01, 158.33
ATT, 0.00, 0.28, 0.00, -0.63, -45.23, 71.01, 71.01
CTUN, 0, 0.00, 0.07, 0.000000, 0.00, 0, -2, 0, 0
ATT, 0.00, 0.29, 0.00, -0.65, -45.23, 71.01, 71.01
CTUN, 0, 0.00, 0.00, 0.000000, 0.00, 0, -1, 0, 0
GPS, 3, 112067200, 11, 1.58, -33.7840435, 151.0681735, -0.06, 101.32, 0.03, 158.33
ATT, 0.00, 0.30, 0.00, -0.66, -45.11, 71.02, 71.02
CTUN, 0, 0.00, 0.02, 0.000000, 0.00, 0, -1, 0, 0
ATT, 0.00, 0.29, 0.00, -0.65, -45.23, 71.02, 71.02
CTUN, 0, 0.00, 0.06, 0.000000, 0.00, 0, -1, 0, 0
GPS, 3, 112067400, 11, 1.58, -33.7840434, 151.0681735, -0.05, 101.27, 0.06, 158.33
ATT, 0.00, 0.29, 0.00, -0.63, -45.23, 71.02, 71.02
CTUN, 0, 0.00, 0.02, 0.000000, 0.00, 0, -1, 0, 0
ATT, 0.00, 0.28, 0.00, -0.63, -45.23, 71.02, 71.02
CTUN, 0, 0.00, 0.09, 0.000000, 0.00, 0, -1, 0, 0
DU32, 7, 98393
CURR, 0, 0, 1102, 0, 4487, 0.000000
GPS, 3, 112067600, 11, 1.58, -33.7840434, 151.0681736, -0.04, 101.27, 0.04, 158.33
ATT, 0.00, 0.27, 0.00, -0.62, -45.23, 71.03, 71.03
CTUN, 0, 0.00, 0.07, 0.000000, 0.00, 0, -1, 0, 0
ATT, 0.00, 0.29, 0.00, -0.63, -45.23, 71.03, 71.03
CTUN, 0, 0.00, 0.00, 0.000000, 0.00, 0, -1, 0, 0
EV, 11
DU32, 7, 98393
DU32, 7, 98393
EV, 28
DU32, 7, 65625
DU32, 7, 65625
EV, 18
DU32, 7, 98393
DU32, 7, 98393
PM, 0, 0, 51, 2, 1000, 7347540, 0, 4
DU32, 7, 98393
DU32, 7, 98393
DU32, 7, 98393
DU32, 7, 98393
DU32, 7, 98393
DU32, 7, 98393
DU32, 7, 98393
EV, 28
DU32, 7, 65625
EV, 18
DU32, 7, 98393
DU32, 7, 98393
PM, 0, 0, 50, 0, 1001, 10420, 0, 4
DU32, 7, 98393
DU32, 7, 98393
DU32, 7, 98393
D32, 9, 6191
CMD, 6, 0, 16, 0, 0, 0.00, -33.7840661, 151.0682825
EV, 10
GPS, 3, 112087800, 8, 1.97, -33.7840707, 151.0682824, -0.15, 104.59, 1.11, 158.94
DU32, 7, 98393
CURR, 0, 0, 1102, 0, 4487, 0.000000
ATT, 0.00, 0.52, 0.00, -0.30, 0.00, 61.92, 61.92
CTUN, 0, 0.00, 0.03, 0.000000, 0.00, 0, -9, 0, 0
GPS, 3, 112089800, 8, 2.09, -33.7840774, 151.0682734, -0.15, 102.87, 0.10, 164.93
ATT, 0.00, 0.22, 0.00, -0.13, 0.00, 61.93, 61.93
CTUN, 0, 0.00, 0.00, 0.000000, 0.00, 0, -9, 0, 0
ATT, 0.00, -0.24, 0.00, -0.20, 0.00, 61.93, 61.93
CTUN, 0, 0.00, -0.07, 0.000000, 0.00, 0, -9, 0, 0
GPS, 3, 112090000, 8, 2.09, -33.7840757, 151.0682715, -0.15, 102.93, 0.08, 164.93
ATT, 0.00, -0.72, 0.00, -0.26, 0.00, 61.95, 61.95
CTUN, 0, 0.00, -0.05, 0.000000, 0.00, 0, -9, 0, 0
ATT, 0.00, -0.70, 0.00, -0.25, 0.00, 61.97, 61.97
CTUN, 0, 0.00, -0.01, 0.000000, 0.00, 0, -9, 0, 0
GPS, 3, 112090200, 8, 2.09, -33.7840736, 151.0682691, -0.16, 103.05, 0.08, 164.93
ATT, 0.00, -0.69, 0.00, -0.24, 0.00, 61.99, 61.99
CTUN, 0, 0.00, 0.02, 0.000000, 0.00, 0, -9, 0, 0
ATT, 0.00, -0.67, 0.00, -0.24, 0.00, 62.01, 62.01
CTUN, 0, 0.00, -0.01, 0.000000, 0.00, 0, -9, 0, 0
GPS, 3, 112090400, 8, 2.09, -33.7840712, 151.0682663, -0.15, 103.20, 0.08, 164.93
CTUN, 0, 0.00, -0.07, 0.000000, 0.00, 0, -9, 0, 0
ATT, 0.00, -0.66, 0.00, -0.24, 0.00, 62.03, 62.03
ATT, 0.00, -0.64, 0.00, -0.23, 0.00, 62.04, 62.04
CTUN, 0, 0.00, -0.03, 0.000000, 0.00, 0, -9, 0, 0
GPS, 3, 112090600, 8, 2.09, -33.7840690, 151.0682639, -0.16, 103.30, 0.08, 164.93
CTUN, 0, 0.00, 0.07, 0.000000, 0.00, 0, -9, 0, 0
ATT, 0.00, -0.62, 0.00, -0.22, 0.00, 62.07, 62.07
DU32, 7, 98393
CURR, 0, 0, 1102, 0, 4487, 0.000000
CTUN, 0, 0.00, -0.01, 0.000000, 0.00, 0, -9, 0, 0
ATT, 0.00, -0.61, 0.00, -0.24, 0.00, 62.09, 62.09
GPS, 3, 112090800, 8, 2.09, -33.7840667, 151.0682615, -0.16, 103.46, 0.04, 164.93
CTUN, 0, 0.00, -0.10, 0.000000, 0.00, 0, -9, 0, 0
ATT, 0.00, -0.59, 0.00, -0.25, 0.00, 62.11, 62.11
CTUN, 0, 0.00, -0.03, 0.000000, 0.00, 0, -9, 0, 0
ATT, 0.00, -0.56, 0.00, -0.25, 0.00, 62.13, 62.13
GPS, 3, 112091000, 8, 2.09, -33.7840634, 151.0682586, -0.16, 103.65, 0.01, 164.93
CTUN, 0, 0.00, -0.03, 0.000000, 0.00, 0, -9, 0, 0
ATT, 0.00, -0.54, 0.00, -0.24, 0.00, 62.15, 62.15
CTUN, 0, 0.00, 0.04, 0.000000, 0.00, 0, -9, 0, 0
ATT, 0.00, -0.52, 0.00, -0.23, 0.00, 62.17, 62.17
GPS, 3, 112091200, 8, 2.09, -33.7840599, 151.0682551, -0.16, 103.88, 0.08, 164.93
CTUN, 0, 0.00, 0.01, 0.000000, 0.00, 0, -9, 0, 0
ATT, 0.00, -0.49, 0.00, -0.22, 0.00, 62.19, 62.19
CTUN, 0, 0.00, 0.08, 0.000000, 0.00, 0, -9, 0, 0
ATT, 0.00, -0.46, 0.00, -0.20, 0.00, 62.20, 62.20
GPS, 3, 112091400, 8, 2.09, -33.7840580, 151.0682522, -0.16, 103.94, 0.15, 164.93
CTUN, 0, 0.00, 0.08, 0.000000, 0.00, 0, -9, 0, 0
ATT, 0.00, -0.42, 0.00, -0.18, 0.00, 62.22, 62.22
CTUN, 0, 0.00, -0.03, 0.000000, 0.00, 0, -9, 0, 0
ATT, 0.00, -0.40, 0.00, -0.17, 0.00, 62.23, 62.23
GPS, 3, 112091600, 8, 2.09, -33.7840565, 151.0682499, -0.15, 103.97, 0.15, 164.93
CTUN, 0, 0.00, 0.09, 0.000000, 0.00, 0, -9, 0, 0
ATT, 0.00, -0.37, 0.00, -0.16, 0.00, 62.25, 62.25
DU32, 7, 98393
CURR, 0, 0, 1102, 0, 4523, 0.000000
CTUN, 0, 0.00, 0.06, 0.000000, 0.00, 0, -9, 0, 0
ATT, 0.00, -0.36, 0.00, -0.15, 0.00, 62.26, 62.26
GPS, 3, 112091800, 8, 2.09, -33.7840549, 151.0682476, -0.14, 104.01, 0.10, 164.93
CTUN, 0, 0.00, 0.01, 0.000000, 0.00, 0, -9, 0, 0
ATT, 0.00, -0.35, 0.00, -0.16, 0.00, 62.28, 62.28
CTUN, 0, 0.00, 0.01, 0.000000, 0.00, 0, -9, 0, 0
ATT, 0.00, -0.34, 0.00, -0.17, 0.00, 62.30, 62.30
GPS, 3, 112092000, 8, 2.09, -33.7840539, 151.0682462, -0.14, 103.99, 0.05, 164.93
CTUN, 0, 0.00, 0.01, 0.000000, 0.00, 0, -9, 0, 0
ATT, 0.00, -0.34, 0.00, -0.19, 0.00, 62.31, 62.31
CTUN, 0, 0.00, 0.05, 0.000000, 0.00, 0, -9, 0, 0
ATT, 0.00, -0.34, 0.00, -0.19, 0.00, 62.33, 62.33
GPS, 3, 112092200, 8, 2.09, -33.7840530, 151.0682448, -0.14, 104.02, 0.06, 164.93
CTUN, 0, 0.00, 0.01, 0.000000, 0.00, 0, -9, 0, 0
ATT, 0.00, -0.34, 0.00, -0.19, 0.00, 62.34, 62.34
CTUN, 0, 0.00, 0.08, 0.000000, 0.00, 0, -9, 0, 0
ATT, 0.00, -0.33, 0.00, -0.19, 0.00, 62.36, 62.36
GPS, 3, 112092400, 8, 2.09, -33.7840520, 151.0682435, -0.14, 104.04, 0.05, 164.93
CTUN, 0, 0.00, -0.03, 0.000000, 0.00, 0, -8, 0, 0
ATT, 0.00, -0.32, 0.00, -0.18, 0.00, 62.37, 62.37
CTUN, 0, 0.00, 0.02, 0.000000, 0.00, 0, -9, 0, 0
ATT, 0.00, -0.31, 0.00, -0.18, 0.00, 62.38, 62.38
GPS, 3, 112092600, 9, 1.73, -33.7840511, 151.0682420, -0.14, 103.99, 0.12, 164.93
CTUN, 0, 0.00, -0.03, 0.000000, 0.00, 0, -9, 0, 0
ATT, 0.00, -0.29, 0.00, -0.18, 0.00, 62.39, 62.39
DU32, 7, 98393
CURR, 0, 0, 1102, 0, 4487, 0.000000
CTUN, 0, 0.00, 0.07, 0.000000, 0.00, 0, -9, 0, 0
ATT, 0.00, -0.26, 0.00, -0.17, 0.00, 62.40, 62.40
GPS, 3, 112092800, 9, 1.73, -33.7840489, 151.0682398, -0.14, 104.03, 0.04, 164.93
CTUN, 0, 0.00, 0.00, 0.000000, 0.00, 0, -8, 0, 0
ATT, 0.00, -0.24, 0.00, -0.17, 0.00, 62.41, 62.41
CTUN, 0, 0.00, -0.02, 0.000000, 0.00, 0, -8, 0, 0
ATT, 0.00, -0.25, 0.00, -0.18, 0.00, 62.43, 62.43
GPS, 3, 112093000, 9, 1.73, -33.7840477, 151.0682386, -0.14, 103.99, 0.01, 164.93
CTUN, 0, 0.00, 0.05, 0.000000, 0.00, 0, -9, 0, 0
ATT, 0.00, -0.26, 0.00, -0.19, 0.00, 62.44, 62.44
CTUN, 0, 0.00, 0.03, 0.000000, 0.00, 0, -9, 0, 0
ATT, 0.00, -0.25, 0.00, -0.20, 0.00, 62.45, 62.45
GPS, 3, 112093200, 9, 1.73, -33.7840467, 151.0682373, -0.13, 103.92, 0.04, 164.93
CTUN, 0, 0.00, -0.04, 0.000000, 0.00, 0, -8, 0, 0
ATT, 0.00, -0.24, 0.00, -0.21, 0.00, 62.46, 62.46
CTUN, 0, 0.00, 0.00, 0.000000, 0.00, 0, -9, 0, 0
ATT, 0.00, -0.22, 0.00, -0.19, 0.00, 62.47, 62.47
GPS, 3, 112093400, 9, 1.73, -33.7840457, 151.0682363, -0.14, 103.88, 0.01, 164.93
CTUN, 0, 0.00, 0.00, 0.000000, 0.00, 0, -9, 0, 0
ATT, 0.00, -0.20, 0.00, -0.18, -1.16, 62.48, 62.48
CTUN, 0, 0.00, -0.04, 0.000000, 0.00, 0, -9, 0, 0
ATT, 0.00, -0.20, 0.00, -0.19, -23.60, 62.49, 62.49
GPS, 3, 112093600, 9, 1.73, -33.7840449, 151.0682352, -0.14, 103.83, 0.02, 164.93
CTUN, 0, 0.00, 0.02, 0.000000, 0.00, 0, -9, 0, 0
ATT, 0.00, -0.19, 0.00, -0.19, -45.23, 62.50, 62.50
DU32, 7, 98393
CURR, 0, 0, 1102, 0, 4505, 0.000000
CTUN, 0, 0.00, 0.03, 0.000000, 0.00, 0, -9, 0, 0
ATT, 0.00, -0.19, 0.00, -0.18, -45.11, 62.52, 62.52
GPS, 3, 112093800, 9, 1.73, -33.7840441, 151.0682342, -0.14, 103.79, 0.01, 164.93
CTUN, 0, 0.00, 0.04, 0.000000, 0.00, 0, -8, 0, 0
ATT, 0.00, -0.18, 0.00, -0.19, -45.23, 62.54, 62.54
CTUN, 0, 0.00, 0.07, 0.000000, 0.00, 0, -8, 0, 0
ATT, 0.00, -0.18, 0.00, -0.20, -45.23, 62.55, 62.55
GPS, 3, 112094000, 9, 1.73, -33.7840434, 151.0682333, -0.13, 103.70, 0.01, 164.93
CTUN, 0, 0.00, -0.06, 0.000000, 0.00, 0, -8, 0, 0
ATT, 0.00, -0.17, 0.00, -0.20, -45.23, 62.57, 62.57
CTUN, 0, 0.00, 0.02, 0.000000, 0.00, 0, -8, 0, 0
ATT, 0.00, -0.16, 0.00, -0.19, -45.23, 62.58, 62.58
GPS, 3, 112094200, 9, 1.73, -33.7840428, 151.0682325, -0.13, 103.61, 0.02, 164.93
CTUN, 0, 0.00, 0.04, 0.000000, 0.00, 0, -8, 0, 0
ATT, 0.00, -0.15, 0.00, -0.19, -45.23, 62.59, 62.59
CTUN, 0, 0.00, 0.00, 0.000000, 0.00, 0, -8, 0, 0
ATT, 0.00, -0.13, 0.00, -0.18, -45.23, 62.60, 62.60
GPS, 3, 112094400, 9, 1.73, -33.7840423, 151.0682318, -0.13, 103.56, 0.03, 164.93
CTUN, 0, 0.00, 0.02, 0.000000, 0.00, 0, -8, 0, 0
ATT, 0.00, -0.12, 0.00, -0.19, -45.23, 62.62, 62.62
CTUN, 0, 0.00, 0.05, 0.000000, 0.00, 0, -8, 0, 0
ATT, 0.00, -0.11, 0.00, -0.19, -45.23, 62.63, 62.63
GPS, 3, 112094600, 9, 1.73, -33.7840417, 151.0682313, -0.13, 103.47, 0.08, 164.93
CTUN, 0, 0.00, 0.09, 0.000000, 0.00, 0, -8, 0, 0
ATT, 0.00, -0.11, 0.00, -0.21, -45.23, 62.63, 62.63
DU32, 7, 98393
CURR, 0, 0, 1102, 0, 4505, 0.000000
CTUN, 0, 0.00, 0.03, 0.000000, 0.00, 0, -8, 0, 0
ATT, 0.00, -0.11, 0.00, -0.22, -45.23, 62.64, 62.64
GPS, 3, 112094800, 9, 1.73, -33.7840412, 151.0682303, -0.12, 103.45, 0.02, 164.93
CTUN, 0, 0.00, -0.03, 0.000000, 0.00, 0, -8, 0, 0
ATT, 0.00, -0.10, 0.00, -0.22, -45.23, 62.65, 62.65
CTUN, 0, 0.00, 0.02, 0.000000, 0.00, 0, -8, 0, 0
ATT, 0.00, -0.09, 0.00, -0.19, -45.23, 62.66, 62.66
GPS, 3, 112095000, 9, 1.73, -33.7840408, 151.0682297, -0.12, 103.30, 0.04, 164.93
CTUN, 0, 0.00, 0.04, 0.000000, 0.00, 0, -8, 0, 0
ATT, 0.00, -0.09, 0.00, -0.18, -45.11, 62.68, 62.68
CTUN, 0, 0.00, 0.00, 0.000000, 0.00, 0, -7, 0, 0
ATT, 0.00, -0.08, 0.00, -0.20, -45.23, 62.69, 62.69
GPS, 3, 112095200, 9, 1.73, -33.7840405, 151.0682290, -0.12, 103.25, 0.02, 164.93
CTUN, 0, 0.00, 0.00, 0.000000, 0.00, 0, -7, 0, 0
ATT, 0.00, -0.07, 0.00, -0.20, -45.23, 62.71, 62.71
CTUN, 0, 0.00, 0.05, 0.000000, 0.00, 0, -8, 0, 0
ATT, 0.00, -0.07, 0.00, -0.19, -45.23, 62.72, 62.72
GPS, 3, 112095400, 9, 1.73, -33.7840401, 151.0682283, -0.12, 103.20, 0.06, 164.93
CTUN, 0, 0.00, 0.01, 0.000000, 0.00, 0, -7, 0, 0
ATT, 0.00, -0.05, 0.00, -0.18, -45.11, 62.73, 62.73
CTUN, 0, 0.00, 0.01, 0.000000, 0.00, 0, -7, 0, 0
ATT, 0.00, -0.03, 0.00, -0.17, -45.23, 62.74, 62.74
EV, 11
DU32, 7, 98393
PM, 0, 0, 51, 2, 1000, 2067284, 0, 4
DU32, 7, 98393
DU32, 7, 98393
DU32, 7, 98393
DU32, 7, 98393
DU32, 7, 98393
DU32, 7, 98393
DU32, 7, 98393
DU32, 7, 98393
DU32, 7, 98393
DU32, 7, 98393
PM, 0, 0, 50, 0, 1001, 10424, 0, 4
DU32, 7, 98393
DU32, 7, 98393
DU32, 7, 98393
DU32, 7, 98393
DU32, 7, 98393
DU32, 7, 98393
DU32, 7, 98393
DU32, 7, 98393
DU32, 7, 98393
DU32, 7, 98393
PM, 0, 0, 49, 0, 1000, 10424, 0, 4
DU32, 7, 98393
DU32, 7, 98393
DU32, 7, 98393
DU32, 7, 98393
DU32, 7, 98393
DU32, 7, 98393
DU32, 7, 98393
DU32, 7, 98393
DU32, 7, 98393
DU32, 7, 98393
PM, 0, 0, 50, 2, 1000, 11904, 0, 4
DU32, 7, 98393
DU32, 7, 98393
DU32, 7, 98393
DU32, 7, 98393
DU32, 7, 98393
DU32, 7, 98393
DU32, 7, 98393
DU32, 7, 98393
DU32, 7, 98393
DU32, 7, 98393
PM, 0, 0, 50, 4, 1000, 11780, 0, 4
DU32, 7, 98393
DU32, 7, 98393
DU32, 7, 98393
DU32, 7, 98393
DU32, 7, 98393
DU32, 7, 98393
D32, 9, 6211
CMD, 6, 0, 16, 0, 0, 0.00, -33.7840508, 151.0681736
EV, 10
GPS, 3, 112142600, 11, 1.39, -33.7840507, 151.0681734, 0.02, 103.00, 0.01, 164.93
CTUN, 0, 0.00, 0.04, 0.000000, 0.00, 0, 0, 0, 0
ATT, 0.00, 0.52, 0.00, -0.53, 0.00, 62.12, 62.12
CTUN, 0, 0.00, 0.00, 0.000000, 0.00, 0, 0, 0, 0
ATT, 0.00, 0.29, 0.00, -0.61, 0.00, 62.12, 62.12
GPS, 3, 112144800, 11, 1.39, -33.7840503, 151.0681721, 0.03, 102.69, 0.10, 164.93
CTUN, 0, 0.00, 0.03, 0.000000, 0.00, 0, 0, 0, 0
ATT, 0.00, 0.21, 0.00, -0.64, 0.00, 62.13, 62.13
DU32, 7, 98393
CURR, 0, 0, 1102, 0, 4487, 0.000000
CTUN, 0, 0.00, 0.00, 0.000000, 0.00, 0, 0, 0, 0
ATT, 0.00, 0.24, 0.00, -0.62, 0.00, 62.13, 62.13
GPS, 3, 112145000, 11, 1.39, -33.7840504, 151.0681720, 0.03, 102.64, 0.18, 164.93
CTUN, 0, 0.00, 0.05, 0.000000, 0.00, 0, 0, 0, 0
ATT, 0.00, 0.27, 0.00, -0.61, 0.00, 62.13, 62.13
CTUN, 0, 0.00, -0.05, 0.000000, 0.00, 0, 0, 0, 0
ATT, 0.00, 0.30, 0.00, -0.60, 0.00, 62.14, 62.14
GPS, 3, 112145200, 11, 1.39, -33.7840504, 151.0681719, 0.02, 102.63, 0.14, 164.93
CTUN, 0, 0.00, 0.14, 0.000000, 0.00, 0, 0, 0, 0
ATT, 0.00, 0.31, 0.00, -0.59, 0.00, 62.14, 62.14
CTUN, 0, 0.00, 0.01, 0.000000, 0.00, 0, 0, 0, 0
ATT, 0.00, 0.30, 0.00, -0.59, 0.00, 62.15, 62.15
GPS, 3, 112145400, 11, 1.39, -33.7840503, 151.0681717, 0.03, 102.61, 0.11, 164.93
CTUN, 0, 0.00, 0.01, 0.000000, 0.00, 0, 0, 0, 0
ATT, 0.00, 0.29, 0.00, -0.59, 0.00, 62.15, 62.15
CTUN, 0, 0.00, 0.02, 0.000000, 0.00, 0, 0, 0, 0
ATT, 0.00, 0.29, 0.00, -0.59, 0.00, 62.16, 62.16
GPS, 3, 112145600, 11, 1.39, -33.7840502, 151.0681714, 0.03, 102.60, 0.05, 164.93
CTUN, 0, 0.00, 0.07, 0.000000, 0.00, 0, 0, 0, 0
ATT, 0.00, 0.28, 0.00, -0.60, 0.00, 62.16, 62.16
CTUN, 0, 0.00, -0.02, 0.000000, 0.00, 0, 0, 0, 0
ATT, 0.00, 0.27, 0.00, -0.61, 0.00, 62.17, 62.17
GPS, 3, 112145800, 11, 1.39, -33.7840500, 151.0681712, 0.03, 102.56, 0.03, 164.93
CTUN, 0, 0.00, 0.03, 0.000000, 0.00, 0, 0, 0, 0
ATT, 0.00, 0.26, 0.00, -0.61, 0.00, 62.17, 62.17
DU32, 7, 98393
CURR, 0, 0, 1102, 0, 4487, 0.000000
CTUN, 0, 0.00, 0.02, 0.000000, 0.00, 0, 0, 0, 0
ATT, 0.00, 0.26, 0.00, -0.61, 0.00, 62.18, 62.18
GPS, 3, 112146000, 11, 1.39, -33.7840499, 151.0681709, 0.03, 102.53, 0.04, 164.93
CTUN, 0, 0.00, -0.10, 0.000000, 0.00, 0, 0, 0, 0
ATT, 0.00, 0.25, 0.00, -0.61, 0.00, 62.19, 62.19
CTUN, 0, 0.00, 0.04, 0.000000, 0.00, 0, 0, 0, 0
ATT, 0.00, 0.25, 0.00, -0.61, 0.00, 62.19, 62.19
GPS, 3, 112146200, 11, 1.39, -33.7840498, 151.0681708, 0.02, 102.46, 0.04, 164.93
CTUN, 0, 0.00, -0.02, 0.000000, 0.00, 0, 0, 0, 0
ATT, 0.00, 0.27, 0.00, -0.60, 0.00, 62.19, 62.19
CTUN, 0, 0.00, 0.00, 0.000000, 0.00, 0, 0, 0, 0
ATT, 0.00, 0.29, 0.00, -0.60, 0.00, 62.20, 62.20
GPS, 3, 112146400, 11, 1.39, -33.7840498, 151.0681707, 0.01, 102.42, 0.07, 164.93
CTUN, 0, 0.00, 0.01, 0.000000, 0.00, 0, 0, 0, 0
ATT, 0.00, 0.30, 0.00, -0.60, 0.00, 62.21, 62.21
CTUN, 0, 0.00, 0.06, 0.000000, 0.00, 0, 0, 0, 0
ATT, 0.00, 0.32, 0.00, -0.59, 0.00, 62.21, 62.21
GPS, 3, 112146600, 11, 1.39, -33.7840497, 151.0681706, 0.01, 102.38, 0.04, 164.93
CTUN, 0, 0.00, -0.02, 0.000000, 0.00, 0, 0, 0, 0
ATT, 0.00, 0.32, 0.00, -0.59, 0.00, 62.21, 62.21
CTUN, 0, 0.00, 0.10, 0.000000, 0.00, 0, 0, 0, 0
ATT, 0.00, 0.32, 0.00, -0.60, 0.00, 62.21, 62.21
GPS, 3, 112146800, 11, 1.39, -33.7840495, 151.0681705, 0.02, 102.34, 0.01, 164.93
CTUN, 0, 0.00, 0.04, 0.000000, 0.00, 0, 0, 0, 0
ATT, 0.00, 0.32, 0.00, -0.60, 0.00, 62.22, 62.22
DU32, 7, 98393
CURR, 0, 0, 1102, 0, 4487, 0.000000
CTUN, 0, 0.00, 0.12, 0.000000, 0.00, 0, 0, 0, 0
ATT, 0.00, 0.32, 0.00, -0.60, -6.39, 62.22, 62.22
GPS, 3, 112147000, 11, 1.39, -33.7840493, 151.0681704, 0.02, 102.31, 0.01, 164.93
CTUN, 0, 0.00, -0.03, 0.000000, 0.00, 0, 0, 0, 0
ATT, 0.00, 0.32, 0.00, -0.60, -20.81, 62.22, 62.22
CTUN, 0, 0.00, 0.04, 0.000000, 0.00, 0, 0, 0, 0
ATT, 0.00, 0.33, 0.00, -0.60, -42.90, 62.23, 62.23
GPS, 3, 112147200, 11, 1.39, -33.7840491, 151.0681703, 0.02, 102.25, 0.01, 164.93
CTUN, 0, 0.00, -0.05, 0.000000, 0.00, 0, 0, 0, 0
ATT, 0.00, 0.33, 0.00, -0.60, -44.53, 62.23, 62.23
CTUN, 0, 0.00, 0.04, 0.000000, 0.00, 0, 0, 0, 0
ATT, 0.00, 0.33, 0.00, -0.60, -45.23, 62.23, 62.23
GPS, 3, 112147400, 11, 1.39, -33.7840489, 151.0681702, 0.02, 102.22, 0.02, 164.93
CTUN, 0, 0.00, 0.09, 0.000000, 0.00, 0, 0, 0, 0
ATT, 0.00, 0.34, 0.00, -0.60, -45.23, 62.23, 62.23
CTUN, 0, 0.00, 0.09, 0.000000, 0.00, 0, 0, 0, 0
ATT, 0.00, 0.33, 0.00, -0.59, -45.23, 62.24, 62.24
GPS, 3, 112147600, 11, 1.39, -33.7840488, 151.0681700, 0.02, 102.16, 0.03, 164.93
CTUN, 0, 0.00, 0.08, 0.000000, 0.00, 0, 0, 0, 0
ATT, 0.00, 0.34, 0.00, -0.59, -45.23, 62.24, 62.24
CTUN, 0, 0.00, 0.09, 0.000000, 0.00, 0, 0, 0, 0
ATT, 0.00, 0.36, 0.00, -0.59, -45.23, 62.25, 62.25
GPS, 3, 112147800, 11, 1.39, -33.7840487, 151.0681699, 0.03, 102.14, 0.05, 164.93
CTUN, 0, 0.00, 0.03, 0.000000, 0.00, 0, 0, 0, 0
ATT, 0.00, 0.37, 0.00, -0.58, -45.23, 62.25, 62.25
DU32, 7, 98393
CURR, 0, 0, 1102, 0, 4469, 0.000000
CTUN, 0, 0.00, 0.00, 0.000000, 0.00, 0, 0, 0, 0
ATT, 0.00, 0.38, 0.00, -0.58, -45.23, 62.25, 62.25
GPS, 3, 112148000, 11, 1.39, -33.7840487, 151.0681698, 0.03, 102.10, 0.11, 164.93
CTUN, 0, 0.00, 0.06, 0.000000, 0.00, 0, 0, 0, 0
ATT, 0.00, 0.39, 0.00, -0.56, -45.23, 62.26, 62.26
CTUN, 0, 0.00, 0.04, 0.000000, 0.00, 0, 0, 0, 0
ATT, 0.00, 0.40, 0.00, -0.54, -45.23, 62.26, 62.26
GPS, 3, 112148200, 11, 1.39, -33.7840488, 151.0681696, 0.03, 102.10, 0.16, 164.93
CTUN, 0, 0.00, 0.09, 0.000000, 0.00, 0, 0, 0, 0
ATT, 0.00, 0.42, 0.00, -0.53, -45.23, 62.26, 62.26
CTUN, 0, 0.00, 0.03, 0.000000, 0.00, 0, 0, 0, 0
ATT, 0.00, 0.44, 0.00, -0.53, -45.23, 62.27, 62.27
GPS, 3, 112148400, 11, 1.39, -33.7840488, 151.0681697, 0.03, 102.09, 0.23, 164.93
CTUN, 0, 0.00, 0.03, 0.000000, 0.00, 0, 0, 0, 0
PM, 0, 0, 51, 4, 1001, 2070836, 0, 4
ATT, 0.00, 0.46, 0.00, -0.53, -45.23, 62.28, 62.28
CTUN, 0, 0.00, 0.10, 0.000000, 0.00, 0, 0, 0, 0
ATT, 0.00, 0.49, 0.00, -0.54, -45.23, 62.28, 62.28
GPS, 3, 112148600, 11, 1.39, -33.7840487, 151.0681695, 0.04, 102.03, 0.21, 164.93
CTUN, 0, 0.00, 0.00, 0.000000, 0.00, 0, 0, 0, 0
ATT, 0.00, 0.49, 0.00, -0.52, -45.23, 62.28, 62.28
CTUN, 0, 0.00, 0.06, 0.000000, 0.00, 0, 0, 0, 0
ATT, 0.00, 0.47, 0.00, -0.49, -45.23, 62.28, 62.28
GPS, 3, 112148800, 11, 1.39, -33.7840486, 151.0681697, 0.04, 102.08, 0.12, 164.93
CTUN, 0, 0.00, 0.09, 0.000000, 0.00, 0, 0, 0, 0
ATT, 0.00, 0.46, 0.00, -0.51, -45.23, 62.29, 62.29
DU32, 7, 98393
CURR, 0, 0, 1102, 0, 4452, 0.000000
CTUN, 0, 0.00, 0.04, 0.000000, 0.00, 0, 0, 0, 0
ATT, 0.00, 0.46, 0.00, -0.56, -45.11, 62.30, 62.30
GPS, 3, 112149000, 11, 1.38, -33.7840485, 151.0681698, 0.04, 102.08, 0.08, 164.93
CTUN, 0, 0.00, 0.06, 0.000000, 0.00, 0, 0, 0, 0
ATT, 0.00, 0.45, 0.00, -0.58, -45.23, 62.30, 62.30
EV, 11
DU32, 7, 98393
DU32, 7, 98393
DU32, 7, 98393
DU32, 7, 98393
DU32, 7, 98393
DU32, 7, 98393
DU32, 7, 98393
DU32, 7, 98393
DU32, 7, 98393
PM, 0, 0, 50, 1, 1000, 108700, 0, 4
DU32, 7, 98393
DU32, 7, 98393
DU32, 7, 98393
DU32, 7, 98393
DU32, 7, 98393
DU32, 7, 98393
DU32, 7, 98393
DU32, 7, 98393
DU32, 7, 98393
D32, 9, 6576
CMD, 6, 0, 16, 0, 0, 0.00, -33.7840472, 151.0681632
EV, 10
GPS, 3, 112168000, 9, 1.73, -33.7840472, 151.0681630, 0.03, 101.41, 0.06, 179.40
CTUN, 0, 0.00, 0.02, 0.000000, 0.00, 0, 0, 0, 0
ATT, 0.00, 0.67, 0.00, -0.41, 0.00, 65.75, 65.75
DU32, 7, 98393
CURR, 0, 0, 1102, 0, 4505, 0.000000
CTUN, 0, 0.00, 0.05, 0.000000, 0.00, 0, 0, 0, 0
ATT, 0.00, 0.68, 0.00, -0.17, 0.00, 65.76, 65.76
GPS, 3, 112170200, 9, 1.73, -33.7840455, 151.0681622, 0.03, 101.04, 0.03, 179.40
CTUN, 0, 0.00, -0.01, 0.000000, 0.00, 0, 0, 0, 0
ATT, 0.00, 0.67, 0.00, -0.15, 0.00, 65.77, 65.77
CTUN, 0, 0.00, 0.05, 0.000000, 0.00, 0, 0, 0, 0
ATT, 0.00, 0.65, 0.00, -0.18, 0.00, 65.78, 65.78
GPS, 3, 112170400, 9, 1.73, -33.7840454, 151.0681621, 0.03, 101.02, 0.09, 179.40
CTUN, 0, 0.00, -0.15, 0.000000, 0.00, 0, 0, 0, 0
ATT, 0.00, 0.67, 0.00, -0.17, 0.00, 65.80, 65.80
PM, 0, 0, 50, 1, 1000, 2060800, 0, 4
CTUN, 0, 0.00, 0.01, 0.000000, 0.00, 0, 0, 0, 0
ATT, 0.00, 0.70, 0.00, -0.15, 0.00, 65.81, 65.81
GPS, 3, 112170600, 9, 1.73, -33.7840455, 151.0681620, 0.02, 101.02, 0.27, 179.40
CTUN, 0, 0.00, -0.02, 0.000000, 0.00, 0, 0, 0, 0
ATT, 0.00, 0.74, 0.00, -0.13, 0.00, 65.82, 65.82
CTUN, 0, 0.00, 0.00, 0.000000, 0.00, 0, 0, 0, 0
ATT, 0.00, 0.78, 0.00, -0.10, 0.00, 65.83, 65.83
GPS, 3, 112170800, 9, 1.73, -33.7840454, 151.0681619, 0.02, 100.99, 0.26, 179.40
CTUN, 0, 0.00, -0.03, 0.000000, 0.00, 0, 0, 0, 0
ATT, 0.00, 0.78, 0.00, -0.10, 0.00, 65.84, 65.84
CTUN, 0, 0.00, -0.02, 0.000000, 0.00, 0, 0, 0, 0
ATT, 0.00, 0.78, 0.00, -0.10, 0.00, 65.85, 65.85
GPS, 3, 112171000, 9, 1.73, -33.7840451, 151.0681618, 0.01, 100.98, 0.16, 179.40
CTUN, 0, 0.00, -0.03, 0.000000, 0.00, 0, 0, 0, 0
ATT, 0.00, 0.76, 0.00, -0.12, 0.00, 65.87, 65.87
DU32, 7, 98393
CURR, 0, 0, 1102, 0, 4469, 0.000000
CTUN, 0, 0.00, -0.03, 0.000000, 0.00, 0, 0, 0, 0
ATT, 0.00, 0.74, 0.00, -0.15, 0.00, 65.88, 65.88
GPS, 3, 112171200, 9, 1.73, -33.7840448, 151.0681618, 0.01, 100.97, 0.03, 179.40
CTUN, 0, 0.00, -0.06, 0.000000, 0.00, 0, 0, 0, 0
ATT, 0.00, 0.71, 0.00, -0.18, 0.00, 65.90, 65.90
CTUN, 0, 0.00, -0.02, 0.000000, 0.00, 0, 0, 0, 0
ATT, 0.00, 0.69, 0.00, -0.21, 0.00, 65.91, 65.91
GPS, 3, 112171400, 9, 1.73, -33.7840448, 151.0681617, 0.00, 100.94, 0.13, 179.40
CTUN, 0, 0.00, -0.01, 0.000000, 0.00, 0, 0, 0, 0
ATT, 0.00, 0.69, 0.00, -0.20, 0.00, 65.93, 65.93
CTUN, 0, 0.00, 0.03, 0.000000, 0.00, 0, 0, 0, 0
ATT, 0.00, 0.71, 0.00, -0.17, 0.00, 65.94, 65.94
GPS, 3, 112171600, 9, 1.73, -33.7840449, 151.0681616, 0.00, 100.96, 0.20, 179.40
CTUN, 0, 0.00, 0.00, 0.000000, 0.00, 0, 0, 0, 0
ATT, 0.00, 0.74, 0.00, -0.16, 0.00, 65.94, 65.94
CTUN, 0, 0.00, 0.03, 0.000000, 0.00, 0, 0, 0, 0
ATT, 0.00, 0.77, 0.00, -0.16, 0.00, 65.95, 65.95
GPS, 3, 112171800, 9, 1.73, -33.7840450, 151.0681615, 0.00, 100.94, 0.25, 179.40
CTUN, 0, 0.00, 0.00, 0.000000, 0.00, 0, 0, 0, 0
ATT, 0.00, 0.78, 0.00, -0.16, 0.00, 65.96, 65.96
CTUN, 0, 0.00, 0.07, 0.000000, 0.00, 0, 0, 0, 0
ATT, 0.00, 0.79, 0.00, -0.16, 0.00, 65.97, 65.97
GPS, 3, 112172000, 9, 1.73, -33.7840450, 151.0681614, 0.00, 100.92, 0.21, 179.40
CTUN, 0, 0.00, -0.04, 0.000000, 0.00, 0, 0, 0, 0
ATT, 0.00, 0.78, 0.00, -0.16, 0.00, 65.98, 65.98
DU32, 7, 98393
CURR, 0, 0, 1102, 0, 4469, 0.000000
CTUN, 0, 0.00, -0.01, 0.000000, 0.00, 0, 0, 0, 0
ATT, 0.00, 0.76, 0.00, -0.16, 0.00, 65.99, 65.99
GPS, 3, 112172200, 9, 1.73, -33.7840449, 151.0681614, 0.00, 100.91, 0.06, 179.40
CTUN, 0, 0.00, 0.06, 0.000000, 0.00, 0, 0, 0, 0
ATT, 0.00, 0.74, 0.00, -0.20, 0.00, 66.00, 66.00
CTUN, 0, 0.00, -0.03, 0.000000, 0.00, 0, 0, 0, 0
ATT, 0.00, 0.71, 0.00, -0.23, 0.00, 66.01, 66.01
GPS, 3, 112172400, 9, 1.73, -33.7840448, 151.0681613, 0.00, 100.89, 0.10, 179.40
CTUN, 0, 0.00, -0.03, 0.000000, 0.00, 0, 0, 0, 0
ATT, 0.00, 0.71, 0.00, -0.23, 0.00, 66.02, 66.02
CTUN, 0, 0.00, 0.15, 0.000000, 0.00, 0, 0, 0, 0
ATT, 0.00, 0.71, 0.00, -0.22, 0.00, 66.03, 66.03
GPS, 3, 112172600, 9, 1.73, -33.7840447, 151.0681612, 0.00, 100.89, 0.08, 179.40
CTUN, 0, 0.00, 0.00, 0.000000, 0.00, 0, 0, 0, 0
ATT, 0.00, 0.71, 0.00, -0.23, 0.00, 66.03, 66.03
CTUN, 0, 0.00, 0.08, 0.000000, 0.00, 0, 0, 0, 0
ATT, 0.00, 0.71, 0.00, -0.23, 0.00, 66.04, 66.04
GPS, 3, 112172800, 9, 1.73, -33.7840447, 151.0681612, 0.00, 100.86, 0.07, 179.40
CTUN, 0, 0.00, 0.06, 0.000000, 0.00, 0, 0, 0, 0
ATT, 0.00, 0.72, 0.00, -0.25, 0.00, 66.04, 66.04
CTUN, 0, 0.00, 0.03, 0.000000, 0.00, 0, 0, 0, 0
ATT, 0.00, 0.72, 0.00, -0.26, 0.00, 66.05, 66.05
GPS, 3, 112173000, 9, 1.73, -33.7840446, 151.0681611, 0.01, 100.85, 0.03, 179.40
CTUN, 0, 0.00, 0.03, 0.000000, 0.00, 0, 0, 0, 0
ATT, 0.00, 0.71, 0.00, -0.27, 0.00, 66.06, 66.06
DU32, 7, 98393
CURR, 0, 0, 1102, 0, 4452, 0.000000
CTUN, 0, 0.00, 0.06, 0.000000, 0.00, 0, 0, 0, 0
ATT, 0.00, 0.69, 0.00, -0.27, 0.00, 66.07, 66.07
GPS, 3, 112173200, 9, 1.73, -33.7840444, 151.0681610, 0.01, 100.82, 0.04, 179.40
CTUN, 0, 0.00, 0.02, 0.000000, 0.00, 0, 0, 0, 0
ATT, 0.00, 0.68, 0.00, -0.28, 0.00, 66.08, 66.08
CTUN, 0, 0.00, 0.02, 0.000000, 0.00, 0, 0, 0, 0
ATT, 0.00, 0.67, 0.00, -0.30, 0.00, 66.09, 66.09
GPS, 3, 112173400, 9, 1.73, -33.7840441, 151.0681611, 0.01, 100.80, 0.06, 179.40
CTUN, 0, 0.00, 0.00, 0.000000, 0.00, 0, 0, 0, 0
ATT, 0.00, 0.66, 0.00, -0.32, 0.00, 66.11, 66.11
CTUN, 0, 0.00, 0.05, 0.000000, 0.00, 0, 0, 0, 0
ATT, 0.00, 0.66, 0.00, -0.33, 0.00, 66.12, 66.12
GPS, 3, 112173600, 9, 1.73, -33.7840441, 151.0681610, 0.01, 100.79, 0.03, 179.40
CTUN, 0, 0.00, -0.04, 0.000000, 0.00, 0, 0, 0, 0
ATT, 0.00, 0.67, 0.00, -0.32, 0.00, 66.12, 66.12
CTUN, 0, 0.00, -0.01, 0.000000, 0.00, 0, 0, 0, 0
ATT, 0.00, 0.69, 0.00, -0.30, 0.00, 66.13, 66.13
GPS, 3, 112173800, 9, 1.73, -33.7840439, 151.0681610, 0.01, 100.79, 0.01, 179.40
CTUN, 0, 0.00, 0.00, 0.000000, 0.00, 0, 0, 0, 0
ATT, 0.00, 0.70, 0.00, -0.31, 0.00, 66.14, 66.14
CTUN, 0, 0.00, -0.01, 0.000000, 0.00, 0, 0, 0, 0
ATT, 0.00, 0.69, 0.00, -0.32, 0.00, 66.15, 66.15
GPS, 3, 112174000, 9, 1.73, -33.7840438, 151.0681610, 0.01, 100.74, 0.01, 179.40
CTUN, 0, 0.00, 0.03, 0.000000, 0.00, 0, 0, 0, 0
ATT, 0.00, 0.69, 0.00, -0.33, 0.00, 66.15, 66.15
DU32, 7, 98393
CURR, 0, 0, 1102, 0, 4452, 0.000000
CTUN, 0, 0.00, 0.04, 0.000000, 0.00, 0, 0, 0, 0
ATT, 0.00, 0.68, 0.00, -0.33, 0.00, 66.16, 66.16
GPS, 3, 112174200, 9, 1.73, -33.7840436, 151.0681609, 0.01, 100.75, 0.02, 179.40
CTUN, 0, 0.00, -0.05, 0.000000, 0.00, 0, 0, 0, 0
ATT, 0.00, 0.67, 0.00, -0.33, 0.00, 66.17, 66.17
CTUN, 0, 0.00, 0.03, 0.000000, 0.00, 0, 0, 0, 0
ATT, 0.00, 0.67, 0.00, -0.34, 0.00, 66.18, 66.18
GPS, 3, 112174400, 9, 1.73, -33.7840434, 151.0681609, 0.00, 100.73, 0.02, 179.40
CTUN, 0, 0.00, -0.03, 0.000000, 0.00, 0, 0, 0, 0
ATT, 0.00, 0.67, 0.00, -0.34, 0.00, 66.18, 66.18
CTUN, 0, 0.00, 0.12, 0.000000, 0.00, 0, 0, 0, 0
ATT, 0.00, 0.67, 0.00, -0.34, 0.00, 66.19, 66.19
GPS, 3, 112174600, 10, 1.62, -33.7840434, 151.0681608, 0.00, 100.74, 0.11, 179.40
CTUN, 0, 0.00, 0.00, 0.000000, 0.00, 0, 0, 0, 0
ATT, 0.00, 0.69, 0.00, -0.33, 0.00, 66.20, 66.20
CTUN, 0, 0.00, 0.06, 0.000000, 0.00, 0, 0, 0, 0
ATT, 0.00, 0.72, 0.00, -0.32, 0.00, 66.20, 66.20
GPS, 3, 112174800, 9, 1.73, -33.7840431, 151.0681608, 0.01, 100.72, 0.19, 179.40
CTUN, 0, 0.00, -0.04, 0.000000, 0.00, 0, 0, 0, 0
ATT, 0.00, 0.74, 0.00, -0.31, 0.00, 66.21, 66.21
CTUN, 0, 0.00, -0.08, 0.000000, 0.00, 0, 0, 0, 0
ATT, 0.00, 0.76, 0.00, -0.31, 0.00, 66.21, 66.21
GPS, 3, 112175000, 10, 1.63, -33.7840428, 151.0681607, 0.00, 100.67, 0.26, 179.40
CTUN, 0, 0.00, -0.03, 0.000000, 0.00, 0, 0, 0, 0
ATT, 0.00, 0.78, 0.00, -0.29, 0.00, 66.22, 66.22
DU32, 7, 98393
CURR, 0, 0, 1102, 0, 4452, 0.000000
CTUN, 0, 0.00, 0.06, 0.000000, 0.00, 0, 0, 0, 0
ATT, 0.00, 0.78, 0.00, -0.27, 0.00, 66.23, 66.23
GPS, 3, 112175200, 10, 1.63, -33.7840425, 151.0681607, 0.00, 100.66, 0.20, 179.40
CTUN, 0, 0.00, -0.06, 0.000000, 0.00, 0, 0, 0, 0
ATT, 0.00, 0.78, 0.00, -0.28, 0.00, 66.24, 66.24
CTUN, 0, 0.00, 0.04, 0.000000, 0.00, 0, 0, 0, 0
ATT, 0.00, 0.78, 0.00, -0.30, 0.00, 66.25, 66.25
GPS, 3, 112175400, 10, 1.63, -33.7840422, 151.0681605, 0.00, 100.64, 0.16, 179.40
CTUN, 0, 0.00, 0.05, 0.000000, 0.00, 0, 0, 0, 0
ATT, 0.00, 0.76, 0.00, -0.31, 0.00, 66.26, 66.26
CTUN, 0, 0.00, -0.03, 0.000000, 0.00, 0, 0, 0, 0
ATT, 0.00, 0.74, 0.00, -0.31, 0.00, 66.27, 66.27
GPS, 3, 112175600, 10, 1.63, -33.7840420, 151.0681605, 0.00, 100.62, 0.17, 179.40
CTUN, 0, 0.00, 0.09, 0.000000, 0.00, 0, 0, 0, 0
ATT, 0.00, 0.75, 0.00, -0.32, 0.00, 66.28, 66.28
CTUN, 0, 0.00, -0.08, 0.000000, 0.00, 0, 0, 0, 0
ATT, 0.00, 0.76, 0.00, -0.33, 0.00, 66.28, 66.28
GPS, 3, 112175800, 10, 1.63, -33.7840417, 151.0681604, 0.00, 100.59, 0.22, 179.40
CTUN, 0, 0.00, 0.07, 0.000000, 0.00, 0, 0, 0, 0
ATT, 0.00, 0.77, 0.00, -0.32, 0.00, 66.29, 66.29
CTUN, 0, 0.00, 0.04, 0.000000, 0.00, 0, 0, 0, 0
ATT, 0.00, 0.78, 0.00, -0.32, 0.00, 66.30, 66.30
GPS, 3, 112176000, 10, 1.63, -33.7840415, 151.0681603, 0.00, 100.58, 0.21, 179.40
CTUN, 0, 0.00, 0.06, 0.000000, 0.00, 0, 0, 0, 0
DU32, 7, 98393
CURR, 0, 0, 1102, 0, 4469, 0.000000
ATT, 0.00, 0.79, 0.00, -0.33, 0.00, 66.30, 66.30
CTUN, 0, 0.00, -0.02, 0.000000, 0.00, 0, 0, 0, 0
ATT, 0.00, 0.78, 0.00, -0.33, 0.00, 66.30, 66.30
GPS, 3, 112176200, 10, 1.63, -33.7840413, 151.0681602, 0.01, 100.58, 0.20, 179.40
CTUN, 0, 0.00, 0.03, 0.000000, 0.00, 0, 0, 0, 0
ATT, 0.00, 0.78, 0.00, -0.33, 0.00, 66.31, 66.31
CTUN, 0, 0.00, 0.00, 0.000000, 0.00, 0, 0, 0, 0
GPS, 3, 112176400, 10, 1.63, -33.7840411, 151.0681601, 0.01, 100.54, 0.17, 179.40
ATT, 0.00, 0.78, 0.00, -0.34, 0.00, 66.31, 66.31
CTUN, 0, 0.00, 0.05, 0.000000, 0.00, 0, 0, 0, 0
ATT, 0.00, 0.77, 0.00, -0.35, 0.00, 66.32, 66.32
CTUN, 0, 0.00, 0.05, 0.000000, 0.00, 0, 0, 0, 0
GPS, 3, 112176600, 10, 1.63, -33.7840407, 151.0681600, 0.01, 100.50, 0.07, 179.40
ATT, 0.00, 0.77, 0.00, -0.36, 0.00, 66.32, 66.32
CTUN, 0, 0.00, -0.01, 0.000000, 0.00, 0, 0, 0, 0
ATT, 0.00, 0.74, 0.00, -0.37, 0.00, 66.32, 66.32
CTUN, 0, 0.00, -0.04, 0.000000, 0.00, 0, 0, 0, 0
GPS, 3, 112176800, 10, 1.63, -33.7840405, 151.0681600, 0.01, 100.47, 0.05, 179.40
ATT, 0.00, 0.72, 0.00, -0.39, 0.00, 66.33, 66.33
EV, 15
CTUN, 154, 0.00, 0.00, 0.000000, 0.00, 0, 0, 143, 0
EV, 28
ATT, 0.00, 0.72, 0.00, -0.41, 0.00, 66.32, 66.33
CTUN, 230, 0.00, -0.07, 0.000000, 0.00, 0, 0, 210, 0
GPS, 3, 112177000, 11, 1.58, -33.7840401, 151.0681600, 0.00, 100.45, 0.03, 179.40
ATT, 0.00, 0.72, 0.00, -0.36, 0.00, 66.27, 66.33
CTUN, 263, 0.00, 0.01, 0.000000, 0.00, 0, 0, 263, 0
DU32, 7, 65657
CURR, 263, 616, 1102, 0, 4505, 0.000000
ATT, 0.00, 0.75, 0.00, -0.37, 0.00, 66.20, 66.33
CTUN, 263, 0.00, -0.31, 0.000000, 0.00, 0, 0, 263, 0
GPS, 3, 112177200, 11, 1.58, -33.7840398, 151.0681599, 0.00, 100.41, 0.09, 179.40
ATT, 0.00, 0.74, 0.00, -0.36, 0.00, 66.06, 66.33
CTUN, 264, 0.00, -0.75, 0.000000, 0.00, 0, -1, 263, 0
ATT, 0.00, 0.70, 0.00, -0.35, 0.00, 66.01, 66.33
CTUN, 264, 0.00, -0.90, 0.000000, 0.00, 0, -1, 264, 0
GPS, 3, 112177400, 11, 1.58, -33.7840394, 151.0681599, -0.08, 100.36, 0.09, 179.40
CTUN, 264, 0.00, -0.94, 0.000000, 0.00, 0, -3, 263, 0
ATT, 0.00, 0.73, 0.00, -0.35, 0.00, 65.90, 66.33
CTUN, 264, 0.00, -1.05, 0.000000, 0.00, 0, -3, 264, 0
ATT, 0.00, 0.72, 0.00, -0.37, 0.00, 65.84, 66.33
GPS, 3, 112177600, 12, 1.33, -33.7840384, 151.0681602, -0.19, 100.24, 0.72, 101.46
CTUN, 263, 0.00, -1.00, 0.000000, 0.00, 0, -5, 263, 0
ATT, 0.00, 0.60, 0.00, -0.48, 0.00, 65.75, 66.33
CTUN, 263, 0.00, -0.90, 0.000000, 0.00, 0, -5, 263, 0
GPS, 3, 112177800, 11, 1.58, -33.7840370, 151.0681605, -0.28, 100.14, 1.26, 36.91
ATT, 0.00, 0.42, 0.00, -0.63, 0.00, 65.67, 66.33
CTUN, 263, 0.00, -1.10, 0.000000, 0.00, 0, -7, 263, 0
ATT, 0.00, 0.27, 0.00, -0.75, 0.00, 65.56, 66.33
CTUN, 263, 0.00, -0.99, 0.000000, 0.00, 0, -8, 264, 0
GPS, 3, 112178000, 12, 1.33, -33.7840369, 151.0681606, -0.39, 99.95, 0.65, 29.47
ATT, 0.00, 0.11, 0.00, -0.84, 0.00, 65.52, 66.33
CTUN, 264, 0.00, -0.96, 0.000000, 0.00, 0, -8, 264, 0
DU32, 7, 65657
CURR, 264, 2987, 1102, 0, 4523, 0.000000
ATT, 0.00, 0.25, 0.00, -0.77, 0.00, 65.42, 66.33
CTUN, 263, 0.00, -1.12, 0.000000, 0.00, 0, -9, 263, 0
GPS, 3, 112178200, 11, 1.58, -33.7840367, 151.0681605, -0.47, 99.89, 0.20, 29.47
ATT, 0.00, 0.41, 0.00, -0.64, 0.00, 65.34, 66.33
CTUN, 264, 0.00, -1.17, 0.000000, 0.00, 0, -10, 264, 0
ATT, 0.00, 0.50, 0.00, -0.56, 0.00, 65.26, 66.33
CTUN, 284, 0.00, -0.79, 0.000000, 0.00, 0, -11, 273, 0
GPS, 3, 112178400, 11, 1.58, -33.7840360, 151.0681608, -0.57, 99.74, 0.35, 29.47
CTUN, 384, 0.00, -0.97, 0.000000, 0.00, 0, -12, 357, 0
ATT, 0.00, 0.59, 0.00, -0.50, 0.00, 65.19, 66.33
CTUN, 421, 0.00, -1.28, 0.000000, 0.00, 0, -12, 421, 0
ATT, 0.00, 0.61, 0.00, -0.50, 0.00, 65.06, 66.33
GPS, 3, 112178600, 11, 1.58, -33.7840357, 151.0681610, -0.64, 99.66, 0.23, 29.47
CTUN, 421, 0.00, -1.34, 0.000000, 0.00, 0, -13, 421, 0
ATT, 0.00, 0.68, 0.00, -0.50, 0.00, 64.88, 66.33
CTUN, 423, 0.00, -1.55, 0.000000, 0.00, 0, -14, 423, 0
ATT, 0.00, 0.68, 0.00, -0.51, 0.00, 64.77, 66.33
GPS, 3, 112178800, 11, 1.58, -33.7840354, 151.0681609, -0.76, 99.54, 0.13, 29.47
CTUN, 422, 0.00, -1.67, 0.000000, 0.00, 0, -16, 422, 0
ATT, 0.00, 0.74, 0.00, -0.46, 0.00, 64.69, 66.33
CTUN, 461, 0.00, -1.54, 0.000000, 0.00, 0, -16, 442, 0
EV, 16
GPS, 3, 112179000, 11, 1.58, -33.7840346, 151.0681610, -0.89, 99.39, 0.37, 29.47
ATT, 0.00, 0.70, 0.00, -0.46, 0.00, 64.55, 66.33
CTUN, 488, 0.00, -1.80, 0.000000, 0.00, 0, -17, 488, 0
DU32, 7, 82041
CURR, 515, 6381, 1102, 0, 4469, 0.000000
ATT, 0.00, 0.73, 0.00, -0.25, 0.00, 64.33, 66.33
CTUN, 528, 0.00, -1.59, 0.000000, 0.00, 0, -17, 522, 0
GPS, 3, 112179200, 11, 1.58, -33.7840344, 151.0681609, -1.01, 99.45, 0.05, 29.47
ATT, 0.00, 0.35, 0.00, 0.85, 0.00, 63.26, 66.33
CTUN, 551, 0.00, -2.15, 0.000000, 0.00, 0, -14, 551, 0
ATT, 0.00, -0.48, 0.00, 2.03, 0.00, 61.87, 66.33
CTUN, 586, 0.00, -1.97, 0.000000, 0.00, 0, -7, 584, 0
GPS, 3, 112179400, 11, 1.58, -33.7840337, 151.0681610, -1.14, 99.36, 0.24, 29.47
CTUN, 585, 0.00, -1.45, 0.000000, 0.00, 0, 3, 585, 0
ATT, 0.00, -0.14, 0.00, 2.60, 0.00, 60.01, 66.33
CTUN, 585, 0.00, -0.45, 0.000000, 0.00, 0, 16, 585, 0
ATT, 0.00, -0.52, 0.00, 2.60, 0.00, 58.47, 66.33
GPS, 3, 112179600, 11, 1.58, -33.7840323, 151.0681612, -1.15, 99.29, 0.51, 29.47
CTUN, 585, 0.00, -0.09, 0.000000, 0.00, 0, 27, 585, 0
ATT, 0.00, -0.94, -3.73, 1.79, 0.00, 56.85, 66.33
CTUN, 585, 0.00, 0.15, 0.000000, 0.00, 0, 36, 585, 0
ATT, -1.16, -1.23, -5.18, -0.83, 0.00, 55.57, 65.57
GPS, 3, 112179800, 11, 1.58, -33.7840313, 151.0681611, -0.97, 99.37, 0.42, 29.47
CTUN, 585, 0.00, 0.35, 0.000000, 0.00, 0, 44, 585, 0
ATT, -0.11, -1.46, -8.80, -2.69, 0.00, 54.50, 64.50
CTUN, 585, 0.00, 0.32, 0.000000, 0.00, 0, 49, 585, 0
GPS, 3, 112180000, 11, 1.58, -33.7840308, 151.0681606, -0.73, 99.39, 0.23, 29.47
ATT, 0.00, -0.19, -11.70, -5.35, 0.00, 53.39, 63.39
CTUN, 585, 0.00, 0.40, 0.000000, 0.00, 2, 54, 585, 0
DU32, 7, 82041
CURR, 584, 11560, 1102, 0, 4487, 0.000000
ATT, 0.00, 0.02, -12.18, -7.95, 0.00, 52.50, 62.50
CTUN, 585, 0.00, 0.47, 0.000000, 0.00, 4, 58, 589, 0
GPS, 3, 112180200, 11, 1.58, -33.7840303, 151.0681602, -0.49, 99.50, 0.19, 29.47
ATT, 0.00, 1.05, -11.34, -9.51, 5.94, 51.46, 61.46
CTUN, 585, 0.00, 0.62, 0.000000, 0.00, 6, 62, 591, 0
ATT, 0.00, 2.05, -11.09, -9.59, 12.25, 51.62, 61.62
CTUN, 586, 0.00, 0.67, 0.000000, 0.00, 6, 68, 592, 0
GPS, 3, 112180400, 11, 1.58, -33.7840296, 151.0681596, -0.24, 99.59, 0.26, 29.47
CTUN, 584, 0.00, 0.77, 0.000000, 0.00, 6, 75, 592, 0
ATT, 0.00, 3.36, -11.82, -8.84, 16.25, 53.83, 63.83
PM, 0, 0, 50, 0, 1000, 10432, 0, 4
CTUN, 582, 0.00, 0.73, 0.000000, 0.00, 6, 82, 588, 0
ATT, 0.00, 3.61, -10.97, -8.68, 18.07, 57.12, 67.12
GPS, 3, 112180600, 11, 1.58, -33.7840285, 151.0681592, 0.02, 99.69, 0.35, 29.47
CTUN, 585, 0.00, 0.87, 0.000000, 0.00, 5, 88, 590, 0
ATT, 0.00, 3.26, -10.13, -8.47, 8.73, 62.20, 72.20
CTUN, 585, 0.00, 0.96, 0.000000, 0.00, 5, 90, 590, 0
ATT, 0.00, 1.81, -10.13, -8.21, 3.63, 65.73, 74.28
GPS, 3, 112180800, 11, 1.58, -33.7840278, 151.0681589, 0.29, 99.82, 0.16, 29.47
CTUN, 585, 0.00, 0.99, 0.000000, 0.00, 4, 92, 589, 0
ATT, 0.00, 1.23, -9.53, -8.13, 0.00, 67.34, 74.36
CTUN, 585, 0.00, 1.11, 0.000000, 0.00, 4, 95, 589, 0
GPS, 3, 112181000, 11, 1.58, -33.7840264, 151.0681598, 0.56, 99.86, 0.56, 33.91
ATT, 0.00, 0.82, -9.28, -7.56, 0.00, 67.61, 74.36
CTUN, 585, 0.00, 1.32, 0.000000, 0.00, 3, 98, 588, 0
DU32, 7, 82041
CURR, 585, 16869, 1102, 0, 4487, 0.000000
ATT, 0.00, 0.71, -10.97, -7.45, 0.00, 67.27, 74.36
CTUN, 585, 0.00, 1.28, 0.000000, 0.00, 4, 100, 589, 0
GPS, 3, 112181200, 11, 1.58, -33.7840248, 151.0681608, 0.83, 99.96, 0.74, 38.75
ATT, 0.00, 0.56, -10.13, -8.32, 0.00, 66.52, 74.36
CTUN, 583, 0.00, 1.54, 0.000000, 0.00, 4, 102, 587, 0
ATT, 0.00, 0.85, -9.16, -8.09, 0.00, 65.87, 74.36
CTUN, 585, 0.00, 1.59, 0.000000, 0.00, 4, 104, 589, 0
GPS, 3, 112181400, 11, 1.58, -33.7840231, 151.0681617, 1.06, 100.13, 0.81, 35.73
CTUN, 584, 0.00, 1.80, 0.000000, 0.00, 3, 107, 587, 0
ATT, 0.00, 0.90, -4.58, -6.81, 0.00, 65.20, 74.36
CTUN, 585, 0.00, 1.86, 0.000000, 0.00, 1, 110, 585, 0
ATT, 0.00, 0.98, -1.93, -4.34, 0.00, 64.83, 74.36
GPS, 3, 112181600, 11, 1.58, -33.7840216, 151.0681634, 1.35, 100.18, 0.96, 42.04
CTUN, 585, 0.00, 2.08, 0.000000, 0.00, 0, 114, 585, 0
ATT, 0.00, 1.25, -1.56, -1.57, 0.00, 64.55, 74.36
CTUN, 585, 0.00, 2.12, 0.000000, 0.00, 0, 117, 585, 0
ATT, 0.00, 1.09, -3.73, -0.39, 0.00, 64.48, 74.36
GPS, 3, 112181800, 11, 1.58, -33.7840201, 151.0681648, 1.69, 100.35, 0.96, 43.76
CTUN, 585, 0.00, 2.25, 0.000000, 0.00, 0, 119, 585, 0
ATT, 0.00, 0.90, -5.54, -1.08, 0.00, 64.49, 74.36
CTUN, 585, 0.00, 2.39, 0.000000, 0.00, 0, 120, 585, 0
GPS, 3, 112182000, 11, 1.58, -33.7840187, 151.0681664, 1.99, 100.54, 0.98, 46.28
ATT, 0.00, 0.50, -6.87, -2.62, 0.00, 64.60, 74.36
CTUN, 585, 0.00, 2.57, 0.000000, 0.00, 0, 122, 585, 0
DU32, 7, 82041
CURR, 585, 22148, 1102, 0, 4487, 0.000000
ATT, 0.00, 0.50, -8.20, -3.93, 0.00, 64.74, 74.36
CTUN, 586, 0.00, 2.70, 0.000000, 0.00, 1, 124, 587, 0
GPS, 3, 112182200, 11, 1.58, -33.7840176, 151.0681677, 2.29, 100.60, 0.82, 46.47
ATT, 0.00, 0.67, -8.92, -5.55, 0.00, 64.90, 74.36
CTUN, 585, 0.00, 2.82, 0.000000, 0.00, 2, 126, 587, 0
ATT, 0.00, 0.95, -10.37, -6.63, 0.00, 65.01, 74.36
CTUN, 585, 0.00, 2.93, 0.000000, 0.00, 3, 128, 588, 0
GPS, 3, 112182400, 11, 1.58, -33.7840163, 151.0681690, 2.60, 100.70, 0.82, 45.05
CTUN, 586, 0.00, 3.02, 0.000000, 0.00, 4, 131, 590, 0
ATT, 0.00, 1.01, -10.37, -7.98, 0.00, 65.07, 74.36
CTUN, 585, 0.00, 3.21, 0.000000, 0.00, 5, 133, 590, 0
ATT, 0.00, 1.12, -9.53, -8.49, 0.00, 65.15, 74.36
GPS, 3, 112182600, 11, 1.58, -33.7840151, 151.0681701, 2.91, 100.83, 0.77, 44.11
CTUN, 585, 0.00, 3.34, 0.000000, 0.00, 4, 134, 587, 0
ATT, 0.00, 1.51, -8.80, -8.24, 0.00, 65.25, 74.36
CTUN, 585, 0.00, 3.45, 0.000000, 0.00, 4, 136, 589, 0
ATT, 0.00, 1.50, -8.92, -7.68, 0.00, 65.40, 74.36
GPS, 3, 112182800, 11, 1.58, -33.7840135, 151.0681721, 3.22, 100.98, 1.02, 46.46
CTUN, 585, 0.00, 3.68, 0.000000, 0.00, 4, 138, 589, 0
ATT, 0.00, 1.70, -10.49, -7.40, 0.00, 65.53, 74.36
CTUN, 585, 0.00, 3.83, 0.000000, 0.00, 4, 139, 587, 0
GPS, 3, 112183000, 11, 1.58, -33.7840118, 151.0681744, 3.54, 101.25, 1.10, 49.43
ATT, 0.00, 1.60, -11.46, -8.26, 0.00, 65.69, 74.36
CTUN, 585, 0.00, 3.85, 0.000000, 0.00, 5, 141, 590, 0
DU32, 7, 82041
CURR, 585, 27446, 1102, 0, 4469, 0.000000
ATT, 0.00, 1.55, -11.09, -8.96, 0.00, 65.86, 74.36
CTUN, 585, 0.00, 4.13, 0.000000, 0.00, 5, 142, 590, 0
GPS, 3, 112183200, 11, 1.58, -33.7840100, 151.0681767, 3.85, 101.24, 1.34, 47.41
ATT, 0.00, 1.51, -10.01, -8.96, 0.00, 66.06, 74.36
CTUN, 585, 0.00, 4.28, 0.000000, 0.00, 5, 144, 590, 0
ATT, 0.00, 1.54, -8.32, -8.36, 0.00, 66.25, 74.36
CTUN, 584, 0.00, 4.41, 0.000000, 0.00, 5, 145, 589, 0
GPS, 3, 112183400, 11, 1.58, -33.7840081, 151.0681796, 4.18, 101.36, 1.55, 48.90
CTUN, 584, 0.00, 4.57, 0.000000, 0.00, 3, 147, 587, 0
ATT, 0.00, 1.56, -3.37, -7.03, 0.00, 66.48, 74.36
CTUN, 585, 0.00, 4.81, 0.000000, 0.00, 1, 148, 587, 0
ATT, 0.00, 1.45, -3.13, -4.22, 0.00, 66.66, 74.36
GPS, 3, 112183600, 11, 1.58, -33.7840059, 151.0681831, 4.51, 101.47, 1.84, 50.88
CTUN, 586, 0.00, 4.89, 0.000000, 0.00, 0, 150, 586, 0
ATT, 0.00, 1.38, -2.77, -2.61, 0.00, 66.84, 74.36
CTUN, 583, 0.00, 5.07, 0.000000, 0.00, 0, 151, 586, 0
ATT, 0.00, 0.96, -1.80, -2.04, 0.00, 67.02, 74.36
GPS, 3, 112183800, 11, 1.58, -33.7840036, 151.0681865, 4.85, 101.59, 1.88, 50.73
CTUN, 586, 0.00, 5.07, 0.000000, 0.00, 0, 152, 586, 0
ATT, 0.00, 0.80, -0.36, -0.98, 0.00, 67.13, 74.36
CTUN, 585, 0.00, 5.35, 0.000000, 0.00, 0, 153, 585, 0
GPS, 3, 112184000, 11, 1.58, -33.7840015, 151.0681899, 5.18, 101.76, 1.80, 51.75
ATT, 0.00, 0.72, 0.00, 0.08, 0.00, 67.18, 74.36
CTUN, 585, 0.00, 5.49, 0.000000, 0.00, 0, 153, 585, 0
DU32, 7, 82041
CURR, 584, 32729, 1102, 0, 4487, 0.000000
ATT, 0.00, 0.54, 0.00, 0.52, 0.00, 67.20, 74.36
CTUN, 584, 0.00, 5.60, 0.000000, 0.00, 0, 154, 584, 0
GPS, 3, 112184200, 11, 1.58, -33.7839997, 151.0681930, 5.51, 101.93, 1.63, 52.57
ATT, 0.00, 0.28, 0.00, 0.54, 0.00, 67.23, 74.36
CTUN, 585, 0.00, 5.79, 0.000000, 0.00, 0, 154, 583, 0
ATT, 0.00, 0.25, 0.00, 0.46, 0.00, 67.24, 74.36
CTUN, 585, 0.00, 5.95, 0.000000, 0.00, 0, 156, 585, 0
GPS, 3, 112184400, 11, 1.58, -33.7839984, 151.0681956, 5.84, 102.12, 1.32, 54.34
CTUN, 585, 0.00, 5.93, 0.000000, 0.00, 0, 155, 585, 0
ATT, 0.00, 0.17, 0.00, 0.25, 0.00, 67.27, 74.36
CTUN, 585, 0.00, 6.20, 0.000000, 0.00, 0, 155, 585, 0
ATT, 5.05, 0.43, 0.00, -0.05, 0.00, 67.30, 74.36
GPS, 3, 112184600, 11, 1.58, -33.7839968, 151.0681980, 6.16, 102.25, 1.28, 52.72
CTUN, 586, 0.00, 6.28, 0.000000, 0.00, 0, 155, 585, 0
ATT, 7.80, 3.24, 0.00, -0.46, 0.00, 67.25, 74.36
CTUN, 585, 0.00, 6.38, 0.000000, 0.00, 1, 155, 584, 0
ATT, 9.52, 5.60, -0.36, -0.39, 0.00, 67.16, 74.36
GPS, 3, 112184800, 11, 1.58, -33.7839959, 151.0682001, 6.48, 102.51, 1.00, 54.32
CTUN, 585, 0.00, 6.60, 0.000000, 0.00, 2, 154, 587, 0
ATT, 8.38, 7.48, 0.00, -0.64, 0.00, 67.14, 74.36
CTUN, 583, 0.00, 6.70, 0.000000, 0.00, 4, 154, 587, 0
GPS, 3, 112185000, 11, 1.58, -33.7839952, 151.0682017, 6.78, 102.70, 0.80, 56.15
ATT, 5.39, 7.80, 0.00, -0.26, 0.00, 67.23, 74.36
CTUN, 584, 0.00, 6.82, 0.000000, 0.00, 4, 154, 588, 0
DU32, 7, 82041
CURR, 582, 38004, 1102, 0, 4487, 0.000000
ATT, 5.16, 6.98, 0.00, -0.29, 0.00, 67.30, 74.36
CTUN, 585, 0.00, 6.99, 0.000000, 0.00, 3, 154, 588, 0
GPS, 3, 112185200, 11, 1.58, -33.7839950, 151.0682032, 7.09, 102.87, 0.64, 62.69
ATT, 0.68, 5.59, 0.00, -0.45, 0.00, 67.41, 74.36
CTUN, 585, 0.00, 7.09, 0.000000, 0.00, 2, 153, 587, 0
ATT, 0.00, 2.98, 0.00, -0.45, 0.00, 67.57, 74.36
CTUN, 585, 0.00, 7.22, 0.000000, 0.00, 0, 153, 585, 0
GPS, 3, 112185400, 11, 1.58, -33.7839949, 151.0682047, 7.38, 103.09, 0.66, 62.69
CTUN, 585, 0.00, 7.35, 0.000000, 0.00, 0, 153, 585, 0
ATT, 0.00, 1.15, -0.24, -0.86, 0.00, 67.72, 74.36
CTUN, 585, 0.00, 7.47, 0.000000, 0.00, 0, 151, 585, 0
ATT, 0.00, 0.46, -0.96, -1.14, 0.00, 67.78, 74.36
GPS, 3, 112185600, 11, 1.58, -33.7839956, 151.0682060, 7.67, 103.35, 0.63, 62.69
CTUN, 585, 0.00, 7.74, 0.000000, 0.00, 0, 150, 585, 0
ATT, 0.00, 0.04, -0.72, -1.49, 0.00, 67.81, 74.36
CTUN, 585, 0.00, 7.81, 0.000000, 0.00, 0, 149, 585, 0
ATT, 0.00, -0.06, 0.00, -1.81, 0.00, 67.81, 74.36
GPS, 3, 112185800, 11, 1.58, -33.7839965, 151.0682071, 7.96, 103.63, 0.66, 62.69
CTUN, 585, 0.00, 7.94, 0.000000, 0.00, 0, 148, 585, 0
ATT, 0.00, -0.02, 0.00, -1.48, 0.00, 67.82, 74.36
CTUN, 586, 0.00, 8.03, 0.000000, 0.00, 0, 147, 586, 0
ATT, 0.00, 0.02, 0.00, -1.37, 0.00, 67.81, 74.36
GPS, 3, 112186000, 11, 1.58, -33.7839972, 151.0682080, 8.25, 103.87, 0.58, 62.69
CTUN, 586, 0.00, 8.12, 0.000000, 0.00, 0, 146, 586, 0
ATT, 0.00, -0.04, 0.00, -1.29, 0.00, 67.82, 74.36
DU32, 7, 82041
CURR, 586, 43271, 1102, 0, 4469, 0.000000
CTUN, 586, 0.00, 8.39, 0.000000, 0.00, 0, 145, 586, 0
GPS, 3, 112186200, 11, 1.58, -33.7839979, 151.0682088, 8.52, 104.11, 0.53, 62.69
ATT, 0.00, -0.09, 0.00, -1.20, 0.00, 67.82, 74.36
CTUN, 585, 0.00, 8.37, 0.000000, 0.00, 0, 145, 585, 0
ATT, 0.00, -0.14, 0.00, -1.19, 0.00, 67.82, 74.36
CTUN, 586, 0.00, 8.64, 0.000000, 0.00, 0, 144, 586, 0
GPS, 3, 112186400, 11, 1.58, -33.7839984, 151.0682095, 8.79, 104.32, 0.42, 62.69
ATT, 0.00, -0.06, 0.00, -1.11, 0.00, 67.85, 74.36
CTUN, 585, 0.00, 8.82, 0.000000, 0.00, 0, 143, 584, 0
ATT, 0.00, -0.10, 0.00, -1.12, 0.00, 67.91, 74.36
CTUN, 584, 0.00, 8.78, 0.000000, 0.00, 0, 142, 584, 0
GPS, 3, 112186600, 11, 1.58, -33.7839992, 151.0682101, 9.06, 104.52, 0.47, 62.69
CTUN, 585, 0.00, 9.06, 0.000000, 0.00, 0, 141, 585, 0
ATT, 0.00, -0.03, -1.32, -1.15, 0.00, 67.99, 74.36
CTUN, 584, 0.00, 9.19, 0.000000, 0.00, 0, 140, 586, 0
ATT, 0.00, 0.17, -5.06, -1.91, 0.00, 68.03, 74.36
GPS, 3, 112186800, 12, 1.33, -33.7840000, 151.0682106, 9.33, 104.78, 0.46, 62.69
CTUN, 585, 0.00, 9.29, 0.000000, 0.00, 0, 139, 585, 0
ATT, 0.00, 0.00, -6.63, -4.53, 0.00, 68.09, 74.36
CTUN, 585, 0.00, 9.50, 0.000000, 0.00, 2, 138, 587, 0
ATT, 0.00, 0.08, -7.11, -6.25, 0.00, 68.16, 74.36
GPS, 3, 112187000, 12, 1.33, -33.7840007, 151.0682110, 9.60, 104.95, 0.35, 62.69
CTUN, 586, 0.00, 9.48, 0.000000, 0.00, 3, 138, 586, 0
ATT, 0.00, 0.34, -6.99, -6.97, 0.00, 68.20, 74.36
DU32, 7, 82041
CURR, 586, 48544, 1102, 0, 4469, 0.000000
CTUN, 583, 0.00, 9.64, 0.000000, 0.00, 3, 137, 586, 0
GPS, 3, 112187200, 12, 1.33, -33.7840010, 151.0682115, 9.86, 105.09, 0.27, 62.69
ATT, 0.00, 0.83, -9.04, -7.25, 0.00, 68.21, 74.36
CTUN, 586, 0.00, 9.90, 0.000000, 0.00, 3, 137, 589, 0
ATT, 0.00, 1.02, -9.89, -7.95, 0.00, 68.25, 74.36
CTUN, 584, 0.00, 9.94, 0.000000, 0.00, 4, 137, 588, 0
GPS, 3, 112187400, 12, 1.33, -33.7840013, 151.0682123, 10.12, 105.25, 0.34, 62.69
ATT, 0.00, 0.85, -11.46, -9.11, 0.00, 68.37, 74.36
CTUN, 584, 0.00, 10.05, 0.000000, 0.00, 5, 138, 589, 0
ATT, 0.00, 1.17, -12.54, -9.92, 0.00, 68.44, 74.36
CTUN, 585, 0.00, 10.21, 0.000000, 0.00, 7, 138, 592, 0
GPS, 3, 112187600, 12, 1.33, -33.7840016, 151.0682132, 10.38, 105.44, 0.40, 62.69
CTUN, 585, 0.00, 10.34, 0.000000, 0.00, 8, 136, 593, 0
ATT, 0.00, 0.80, -12.06, -10.92, 0.00, 68.61, 74.36
CTUN, 585, 0.00, 10.56, 0.000000, 0.00, 8, 135, 593, 0
ATT, 0.00, 0.70, -11.46, -10.94, 0.00, 68.71, 74.36
GPS, 3, 112187800, 12, 1.33, -33.7840021, 151.0682146, 10.64, 105.65, 0.61, 62.69
CTUN, 585, 0.00, 10.57, 0.000000, 0.00, 8, 135, 593, 0
ATT, 0.00, 0.81, -8.32, -10.40, 0.00, 68.82, 74.36
CTUN, 585, 0.00, 10.76, 0.000000, 0.00, 6, 135, 591, 0
ATT, 0.00, 1.03, -4.10, -8.49, 0.00, 68.96, 74.36
GPS, 3, 112188000, 12, 1.33, -33.7840023, 151.0682167, 10.90, 105.90, 0.83, 89.51
CTUN, 585, 0.00, 10.97, 0.000000, 0.00, 3, 136, 588, 0
ATT, -0.23, 1.60, -1.08, -4.99, 0.00, 69.04, 74.36
DU32, 7, 82041
CURR, 585, 53857, 1102, 0, 4469, 0.000000
CTUN, 585, 0.00, 11.18, 0.000000, 0.00, 1, 136, 586, 0
ATT, -0.46, 1.39, -2.53, -1.95, 0.00, 69.15, 74.36
GPS, 3, 112188200, 12, 1.33, -33.7840025, 151.0682191, 11.20, 106.03, 1.05, 92.64
CTUN, 584, 0.00, 11.31, 0.000000, 0.00, 0, 135, 585, 0
ATT, -0.46, 0.78, -3.13, -1.14, 0.00, 69.32, 74.36
CTUN, 585, 0.00, 11.51, 0.000000, 0.00, 0, 135, 584, 0
GPS, 3, 112188400, 12, 1.33, -33.7840028, 151.0682212, 11.45, 106.16, 0.94, 94.11
ATT, -0.46, -0.05, -2.77, -1.48, 0.00, 69.58, 74.36
CTUN, 585, 0.00, 11.52, 0.000000, 0.00, 0, 133, 586, 0
ATT, -0.46, -0.47, -1.93, -1.65, 0.00, 69.79, 74.36
CTUN, 585, 0.00, 11.71, 0.000000, 0.00, 0, 133, 585, 0
GPS, 3, 112188600, 12, 1.33, -33.7840029, 151.0682240, 11.72, 106.34, 1.17, 92.84
ATT, -0.58, -0.52, -2.65, -1.60, 0.00, 70.00, 74.36
CTUN, 584, 0.00, 11.82, 0.000000, 0.00, 0, 130, 584, 0
ATT, -0.69, -0.49, -5.91, -2.08, 0.00, 70.08, 74.36
CTUN, 585, 0.00, 11.96, 0.000000, 0.00, 0, 129, 584, 0
GPS, 3, 112188800, 12, 1.33, -33.7840035, 151.0682258, 11.98, 106.45, 0.90, 94.39
CTUN, 586, 0.00, 12.00, 0.000000, 0.00, 1, 126, 587, 0
ATT, -1.74, -0.91, -5.91, -4.19, 0.00, 70.01, 74.36
CTUN, 586, 0.00, 12.12, 0.000000, 0.00, 1, 124, 587, 0
ATT, -3.61, -1.53, -4.82, -5.24, 0.00, 69.86, 74.36
GPS, 3, 112189000, 12, 1.33, -33.7840041, 151.0682277, 12.23, 106.53, 0.88, 94.63
CTUN, 575, 0.00, 12.10, 0.000000, 0.00, 2, 121, 579, 0
ATT, -2.91, -2.02, -4.58, -5.37, 0.00, 69.61, 74.36
DU32, 7, 82041
CURR, 576, 59120, 1102, 0, 4469, 0.000000
CTUN, 576, 0.00, 12.30, 0.000000, 0.00, 2, 118, 578, 0
ATT, -2.44, -0.85, -4.46, -5.14, 0.00, 69.30, 74.36
GPS, 3, 112189200, 12, 1.33, -33.7840045, 151.0682296, 12.45, 106.66, 0.86, 93.73
CTUN, 575, 0.00, 12.48, 0.000000, 0.00, 1, 115, 577, 0
ATT, -2.56, -0.15, -3.25, -4.45, 0.00, 69.06, 74.36
CTUN, 578, 0.00, 12.63, 0.000000, 0.00, 1, 112, 578, 0
GPS, 3, 112189400, 12, 1.33, -33.7840049, 151.0682318, 12.67, 106.79, 0.93, 93.07
ATT, -2.68, -0.36, -1.93, -3.11, 0.00, 68.94, 74.36
CTUN, 578, 0.00, 12.80, 0.000000, 0.00, 0, 110, 578, 0
ATT, -2.91, -0.17, -2.17, -1.98, 0.00, 68.92, 74.36
CTUN, 576, 0.00, 12.98, 0.000000, 0.00, 0, 108, 576, 0
GPS, 3, 112189600, 12, 1.33, -33.7840050, 151.0682340, 12.90, 106.89, 0.94, 89.55
ATT, -2.68, -0.66, -1.80, -1.67, 0.00, 69.07, 74.36
CTUN, 576, 0.00, 13.04, 0.000000, 0.00, 0, 106, 576, 0
ATT, -1.63, -1.07, -1.20, -1.62, 0.00, 69.31, 74.36
CTUN, 576, 0.00, 13.08, 0.000000, 0.00, 0, 103, 576, 0
GPS, 3, 112189800, 12, 1.33, -33.7840052, 151.0682359, 13.11, 106.98, 0.86, 89.40
CTUN, 576, 0.00, 13.16, 0.000000, 0.00, 0, 99, 576, 0
ATT, -1.51, -0.84, -1.68, -1.41, 0.00, 69.58, 74.36
CTUN, 577, 0.00, 13.29, 0.000000, 0.00, 0, 97, 576, 0
ATT, 0.00, -0.97, -1.44, -1.33, 0.00, 69.87, 74.36
GPS, 3, 112190000, 12, 1.33, -33.7840057, 151.0682377, 13.31, 107.08, 0.81, 89.96
CTUN, 577, 0.00, 13.37, 0.000000, 0.00, 0, 93, 577, 0
ATT, -0.34, -0.54, -2.65, -1.70, 0.00, 70.29, 74.36
DU32, 7, 82041
CURR, 575, 64312, 1102, 0, 4505, 0.000000
CTUN, 576, 0.00, 13.38, 0.000000, 0.00, 0, 89, 577, 0
ATT, 0.00, -0.27, -3.25, -2.09, 0.00, 70.53, 74.36
GPS, 3, 112190200, 12, 1.33, -33.7840061, 151.0682392, 13.49, 107.14, 0.65, 91.29
CTUN, 577, 0.00, 13.53, 0.000000, 0.00, 0, 86, 577, 0
ATT, -0.34, -0.20, -2.65, -2.61, 0.00, 70.65, 74.36
CTUN, 577, 0.00, 13.61, 0.000000, 0.00, 0, 82, 577, 0
GPS, 3, 112190400, 11, 1.58, -33.7840064, 151.0682401, 13.66, 107.26, 0.47, 91.62
ATT, 0.00, -0.23, -3.49, -2.62, 0.00, 70.62, 74.36
CTUN, 577, 0.00, 13.69, 0.000000, 0.00, 0, 78, 577, 0
ATT, 0.00, 0.00, -3.37, -3.00, 0.00, 70.54, 74.36
PM, 0, 0, 50, 0, 1000, 10428, 0, 4
CTUN, 577, 0.00, 13.59, 0.000000, 0.00, 0, 75, 576, 0
GPS, 3, 112190600, 12, 1.33, -33.7840068, 151.0682414, 13.80, 107.29, 0.53, 91.37
ATT, 0.00, 0.00, 0.00, -3.16, 0.00, 70.35, 74.36
CTUN, 578, 0.00, 13.78, 0.000000, 0.00, 0, 72, 578, 0
ATT, 0.00, 0.48, -1.56, -1.91, 0.00, 70.08, 74.36
CTUN, 577, 0.00, 13.97, 0.000000, 0.00, 0, 69, 577, 0
GPS, 3, 112190800, 12, 1.33, -33.7840073, 151.0682423, 13.93, 107.36, 0.39, 91.37
CTUN, 577, 0.00, 13.96, 0.000000, 0.00, 0, 69, 577, 0
ATT, 0.00, 0.34, -1.93, -1.55, 0.00, 69.80, 74.36
CTUN, 577, 0.00, 14.00, 0.000000, 0.00, 0, 66, 577, 0
ATT, 0.00, 0.11, -2.65, -1.52, 0.00, 69.69, 74.36
GPS, 3, 112191000, 12, 1.33, -33.7840078, 151.0682431, 14.07, 107.40, 0.36, 91.37
CTUN, 577, 0.00, 14.09, 0.000000, 0.00, 0, 64, 577, 0
ATT, 0.00, 0.02, -2.17, -1.66, 0.00, 69.64, 74.36
DU32, 7, 82041
CURR, 575, 69504, 1102, 0, 4487, 0.000000
CTUN, 578, 0.00, 14.20, 0.000000, 0.00, 0, 63, 578, 0
ATT, 0.00, -0.25, -1.68, -1.86, 0.00, 69.72, 74.36
GPS, 3, 112191200, 12, 1.33, -33.7840086, 151.0682441, 14.20, 107.42, 0.44, 91.37
CTUN, 578, 0.00, 14.21, 0.000000, 0.00, 0, 61, 578, 0
ATT, 0.00, -0.27, -3.25, -1.97, 0.00, 69.74, 74.36
CTUN, 577, 0.00, 14.24, 0.000000, 0.00, 0, 60, 577, 0
GPS, 3, 112191400, 12, 1.33, -33.7840093, 151.0682446, 14.31, 107.46, 0.25, 91.37
ATT, 0.00, 0.09, -2.77, -2.69, 0.00, 69.72, 74.36
CTUN, 578, 0.00, 14.35, 0.000000, 0.00, 0, 59, 577, 0
ATT, -0.46, -0.42, -0.60, -2.59, 0.00, 69.83, 74.36
CTUN, 578, 0.00, 14.29, 0.000000, 0.00, 0, 57, 578, 0
GPS, 3, 112191600, 12, 1.33, -33.7840099, 151.0682450, 14.43, 107.51, 0.16, 91.37
ATT, -0.58, -0.32, -0.48, -1.66, 0.00, 69.95, 74.36
CTUN, 578, 0.00, 14.39, 0.000000, 0.00, 0, 56, 578, 0
ATT, 0.00, -0.70, 0.00, -1.48, 0.00, 70.10, 74.36
CTUN, 578, 0.00, 14.59, 0.000000, 0.00, 0, 55, 578, 0
GPS, 3, 112191800, 12, 1.33, -33.7840105, 151.0682456, 14.54, 107.58, 0.22, 91.37
CTUN, 574, 0.00, 14.60, 0.000000, 0.00, 0, 55, 576, 0
ATT, 0.00, -0.49, 0.00, -0.98, 0.00, 70.26, 74.36
CTUN, 577, 0.00, 14.65, 0.000000, 0.00, 0, 54, 577, 0
ATT, 0.00, -0.43, 0.00, -0.55, 0.00, 70.43, 74.36
GPS, 3, 112192000, 12, 1.33, -33.7840112, 151.0682457, 14.65, 107.65, 0.17, 91.37
CTUN, 577, 0.00, 14.62, 0.000000, 0.00, 0, 53, 577, 0
ATT, 0.00, -0.27, 0.00, -0.27, 0.00, 70.68, 74.36
DU32, 7, 82041
CURR, 577, 74694, 1102, 0, 4487, 0.000000
CTUN, 577, 0.00, 14.73, 0.000000, 0.00, 0, 52, 577, 0
ATT, 0.00, 0.00, 0.00, -0.42, 0.00, 70.81, 74.36
GPS, 3, 112192200, 12, 1.33, -33.7840116, 151.0682457, 14.75, 107.72, 0.12, 91.37
CTUN, 575, 0.00, 14.91, 0.000000, 0.00, 0, 50, 575, 0
ATT, 0.00, -0.15, 0.00, -0.60, 0.00, 70.83, 74.36
CTUN, 577, 0.00, 14.89, 0.000000, 0.00, 0, 50, 577, 0
GPS, 3, 112192400, 12, 1.33, -33.7840122, 151.0682456, 14.86, 107.82, 0.22, 91.37
ATT, 0.00, -0.61, 0.00, -0.93, 0.00, 70.99, 74.36
CTUN, 577, 0.00, 14.91, 0.000000, 0.00, 0, 47, 577, 0
ATT, 0.00, -0.04, 0.00, -1.26, 0.00, 71.15, 74.36
CTUN, 577, 0.00, 14.87, 0.000000, 0.00, 0, 44, 577, 0
GPS, 3, 112192600, 12, 1.33, -33.7840128, 151.0682450, 14.95, 107.92, 0.37, 91.37
ATT, 0.00, 1.29, 0.00, -1.55, 0.00, 71.20, 74.36
CTUN, 577, 0.00, 14.99, 0.000000, 0.00, 0, 42, 577, 0
ATT, -1.51, 1.38, 0.00, -1.69, 0.00, 71.26, 74.36
CTUN, 566, 0.00, 15.16, 0.000000, 0.00, 0, 40, 569, 0
GPS, 3, 112192800, 12, 1.33, -33.7840133, 151.0682444, 15.04, 108.01, 0.41, 91.37
CTUN, 569, 0.00, 15.06, 0.000000, 0.00, 0, 37, 569, 0
ATT, 0.00, 0.66, -1.08, -1.91, 0.00, 71.28, 74.36
CTUN, 568, 0.00, 15.06, 0.000000, 0.00, 0, 32, 568, 0
ATT, 0.00, 0.96, -2.65, -2.21, 0.00, 71.24, 74.36
GPS, 3, 112193000, 12, 1.33, -33.7840139, 151.0682435, 15.11, 108.04, 0.47, 167.42
CTUN, 566, 0.00, 15.02, 0.000000, 0.00, 0, 29, 566, 0
ATT, 0.00, 0.84, -3.61, -2.85, 0.00, 71.21, 74.36
CTUN, 538, 0.00, 15.13, 0.000000, 0.00, 0, 25, 552, 0
DU32, 7, 82041
CURR, 523, 80417, 1102, 0, 4487, 0.000000
ATT, 0.00, 1.11, -4.10, -3.59, 0.00, 71.18, 74.36
GPS, 3, 112193200, 12, 1.33, -33.7840146, 151.0682425, 15.16, 108.05, 0.62, 216.91
CTUN, 518, 0.00, 15.15, 0.000000, 0.00, 0, 20, 518, 0
ATT, 0.00, 1.55, -4.10, -3.74, 0.00, 71.18, 74.36
CTUN, 522, 0.00, 15.13, 0.000000, 0.00, 0, 9, 522, 0
GPS, 3, 112193400, 12, 1.33, -33.7840154, 151.0682418, 15.18, 108.03, 0.51, 222.85
ATT, -2.91, 1.25, -4.10, -3.90, 0.00, 71.44, 74.36
CTUN, 523, 0.00, 15.13, 0.000000, 0.00, 1, -2, 524, 0
ATT, -3.03, -0.20, -4.10, -4.24, 0.00, 71.77, 74.36
CTUN, 522, 0.00, 15.35, 0.000000, 0.00, 1, -15, 523, 0
GPS, 3, 112193600, 12, 1.33, -33.7840164, 151.0682409, 15.17, 107.97, 0.61, 227.18
ATT, -3.61, -0.95, -4.22, -4.48, 0.00, 72.07, 74.36
CTUN, 522, 0.00, 15.22, 0.000000, 0.00, 1, -24, 523, 0
ATT, -3.38, -1.50, -4.34, -4.04, 0.00, 72.25, 74.36
CTUN, 522, 0.00, 15.18, 0.000000, 0.00, 1, -34, 523, 0
GPS, 3, 112193800, 12, 1.33, -33.7840174, 151.0682402, 15.12, 107.86, 0.53, 225.46
CTUN, 522, 0.00, 15.18, 0.000000, 0.00, 1, -45, 523, 0
ATT, -4.31, -1.90, -4.70, -3.84, 0.00, 72.39, 74.36
CTUN, 522, 0.00, 15.11, 0.000000, 0.00, 1, -53, 523, 0
ATT, -5.71, -2.64, -4.58, -3.83, 0.00, 72.44, 74.36
GPS, 3, 112194000, 12, 1.33, -33.7840184, 151.0682395, 15.03, 107.72, 0.53, 224.79
CTUN, 522, 0.00, 15.09, 0.000000, 0.00, 1, -61, 523, 0
ATT, -6.99, -3.95, -4.94, -3.70, 0.00, 72.31, 74.36
