dump 2

ArduCopter V3.1-rc2
Free RAM: 1133
APM 2
FMT, 128, 89, FMT, BBnNZ, Type,Length,Name,Format
FMT, 129, 23, PARM, Nf, Name,Value
FMT, 130, 35, GPS, BIBcLLeeEe, Status,Time,NSats,HDop,Lat,Lng,RelAlt,Alt,Spd,GCrs
FMT, 131, 27, IMU, ffffff, GyrX,GyrY,GyrZ,AccX,AccY,AccZ
FMT, 132, 67, MSG, Z, Message
FMT, 9, 19, CURR, hIhhhf, Thr,ThrInt,Volt,Curr,Vcc,CurrTot
FMT, 11, 11, MOT, hhhh, Mot1,Mot2,Mot3,Mot4
FMT, 12, 28, OF, hhBccffee, Dx,Dy,SQual,X,Y,Lat,Lng,Roll,Pitch
FMT, 5, 49, NTUN, Ecffffffffee, WPDst,WPBrg,PErX,PErY,DVelX,DVelY,VelX,VelY,DAcX,DAcY,DRol,DPit
FMT, 4, 25, CTUN, hcefchhhh, ThrIn,SonAlt,BarAlt,WPAlt,DesSonAlt,AngBst,CRate,ThrOut,DCRate
FMT, 15, 21, MAG, hhhhhhhhh, MagX,MagY,MagZ,OfsX,OfsY,OfsZ,MOfsX,MOfsY,MOfsZ
FMT, 6, 17, PM, BBBHHIhB, RenCnt,RenBlw,FixCnt,NLon,NLoop,MaxT,PMT,I2CErr
FMT, 8, 20, CMD, BBBBBeLL, CTot,CNum,CId,COpt,Prm1,Alt,Lat,Lng
FMT, 1, 17, ATT, cccccCC, RollIn,Roll,PitchIn,Pitch,YawIn,Yaw,NavYaw
FMT, 17, 37, INAV, cccfffiiff, BAlt,IAlt,IClb,ACorrX,ACorrY,ACorrZ,GLat,GLng,ILat,ILng
FMT, 3, 6, MODE, Mh, Mode,ThrCrs
FMT, 10, 3, STRT, , 
FMT, 13, 4, EV, B, Id
FMT, 20, 6, D16, Bh, Id,Value
FMT, 21, 6, DU16, BH, Id,Value
FMT, 22, 8, D32, Bi, Id,Value
FMT, 23, 8, DU32, BI, Id,Value
FMT, 24, 8, DFLT, Bf, Id,Value
FMT, 14, 28, PID, Biiiiif, Id,Error,P,I,D,Out,Gain
FMT, 16, 15, DMP, ccccCC, DCMRoll,DMPRoll,DCMPtch,DMPPtch,DCMYaw,DMPYaw
FMT, 18, 25, CAM, ILLeccC, GPSTime,Lat,Lng,Alt,Roll,Pitch,Yaw
FMT, 19, 5, ERR, BB, Subsys,ECode
D32, 9, 3221
CMD, 6, 0, 16, 0, 0, 0.00, -33.7840813, 151.0682137
EV, 10
GPS, 3, 458509400, 10, 1.76, -33.7840812, 151.0682138, 0.33, 87.95, 0.01, 268.89
CTUN, 0, 0.00, 0.01, 0.000000, 0.00, 0, -6, 0, 0
ATT, 0.00, -1.34, 0.00, 0.43, 0.00, 32.16, 32.16
DU32, 7, 98393
CURR, 0, 0, 1102, 0, 4469, 0.000000
GPS, 3, 458516800, 10, 1.76, -33.7840831, 151.0682129, 0.32, 87.80, 0.02, 268.89
CTUN, 0, 0.00, -0.08, 0.000000, 0.00, 0, -6, 0, 0
ATT, 0.00, -1.37, 0.00, 0.43, 0.00, 32.22, 32.22
ATT, 0.00, -1.36, 0.00, 0.44, 0.00, 32.22, 32.22
CTUN, 0, 0.00, -0.02, 0.000000, 0.00, 0, -7, 0, 0
GPS, 3, 458517000, 10, 1.76, -33.7840829, 151.0682129, 0.27, 87.81, 0.03, 268.89
ATT, 0.00, -1.35, 0.00, 0.44, 0.00, 32.20, 32.20
CTUN, 0, 0.00, 0.00, 0.000000, 0.00, 0, -7, 0, 0
ATT, 0.00, -1.36, 0.00, 0.43, 0.00, 32.23, 32.23
CTUN, 0, 0.00, -0.01, 0.000000, 0.00, 0, -8, 0, 0
GPS, 3, 458517200, 10, 1.76, -33.7840829, 151.0682128, 0.22, 87.82, 0.04, 268.89
ATT, 0.00, -1.37, 0.00, 0.44, 0.00, 32.26, 32.26
CTUN, 0, 0.00, -0.07, 0.000000, 0.00, 0, -8, 0, 0
ATT, 0.00, -1.36, 0.00, 0.46, 0.00, 32.28, 32.28
CTUN, 0, 0.00, 0.01, 0.000000, 0.00, 0, -9, 0, 0
GPS, 3, 458517400, 10, 1.76, -33.7840827, 151.0682128, 0.17, 87.83, 0.02, 268.89
ATT, 0.00, -1.36, 0.00, 0.46, 0.00, 32.30, 32.30
CTUN, 0, 0.00, 0.06, 0.000000, 0.00, 0, -9, 0, 0
ATT, 0.00, -1.37, 0.00, 0.46, 0.00, 32.32, 32.32
CTUN, 0, 0.00, -0.04, 0.000000, 0.00, 0, -9, 0, 0
GPS, 3, 458517600, 10, 1.76, -33.7840826, 151.0682129, 0.13, 87.83, 0.01, 268.89
ATT, 0.00, -1.37, 0.00, 0.45, 0.00, 32.34, 32.34
CTUN, 0, 0.00, 0.00, 0.000000, 0.00, 0, -10, 0, 0
PM, 0, 0, 51, 6, 1000, 7336880, 0, 4
ATT, 0.00, -1.36, 0.00, 0.45, 0.00, 32.34, 32.34
CTUN, 0, 0.00, -0.05, 0.000000, 0.00, 0, -10, 0, 0
GPS, 3, 458517800, 10, 1.76, -33.7840825, 151.0682128, 0.10, 87.84, 0.02, 268.89
DU32, 7, 98393
CURR, 0, 0, 1102, 0, 4505, 0.000000
ATT, 0.00, -1.35, 0.00, 0.45, 0.00, 32.35, 32.35
CTUN, 0, 0.00, -0.06, 0.000000, 0.00, 0, -10, 0, 0
ATT, 0.00, -1.36, 0.00, 0.46, 0.00, 32.36, 32.36
CTUN, 0, 0.00, -0.01, 0.000000, 0.00, 0, -10, 0, 0
GPS, 3, 458518000, 10, 1.76, -33.7840823, 151.0682128, 0.06, 87.86, 0.02, 268.89
CTUN, 0, 0.00, 0.00, 0.000000, 0.00, 0, -11, 0, 0
ATT, 0.00, -1.36, 0.00, 0.46, 0.00, 32.37, 32.37
CTUN, 0, 0.00, -0.10, 0.000000, 0.00, 0, -11, 0, 0
ATT, 0.00, -1.36, 0.00, 0.45, 0.00, 32.37, 32.37
GPS, 3, 458518200, 10, 1.76, -33.7840822, 151.0682128, 0.03, 87.87, 0.02, 268.89
CTUN, 0, 0.00, 0.02, 0.000000, 0.00, 0, -11, 0, 0
ATT, 0.00, -1.35, 0.00, 0.44, 0.00, 32.39, 32.39
CTUN, 0, 0.00, 0.00, 0.000000, 0.00, 0, -11, 0, 0
ATT, 0.00, -1.35, 0.00, 0.44, 0.00, 32.40, 32.40
GPS, 3, 458518400, 10, 1.76, -33.7840821, 151.0682128, 0.00, 87.89, 0.03, 268.89
CTUN, 0, 0.00, -0.04, 0.000000, 0.00, 0, -11, 0, 0
ATT, 0.00, -1.35, 0.00, 0.44, 0.00, 32.43, 32.43
CTUN, 0, 0.00, -0.06, 0.000000, 0.00, 0, -11, 0, 0
ATT, 0.00, -1.36, 0.00, 0.46, 0.00, 32.43, 32.43
GPS, 3, 458518600, 11, 1.58, -33.7840820, 151.0682127, -0.02, 87.90, 0.00, 268.89
CTUN, 0, 0.00, -0.02, 0.000000, 0.00, 0, -11, 0, 0
ATT, 0.00, -1.36, 0.00, 0.47, 0.00, 32.45, 32.45
CTUN, 0, 0.00, -0.05, 0.000000, 0.00, 0, -12, 0, 0
GPS, 3, 458518800, 11, 1.58, -33.7840820, 151.0682127, -0.04, 87.92, 0.01, 268.89
ATT, 0.00, -1.36, 0.00, 0.46, 0.00, 32.46, 32.46
DU32, 7, 98393
CURR, 0, 0, 1102, 0, 4487, 0.000000
CTUN, 0, 0.00, 0.05, 0.000000, 0.00, 0, -12, 0, 0
ATT, 0.00, -1.36, 0.00, 0.47, 0.00, 32.48, 32.48
CTUN, 0, 0.00, -0.03, 0.000000, 0.00, 0, -12, 0, 0
GPS, 3, 458519000, 11, 1.58, -33.7840819, 151.0682126, -0.06, 87.94, 0.01, 268.89
ATT, 0.00, -1.36, 0.00, 0.47, 0.00, 32.49, 32.49
CTUN, 0, 0.00, -0.05, 0.000000, 0.00, 0, -12, 0, 0
ATT, 0.00, -1.36, 0.00, 0.47, 0.00, 32.51, 32.51
CTUN, 0, 0.00, -0.02, 0.000000, 0.00, 0, -12, 0, 0
GPS, 3, 458519200, 11, 1.58, -33.7840819, 151.0682126, -0.08, 87.96, 0.01, 268.89
ATT, 0.00, -1.37, 0.00, 0.46, 0.00, 32.52, 32.52
CTUN, 0, 0.00, 0.00, 0.000000, 0.00, 0, -12, 0, 0
ATT, 0.00, -1.37, 0.00, 0.47, 0.00, 32.55, 32.55
CTUN, 0, 0.00, -0.06, 0.000000, 0.00, 0, -12, 0, 0
GPS, 3, 458519400, 10, 1.76, -33.7840818, 151.0682126, -0.10, 87.97, 0.00, 268.89
ATT, 0.00, -1.36, 0.00, 0.47, 0.00, 32.56, 32.56
CTUN, 0, 0.00, -0.03, 0.000000, 0.00, 0, -12, 0, 0
ATT, 0.00, -1.36, 0.00, 0.48, 0.00, 32.57, 32.57
CTUN, 0, 0.00, 0.00, 0.000000, 0.00, 0, -12, 0, 0
GPS, 3, 458519600, 10, 1.76, -33.7840817, 151.0682126, -0.11, 87.98, 0.00, 268.89
ATT, 0.00, -1.36, 0.00, 0.47, 0.00, 32.58, 32.58
CTUN, 0, 0.00, 0.03, 0.000000, 0.00, 0, -12, 0, 0
ATT, 0.00, -1.36, 0.00, 0.47, 0.00, 32.57, 32.57
CTUN, 0, 0.00, 0.02, 0.000000, 0.00, 0, -12, 0, 0
GPS, 3, 458519800, 10, 1.76, -33.7840816, 151.0682126, -0.12, 88.00, 0.03, 268.89
ATT, 0.00, -1.36, 0.00, 0.48, 0.00, 32.59, 32.59
DU32, 7, 98393
CURR, 0, 0, 1102, 0, 4469, 0.000000
CTUN, 0, 0.00, 0.07, 0.000000, 0.00, 0, -12, 0, 0
ATT, 0.00, -1.36, 0.00, 0.46, 0.00, 32.60, 32.60
CTUN, 0, 0.00, -0.02, 0.000000, 0.00, 0, -12, 0, 0
GPS, 3, 458520000, 11, 1.58, -33.7840815, 151.0682126, -0.12, 88.02, 0.01, 268.89
ATT, 0.00, -1.37, 0.00, 0.46, 0.00, 32.61, 32.61
CTUN, 0, 0.00, 0.05, 0.000000, 0.00, 0, -12, 0, 0
ATT, 0.00, -1.36, 0.00, 0.47, 0.00, 32.62, 32.62
CTUN, 0, 0.00, -0.01, 0.000000, 0.00, 0, -11, 0, 0
GPS, 3, 458520200, 11, 1.58, -33.7840815, 151.0682126, -0.13, 88.05, 0.03, 268.89
ATT, 0.00, -1.36, 0.00, 0.48, 0.00, 32.63, 32.63
CTUN, 0, 0.00, 0.02, 0.000000, 0.00, 0, -11, 0, 0
ATT, 0.00, -1.36, 0.00, 0.49, 0.00, 32.65, 32.65
CTUN, 0, 0.00, -0.06, 0.000000, 0.00, 0, -11, 0, 0
GPS, 3, 458520400, 10, 1.76, -33.7840814, 151.0682126, -0.14, 88.08, 0.02, 268.89
ATT, 0.00, -1.35, 0.00, 0.48, 0.00, 32.67, 32.67
CTUN, 0, 0.00, -0.01, 0.000000, 0.00, 0, -11, 0, 0
ATT, 0.00, -1.35, 0.00, 0.48, 0.00, 32.67, 32.67
CTUN, 0, 0.00, -0.02, 0.000000, 0.00, 0, -11, 0, 0
GPS, 3, 458520600, 10, 1.76, -33.7840812, 151.0682125, -0.15, 88.11, 0.03, 268.89
ATT, 0.00, -1.36, 0.00, 0.48, 0.00, 32.70, 32.70
CTUN, 0, 0.00, -0.01, 0.000000, 0.00, 0, -11, 0, 0
ATT, 0.00, -1.37, 0.00, 0.48, 0.00, 32.72, 32.72
CTUN, 134, 0.00, 0.05, 0.000000, 0.00, 0, -11, 0, 0
EV, 15
GPS, 3, 458520800, 10, 1.76, -33.7840810, 151.0682125, -0.15, 88.15, 0.02, 268.89
ATT, 0.00, -1.38, 0.00, 0.49, 0.00, 32.72, 32.72
EV, 28
DU32, 7, 65657
CURR, 157, 0, 1102, 0, 4505, 0.000000
CTUN, 157, 0.00, -0.02, 0.000000, 0.00, 0, -11, 157, 0
ATT, 0.00, -1.35, 0.00, 0.48, 0.00, 32.72, 32.71
CTUN, 196, 0.00, -0.03, 0.000000, 0.00, 0, -10, 189, 0
GPS, 3, 458521000, 10, 1.76, -33.7840809, 151.0682125, -0.16, 88.19, 0.01, 268.89
ATT, 0.00, -1.30, 0.00, 0.46, 0.00, 32.66, 32.71
CTUN, 210, 0.00, -0.02, 0.000000, 0.00, 0, -10, 210, 0
ATT, 0.00, -1.29, 0.00, 0.43, 0.00, 32.63, 32.71
CTUN, 214, 0.00, -0.33, 0.000000, 0.00, 0, -10, 214, 0
GPS, 3, 458521200, 10, 1.76, -33.7840807, 151.0682124, -0.17, 88.23, 0.02, 268.89
ATT, 0.00, -1.26, 0.00, 0.44, 0.00, 32.63, 32.71
CTUN, 214, 0.00, -0.35, 0.000000, 0.00, 0, -11, 214, 0
ATT, 0.00, -1.16, 0.00, 0.41, 0.00, 32.70, 32.71
CTUN, 214, 0.00, -0.36, 0.000000, 0.00, 0, -10, 214, 0
GPS, 3, 458521400, 10, 1.76, -33.7840806, 151.0682124, -0.21, 88.27, 0.04, 268.89
ATT, 0.00, -1.21, 0.00, 0.39, 0.00, 32.72, 32.71
CTUN, 214, 0.00, -0.43, 0.000000, 0.00, 0, -11, 214, 0
ATT, 0.00, -1.15, 0.00, 0.47, 0.00, 32.68, 32.71
CTUN, 215, 0.00, -0.54, 0.000000, 0.00, 0, -12, 214, 0
GPS, 3, 458521600, 10, 1.76, -33.7840804, 151.0682123, -0.25, 88.31, 0.02, 268.89
CTUN, 214, 0.00, -0.32, 0.000000, 0.00, 0, -11, 214, 0
ATT, 0.00, -1.17, 0.00, 0.45, 0.00, 32.68, 32.71
CTUN, 214, 0.00, -0.43, 0.000000, 0.00, 0, -12, 214, 0
ATT, 0.00, -1.16, 0.00, 0.45, 0.00, 32.66, 32.71
GPS, 3, 458521800, 10, 1.76, -33.7840803, 151.0682123, -0.30, 88.34, 0.03, 268.89
CTUN, 214, 0.00, -0.50, 0.000000, 0.00, 0, -12, 214, 0
DU32, 7, 65657
CURR, 214, 2050, 1102, 0, 4505, 0.000000
ATT, 0.00, -1.17, 0.00, 0.42, 0.00, 32.67, 32.71
CTUN, 214, 0.00, -0.56, 0.000000, 0.00, 0, -12, 214, 0
GPS, 3, 458522000, 10, 1.76, -33.7840803, 151.0682124, -0.34, 88.36, 0.03, 268.89
ATT, 0.00, -1.11, 0.00, 0.46, 0.00, 32.65, 32.71
CTUN, 214, 0.00, -0.55, 0.000000, 0.00, 0, -13, 214, 0
ATT, 0.00, -1.11, 0.00, 0.44, 0.00, 32.67, 32.71
CTUN, 214, 0.00, -0.44, 0.000000, 0.00, 0, -13, 214, 0
GPS, 3, 458522200, 10, 1.76, -33.7840801, 151.0682124, -0.39, 88.39, 0.04, 268.89
ATT, 0.00, -1.11, 0.00, 0.47, 0.00, 32.65, 32.71
CTUN, 214, 0.00, -0.45, 0.000000, 0.00, 0, -13, 214, 0
ATT, 0.00, -1.12, 0.00, 0.44, 0.00, 32.65, 32.71
CTUN, 214, 0.00, -0.63, 0.000000, 0.00, 0, -14, 214, 0
GPS, 3, 458522400, 10, 1.76, -33.7840801, 151.0682125, -0.43, 88.41, 0.01, 268.89
ATT, 0.00, -1.12, 0.00, 0.42, 0.00, 32.62, 32.71
CTUN, 214, 0.00, -0.55, 0.000000, 0.00, 0, -13, 214, 0
ATT, 0.00, -1.14, 0.00, 0.41, 0.00, 32.65, 32.71
CTUN, 214, 0.00, -0.55, 0.000000, 0.00, 0, -14, 214, 0
GPS, 3, 458522600, 10, 1.76, -33.7840800, 151.0682125, -0.47, 88.44, 0.01, 268.89
CTUN, 214, 0.00, -0.65, 0.000000, 0.00, 0, -15, 214, 0
ATT, 0.00, -1.14, 0.00, 0.41, 0.00, 32.63, 32.71
CTUN, 214, 0.00, -0.55, 0.000000, 0.00, 0, -14, 214, 0
ATT, 0.00, -1.15, 0.00, 0.39, 0.00, 32.65, 32.71
GPS, 3, 458522800, 10, 1.76, -33.7840799, 151.0682126, -0.52, 88.46, 0.01, 268.89
CTUN, 214, 0.00, -0.45, 0.000000, 0.00, 0, -15, 214, 0
DU32, 7, 65657
CURR, 214, 3976, 1102, 0, 4469, 0.000000
ATT, 0.00, -1.12, 0.00, 0.43, 0.00, 32.62, 32.71
CTUN, 214, 0.00, -0.51, 0.000000, 0.00, 0, -16, 214, 0
GPS, 3, 458523000, 10, 1.76, -33.7840798, 151.0682126, -0.55, 88.48, 0.03, 268.89
ATT, 0.00, -1.15, 0.00, 0.38, 0.00, 32.63, 32.71
CTUN, 216, 0.00, -0.59, 0.000000, 0.00, 0, -15, 214, 0
ATT, 0.00, -1.12, 0.00, 0.44, 0.00, 32.62, 32.71
CTUN, 245, 0.00, -0.63, 0.000000, 0.00, 0, -16, 239, 0
GPS, 3, 458523200, 10, 1.76, -33.7840798, 151.0682126, -0.58, 88.51, 0.03, 268.89
ATT, 0.00, -1.10, 0.00, 0.44, 0.00, 32.62, 32.71
CTUN, 272, 0.00, -0.52, 0.000000, 0.00, 0, -16, 266, 0
ATT, 0.00, -1.08, 0.00, 0.42, 0.00, 32.57, 32.71
CTUN, 289, 0.00, -0.63, 0.000000, 0.00, 0, -16, 288, 0
GPS, 3, 458523400, 10, 1.76, -33.7840797, 151.0682126, -0.61, 88.54, 0.02, 268.89
ATT, 0.00, -1.08, 0.00, 0.44, 0.00, 32.57, 32.71
CTUN, 334, 0.00, -0.78, 0.000000, 0.00, 0, -16, 329, 0
EV, 16
ATT, 0.00, -1.06, 0.00, 0.44, 0.00, 32.54, 32.71
CTUN, 365, 0.00, -0.99, 0.000000, 0.00, 0, -15, 365, 0
GPS, 3, 458523600, 10, 1.76, -33.7840795, 151.0682127, -0.66, 88.57, 0.04, 268.89
CTUN, 400, 0.00, -0.79, 0.000000, 0.00, 0, -17, 397, 0
ATT, 0.00, -1.01, 0.00, 0.45, 0.00, 32.48, 32.71
CTUN, 459, 0.00, -1.23, 0.000000, 0.00, 0, -17, 433, 0
ATT, 0.00, -1.00, 0.00, 0.44, 0.00, 32.46, 32.71
GPS, 3, 458523800, 10, 1.76, -33.7840794, 151.0682127, -0.72, 88.60, 0.01, 268.89
CTUN, 513, 0.00, -1.42, 0.000000, 0.00, 0, -17, 513, 0
ATT, 0.00, -0.68, 0.00, 0.49, 0.00, 31.99, 32.71
DU32, 7, 82041
CURR, 531, 6812, 1102, 0, 4434, 0.000000
CTUN, 584, 0.00, -1.64, 0.000000, 0.00, 0, -13, 551, 0
GPS, 3, 458524000, 10, 1.76, -33.7840790, 151.0682129, -0.82, 88.62, 0.21, 268.89
ATT, 0.00, 1.74, 0.00, 1.31, 0.00, 30.34, 32.71
CTUN, 620, 0.00, -1.39, 0.000000, 0.00, 0, -3, 620, 0
ATT, 0.00, 1.52, 0.00, 1.94, 0.00, 28.68, 32.71
CTUN, 623, 0.00, -1.04, 0.000000, 0.00, 0, 18, 624, 0
GPS, 3, 458524200, 11, 1.58, -33.7840790, 151.0682128, -0.89, 88.65, 0.02, 268.89
ATT, 0.00, 2.46, 0.00, 2.60, 0.00, 26.28, 32.71
CTUN, 623, 0.00, -0.24, 0.000000, 0.00, 0, 40, 623, 0
ATT, 0.00, 1.99, 0.00, 2.68, 0.00, 24.49, 32.71
CTUN, 621, 0.00, 0.09, 0.000000, 0.00, 0, 59, 622, 0
GPS, 3, 458524400, 11, 1.58, -33.7840791, 151.0682124, -0.76, 88.83, 0.19, 268.89
ATT, 0.00, 2.40, 0.00, 2.47, 0.00, 22.86, 32.71
CTUN, 623, 0.00, 0.30, 0.000000, 0.00, 0, 74, 623, 0
ATT, 0.00, 2.91, 0.00, 2.24, 0.00, 21.79, 31.79
CTUN, 621, 0.00, 0.42, 0.000000, 0.00, 1, 88, 623, 0
GPS, 3, 458524600, 11, 1.58, -33.7840793, 151.0682118, -0.50, 89.04, 0.30, 237.53
CTUN, 592, 0.00, 0.46, 0.000000, 0.00, 0, 99, 592, 0
ATT, 0.00, 2.90, 0.00, 1.63, 0.00, 20.73, 30.73
CTUN, 584, 0.00, 0.60, 0.000000, 0.00, 0, 105, 584, 0
ATT, 0.00, 2.65, 0.00, 1.32, 0.00, 19.98, 29.98
GPS, 3, 458524800, 11, 1.58, -33.7840800, 151.0682111, -0.18, 89.35, 0.45, 215.16
CTUN, 583, 0.00, 0.73, 0.000000, 0.00, 0, 109, 583, 0
ATT, 0.00, 2.29, 0.00, 0.86, 0.00, 19.29, 29.29
DU32, 7, 82041
CURR, 582, 12235, 1102, 0, 4452, 0.000000
CTUN, 581, 0.00, 0.85, 0.000000, 0.00, 0, 110, 581, 0
GPS, 3, 458525000, 10, 1.76, -33.7840808, 151.0682107, 0.12, 89.62, 0.59, 207.73
ATT, -0.34, 1.72, 0.00, 0.68, 0.00, 18.60, 28.60
CTUN, 560, 0.00, 0.95, 0.000000, 0.00, 0, 113, 560, 0
ATT, -8.79, 1.20, -1.99, 0.92, 0.00, 17.92, 27.92
CTUN, 551, 0.00, 1.04, 0.000000, 0.00, 0, 112, 558, 0
GPS, 3, 458525200, 11, 1.58, -33.7840816, 151.0682102, 0.42, 89.85, 0.55, 206.70
ATT, -11.33, -3.67, -2.81, 0.41, 0.00, 17.04, 27.04
CTUN, 541, 0.00, 1.17, 0.000000, 0.00, 1, 109, 542, 0
ATT, -12.72, -7.86, -3.28, -2.07, 0.00, 16.51, 26.51
CTUN, 520, 0.00, 1.32, 0.000000, 0.00, 4, 106, 526, 0
GPS, 3, 458525400, 11, 1.58, -33.7840830, 151.0682098, 0.72, 90.07, 0.74, 199.33
ATT, -14.57, -9.57, -3.63, -2.80, 0.00, 15.74, 25.74
CTUN, 509, 0.00, 1.35, 0.000000, 0.00, 5, 99, 519, 0
ATT, -12.60, -10.61, -6.32, -3.21, 0.00, 15.17, 25.17
CTUN, 506, 0.00, 1.54, 0.000000, 0.00, 6, 92, 512, 0
GPS, 3, 458525600, 10, 1.76, -33.7840842, 151.0682088, 0.99, 90.24, 0.81, 201.86
CTUN, 506, 0.00, 1.69, 0.000000, 0.00, 7, 77, 513, 0
ATT, -9.71, -10.36, -9.02, -5.53, 0.00, 14.91, 24.91
CTUN, 506, 0.00, 1.73, 0.000000, 0.00, 8, 65, 514, 0
ATT, -7.63, -8.77, -12.07, -8.37, 0.00, 14.79, 24.79
GPS, 3, 458525800, 11, 1.58, -33.7840847, 151.0682078, 1.20, 90.47, 0.56, 211.42
CTUN, 506, 0.00, 1.81, 0.000000, 0.00, 9, 52, 515, 0
ATT, -8.90, -7.14, -12.53, -10.62, 0.00, 14.47, 24.47
DU32, 7, 82041
CURR, 506, 17574, 1102, 0, 4487, 0.000000
CTUN, 506, 0.00, 1.84, 0.000000, 0.00, 9, 42, 515, 0
GPS, 3, 458526000, 11, 1.58, -33.7840846, 151.0682065, 1.37, 90.62, 0.57, 241.80
ATT, -7.05, -6.16, -13.24, -11.64, 0.00, 13.90, 23.90
CTUN, 506, 0.00, 1.88, 0.000000, 0.00, 10, 32, 516, 0
ATT, -5.08, -4.83, -13.24, -12.13, 0.00, 13.30, 23.30
CTUN, 506, 0.00, 1.93, 0.000000, 0.00, 9, 24, 515, 0
GPS, 3, 458526200, 10, 1.76, -33.7840840, 151.0682058, 1.48, 90.70, 0.48, 278.82
ATT, -5.08, -2.84, -13.12, -11.91, 0.00, 12.53, 22.53
CTUN, 506, 0.00, 2.02, 0.000000, 0.00, 8, 14, 514, 0
ATT, -4.74, -2.08, -13.12, -11.14, 0.00, 12.10, 22.10
CTUN, 506, 0.00, 2.03, 0.000000, 0.00, 7, 6, 513, 0
GPS, 3, 458526400, 10, 1.76, -33.7840830, 151.0682052, 1.57, 90.76, 0.55, 305.20
ATT, -4.04, -1.48, -13.24, -10.50, 0.00, 11.82, 21.82
CTUN, 506, 0.00, 2.06, 0.000000, 0.00, 6, -1, 512, 0
ATT, -3.81, -1.15, -12.30, -10.10, 0.00, 11.93, 21.81
CTUN, 506, 0.00, 2.14, 0.000000, 0.00, 6, -8, 511, 0
GPS, 3, 458526600, 10, 1.76, -33.7840816, 151.0682052, 1.61, 90.73, 0.75, 348.85
CTUN, 506, 0.00, 2.04, 0.000000, 0.00, 5, -19, 511, 0
ATT, -3.70, -0.76, -11.95, -9.42, 0.00, 12.42, 21.81
CTUN, 506, 0.00, 2.05, 0.000000, 0.00, 4, -25, 510, 0
ATT, -2.89, -0.33, -11.83, -8.80, 0.00, 12.94, 21.81
GPS, 3, 458526800, 11, 1.58, -33.7840796, 151.0682052, 1.63, 90.78, 1.05, 1.18
CTUN, 506, 0.00, 2.14, 0.000000, 0.00, 4, -31, 510, 0
ATT, -2.31, -0.15, -10.66, -8.78, 0.00, 13.38, 21.81
DU32, 7, 82041
CURR, 519, 22199, 1102, 0, 4505, 0.000000
CTUN, 522, 0.00, 2.10, 0.000000, 0.00, 4, -36, 523, 0
GPS, 3, 458527000, 10, 1.76, -33.7840778, 151.0682059, 1.62, 90.67, 1.10, 7.40
ATT, -2.08, -0.07, -9.96, -8.17, 0.00, 13.85, 21.81
CTUN, 522, 0.00, 2.02, 0.000000, 0.00, 3, -41, 525, 0
ATT, -1.73, 0.41, -9.49, -7.34, 0.00, 14.10, 21.81
CTUN, 527, 0.00, 1.91, 0.000000, 0.00, 3, -45, 530, 0
GPS, 3, 458527200, 11, 1.58, -33.7840754, 151.0682069, 1.59, 90.68, 1.31, 17.32
ATT, -0.11, 0.50, -8.20, -6.53, 0.00, 14.27, 21.81
CTUN, 541, 0.00, 1.79, 0.000000, 0.00, 2, -50, 542, 0
ATT, 0.00, 0.96, -6.32, -5.80, 0.00, 14.31, 21.81
CTUN, 544, 0.00, 1.88, 0.000000, 0.00, 2, -51, 546, 0
GPS, 3, 458527400, 11, 1.58, -33.7840737, 151.0682081, 1.52, 90.55, 1.25, 22.99
ATT, 0.00, 1.05, -5.97, -4.15, 0.00, 14.21, 21.81
CTUN, 545, 0.00, 1.62, 0.000000, 0.00, 1, -48, 546, 0
ATT, 0.00, 1.19, -5.85, -3.29, 0.00, 14.03, 21.81
CTUN, 544, 0.00, 1.66, 0.000000, 0.00, 0, -48, 545, 0
GPS, 3, 458527600, 11, 1.58, -33.7840714, 151.0682094, 1.45, 90.51, 1.36, 25.83
CTUN, 545, 0.00, 1.46, 0.000000, 0.00, 0, -48, 545, 0
ATT, 0.00, 1.06, -4.33, -2.37, 0.00, 13.89, 21.81
PM, 0, 0, 50, 0, 1000, 10416, 0, 4
CTUN, 545, 0.00, 1.45, 0.000000, 0.00, 0, -45, 545, 0
ATT, 0.00, 1.02, -3.63, -1.45, 0.00, 13.83, 21.81
GPS, 3, 458527800, 11, 1.58, -33.7840694, 151.0682110, 1.36, 90.43, 1.27, 28.71
CTUN, 548, 0.00, 1.60, 0.000000, 0.00, 0, -45, 548, 0
ATT, 0.00, 1.06, -2.34, -0.68, 0.00, 13.88, 21.81
DU32, 7, 82041
CURR, 551, 27073, 1102, 0, 4469, 0.000000
CTUN, 552, 0.00, 1.46, 0.000000, 0.00, 0, -41, 552, 0
GPS, 3, 458528000, 11, 1.58, -33.7840675, 151.0682126, 1.30, 90.32, 1.21, 31.64
ATT, 0.00, 0.59, -2.22, 0.30, 0.00, 13.98, 21.81
CTUN, 552, 0.00, 1.37, 0.000000, 0.00, 0, -40, 552, 0
ATT, 0.00, 0.14, -1.64, 0.43, 0.00, 14.16, 21.81
CTUN, 551, 0.00, 1.47, 0.000000, 0.00, 0, -38, 552, 0
GPS, 3, 458528200, 11, 1.58, -33.7840661, 151.0682141, 1.23, 90.19, 1.02, 37.81
ATT, 0.00, 0.39, -1.40, 0.58, 0.00, 14.53, 21.81
CTUN, 551, 0.00, 1.47, 0.000000, 0.00, 0, -37, 551, 0
ATT, 0.00, 0.61, -1.17, 0.89, 0.00, 14.86, 21.81
CTUN, 551, 0.00, 1.46, 0.000000, 0.00, 0, -36, 552, 0
GPS, 3, 458528400, 10, 1.76, -33.7840649, 151.0682155, 1.19, 90.07, 0.87, 41.15
ATT, 0.00, 0.39, -1.17, 0.83, 0.00, 15.11, 21.81
CTUN, 552, 0.00, 1.48, 0.000000, 0.00, 0, -34, 552, 0
ATT, 0.00, 0.25, -1.40, 0.55, 0.00, 15.26, 21.81
CTUN, 552, 0.00, 1.30, 0.000000, 0.00, 0, -34, 552, 0
GPS, 3, 458528600, 10, 1.76, -33.7840636, 151.0682167, 1.15, 90.00, 0.76, 42.01
CTUN, 566, 0.00, 1.31, 0.000000, 0.00, 0, -30, 566, 0
ATT, 0.00, 0.29, 0.00, 0.25, 0.00, 15.32, 21.81
CTUN, 576, 0.00, 1.23, 0.000000, 0.00, 0, -29, 577, 0
ATT, 0.00, 0.24, 0.00, 0.47, 0.00, 15.36, 21.81
GPS, 3, 458528800, 10, 1.76, -33.7840625, 151.0682180, 1.11, 90.00, 0.77, 46.58
CTUN, 582, 0.00, 1.27, 0.000000, 0.00, 0, -25, 582, 0
ATT, 0.00, 0.30, 0.00, 0.32, 0.00, 15.36, 21.81
CTUN, 582, 0.00, 1.08, 0.000000, 0.00, 0, -20, 584, 0
GPS, 3, 458529000, 10, 1.76, -33.7840618, 151.0682189, 1.08, 89.97, 0.46, 50.28
ATT, 0.00, 0.54, 0.00, 0.17, 0.00, 15.30, 21.81
DU32, 7, 82041
CURR, 584, 32114, 1102, 0, 4523, 0.000000
CTUN, 585, 0.00, 1.18, 0.000000, 0.00, 0, -9, 584, 0
ATT, 0.00, 0.68, 0.00, 0.27, 0.00, 15.28, 21.81
CTUN, 584, 0.00, 1.16, 0.000000, 0.00, 0, -4, 585, 0
GPS, 3, 458529200, 10, 1.76, -33.7840609, 151.0682198, 1.07, 89.97, 0.52, 49.71
ATT, 0.00, 0.68, 0.00, 0.14, 0.00, 15.27, 21.81
CTUN, 584, 0.00, 1.01, 0.000000, 0.00, 0, 2, 584, 0
ATT, 0.00, 0.48, 0.00, -0.06, 0.00, 15.31, 21.81
CTUN, 566, 0.00, 1.13, 0.000000, 0.00, 0, 10, 566, 0
GPS, 3, 458529400, 10, 1.76, -33.7840604, 151.0682205, 1.08, 90.00, 0.34, 54.71
ATT, 0.00, 0.41, 0.00, -0.23, 0.00, 15.41, 21.81
CTUN, 559, 0.00, 1.12, 0.000000, 0.00, 0, 15, 558, 0
ATT, 0.00, 0.24, 0.00, -0.30, 0.00, 15.50, 21.81
CTUN, 559, 0.00, 1.17, 0.000000, 0.00, 0, 15, 559, 0
GPS, 3, 458529600, 10, 1.76, -33.7840600, 151.0682214, 1.12, 90.06, 0.38, 65.30
CTUN, 558, 0.00, 1.06, 0.000000, 0.00, 0, 19, 559, 0
ATT, 0.00, -0.20, 0.00, -0.58, 0.00, 15.63, 21.81
CTUN, 558, 0.00, 1.08, 0.000000, 0.00, 0, 20, 559, 0
ATT, 0.00, -0.39, -0.46, -0.72, 0.00, 15.65, 21.81
GPS, 3, 458529800, 10, 1.76, -33.7840600, 151.0682220, 1.15, 90.12, 0.29, 65.30
CTUN, 558, 0.00, 1.11, 0.000000, 0.00, 0, 23, 559, 0
ATT, 0.00, -0.58, -0.58, -0.87, 0.00, 15.56, 21.81
CTUN, 559, 0.00, 1.14, 0.000000, 0.00, 0, 23, 559, 0
GPS, 3, 458530000, 10, 1.76, -33.7840598, 151.0682229, 1.19, 90.16, 0.38, 75.84
ATT, 0.00, -0.72, -0.46, -0.77, 0.00, 15.42, 21.81
CTUN, 559, 0.00, 1.23, 0.000000, 0.00, 0, 23, 559, 0
DU32, 7, 82041
CURR, 559, 37785, 1102, 0, 4505, 0.000000
ATT, 0.00, -0.73, -0.23, -0.65, 0.00, 15.30, 21.81
CTUN, 559, 0.00, 1.27, 0.000000, 0.00, 0, 22, 559, 0
GPS, 3, 458530200, 10, 1.76, -33.7840600, 151.0682235, 1.24, 90.21, 0.28, 75.84
ATT, 0.00, -1.07, -0.46, -0.55, 0.00, 15.25, 21.81
CTUN, 558, 0.00, 1.17, 0.000000, 0.00, 0, 25, 559, 0
ATT, -1.15, -1.22, -0.58, -0.69, 0.00, 15.28, 21.81
CTUN, 559, 0.00, 1.28, 0.000000, 0.00, 0, 27, 559, 0
GPS, 3, 458530400, 10, 1.76, -33.7840601, 151.0682240, 1.29, 90.24, 0.25, 75.84
ATT, -2.89, -2.02, -1.40, -0.77, 0.00, 15.39, 21.81
CTUN, 559, 0.00, 1.20, 0.000000, 0.00, 0, 28, 559, 0
ATT, -2.89, -3.13, -1.64, -1.32, 0.00, 15.60, 21.81
CTUN, 559, 0.00, 1.33, 0.000000, 0.00, 0, 28, 558, 0
GPS, 3, 458530600, 10, 1.76, -33.7840602, 151.0682246, 1.34, 90.30, 0.30, 75.84
CTUN, 558, 0.00, 1.31, 0.000000, 0.00, 0, 29, 558, 0
ATT, -2.89, -3.45, -1.64, -1.65, 0.00, 15.81, 21.81
CTUN, 558, 0.00, 1.31, 0.000000, 0.00, 0, 31, 559, 0
ATT, -1.96, -3.46, -1.64, -1.70, 0.00, 15.92, 21.81
GPS, 3, 458530800, 10, 1.76, -33.7840604, 151.0682248, 1.39, 90.42, 0.17, 75.84
CTUN, 559, 0.00, 1.40, 0.000000, 0.00, 0, 30, 559, 0
ATT, -0.23, -2.88, -0.70, -1.97, 0.00, 16.03, 21.81
CTUN, 559, 0.00, 1.32, 0.000000, 0.00, 0, 32, 559, 0
GPS, 3, 458531000, 10, 1.76, -33.7840605, 151.0682250, 1.45, 90.48, 0.15, 75.84
ATT, 0.00, -1.60, 0.00, -1.46, 0.00, 16.08, 21.81
CTUN, 559, 0.00, 1.54, 0.000000, 0.00, 0, 34, 559, 0
DU32, 7, 82041
CURR, 559, 42813, 1102, 0, 4469, 0.000000
ATT, 0.00, -0.92, 0.00, -0.89, 0.00, 16.13, 21.81
CTUN, 558, 0.00, 1.51, 0.000000, 0.00, 0, 33, 559, 0
ATT, -0.69, -0.46, 0.00, -0.58, 0.00, 16.19, 21.81
GPS, 3, 458531200, 10, 1.76, -33.7840603, 151.0682252, 1.53, 90.55, 0.02, 75.84
CTUN, 559, 0.00, 1.56, 0.000000, 0.00, 0, 32, 559, 0
ATT, -6.36, -0.89, 0.00, -0.38, 0.00, 16.20, 21.81
CTUN, 559, 0.00, 1.69, 0.000000, 0.00, 0, 33, 559, 0
GPS, 3, 458531400, 10, 1.76, -33.7840601, 151.0682254, 1.58, 90.64, 0.06, 75.84
ATT, -6.59, -3.92, 0.00, -0.45, 0.00, 16.23, 21.81
CTUN, 559, 0.00, 1.61, 0.000000, 0.00, 1, 35, 560, 0
ATT, -5.43, -5.01, -0.46, -0.84, 0.00, 16.26, 21.81
CTUN, 556, 0.00, 1.56, 0.000000, 0.00, 1, 36, 557, 0
GPS, 3, 458531600, 10, 1.76, -33.7840603, 151.0682254, 1.66, 90.71, 0.11, 75.84
ATT, -5.20, -4.81, -0.58, -0.80, 0.00, 16.27, 21.81
CTUN, 558, 0.00, 1.71, 0.000000, 0.00, 1, 34, 559, 0
ATT, -5.20, -4.74, -0.46, -0.94, 0.00, 16.35, 21.81
CTUN, 550, 0.00, 1.71, 0.000000, 0.00, 1, 33, 551, 0
GPS, 3, 458531800, 10, 1.76, -33.7840602, 151.0682253, 1.72, 90.80, 0.10, 75.84
CTUN, 531, 0.00, 1.73, 0.000000, 0.00, 1, 32, 532, 0
ATT, -3.81, -4.52, -1.05, -1.10, 0.00, 16.46, 21.81
CTUN, 524, 0.00, 1.65, 0.000000, 0.00, 0, 28, 524, 0
ATT, 0.00, -2.92, -3.86, -1.67, 0.00, 16.53, 21.81
GPS, 3, 458532000, 10, 1.76, -33.7840599, 151.0682250, 1.79, 90.90, 0.18, 75.84
CTUN, 518, 0.00, 1.61, 0.000000, 0.00, 0, 22, 516, 0
DU32, 7, 82041
CURR, 516, 47756, 1102, 0, 4469, 0.000000
ATT, 0.00, -0.96, -3.98, -2.83, 0.00, 16.58, 21.81
CTUN, 516, 0.00, 1.81, 0.000000, 0.00, 0, 15, 516, 0
ATT, 0.00, -0.29, -4.57, -3.90, 0.00, 16.73, 21.81
GPS, 3, 458532200, 11, 1.58, -33.7840595, 151.0682245, 1.81, 90.97, 0.33, 9.55
CTUN, 516, 0.00, 1.75, 0.000000, 0.00, 1, 9, 517, 0
ATT, 0.00, 0.06, -4.10, -4.41, 0.00, 16.88, 21.81
CTUN, 516, 0.00, 1.79, 0.000000, 0.00, 1, 2, 517, 0
GPS, 3, 458532400, 10, 1.76, -33.7840590, 151.0682241, 1.82, 91.02, 0.33, 9.55
ATT, 0.00, 0.05, -3.51, -4.48, 0.00, 17.07, 21.81
CTUN, 518, 0.00, 1.77, 0.000000, 0.00, 1, -6, 517, 0
ATT, 0.00, 0.26, -3.28, -4.06, 0.00, 17.19, 21.81
CTUN, 521, 0.00, 1.70, 0.000000, 0.00, 0, -13, 521, 0
GPS, 3, 458532600, 11, 1.58, -33.7840587, 151.0682240, 1.79, 90.96, 0.18, 9.55
ATT, 0.00, 0.02, -2.81, -3.48, 0.00, 17.38, 21.81
CTUN, 548, 0.00, 1.86, 0.000000, 0.00, 0, -18, 540, 0
ATT, 0.00, -0.12, -2.92, -3.14, 0.00, 17.56, 21.81
CTUN, 551, 0.00, 1.78, 0.000000, 0.00, 0, -20, 551, 0
GPS, 3, 458532800, 11, 1.58, -33.7840583, 151.0682238, 1.75, 90.92, 0.18, 9.55
CTUN, 551, 0.00, 1.75, 0.000000, 0.00, 0, -22, 551, 0
ATT, 0.00, -0.46, -3.16, -2.85, 0.00, 17.75, 21.81
CTUN, 551, 0.00, 1.66, 0.000000, 0.00, 0, -23, 551, 0
ATT, 0.00, -0.59, -2.92, -2.76, 0.00, 17.89, 21.81
GPS, 3, 458533000, 10, 1.76, -33.7840580, 151.0682240, 1.71, 90.83, 0.10, 9.55
CTUN, 551, 0.00, 1.63, 0.000000, 0.00, 0, -23, 551, 0
DU32, 7, 82041
CURR, 550, 52542, 1102, 0, 4469, 0.000000
ATT, 0.00, -0.53, -3.04, -2.73, 0.00, 18.01, 21.81
CTUN, 551, 0.00, 1.72, 0.000000, 0.00, 0, -24, 551, 0
ATT, 0.00, -0.48, -2.81, -2.59, 0.00, 18.10, 21.81
GPS, 3, 458533200, 10, 1.74, -33.7840578, 151.0682240, 1.66, 90.77, 0.11, 9.55
CTUN, 551, 0.00, 1.68, 0.000000, 0.00, 0, -24, 551, 0
ATT, 0.00, -0.47, -2.81, -2.48, 0.00, 18.17, 21.81
CTUN, 551, 0.00, 1.58, 0.000000, 0.00, 0, -26, 551, 0
GPS, 3, 458533400, 11, 1.58, -33.7840574, 151.0682241, 1.61, 90.72, 0.04, 9.55
ATT, 0.00, -0.41, -2.81, -2.46, 0.00, 18.24, 21.81
CTUN, 550, 0.00, 1.58, 0.000000, 0.00, 0, -27, 550, 0
ATT, -1.15, -0.34, -2.22, -2.46, 0.00, 18.29, 21.81
CTUN, 551, 0.00, 1.61, 0.000000, 0.00, 0, -27, 550, 0
GPS, 3, 458533600, 10, 1.74, -33.7840570, 151.0682243, 1.55, 90.65, 0.16, 9.55
ATT, -3.70, -1.03, -1.64, -2.04, 0.00, 18.38, 21.81
CTUN, 551, 0.00, 1.57, 0.000000, 0.00, 0, -27, 551, 0
ATT, -1.15, -2.42, -0.93, -1.64, 0.00, 18.51, 21.81
CTUN, 551, 0.00, 1.55, 0.000000, 0.00, 0, -28, 551, 0
GPS, 3, 458533800, 10, 1.74, -33.7840568, 151.0682246, 1.50, 90.57, 0.07, 9.55
CTUN, 562, 0.00, 1.44, 0.000000, 0.00, 0, -30, 562, 0
ATT, -1.27, -1.99, -0.58, -1.27, 0.00, 18.64, 21.81
CTUN, 566, 0.00, 1.40, 0.000000, 0.00, 0, -29, 566, 0
ATT, -1.04, -1.75, -0.82, -0.70, 0.00, 18.70, 21.81
GPS, 3, 458534000, 10, 1.74, -33.7840566, 151.0682247, 1.44, 90.47, 0.07, 9.55
CTUN, 566, 0.00, 1.39, 0.000000, 0.00, 0, -28, 566, 0
ATT, -0.80, -1.55, -0.58, -0.81, 0.00, 18.77, 21.81
DU32, 7, 82041
CURR, 566, 57527, 1102, 0, 4487, 0.000000
CTUN, 566, 0.00, 1.38, 0.000000, 0.00, 0, -27, 566, 0
ATT, -0.80, -1.23, -0.58, -0.65, 0.00, 18.81, 21.81
GPS, 3, 458534200, 10, 1.74, -33.7840565, 151.0682248, 1.38, 90.41, 0.05, 9.55
CTUN, 566, 0.00, 1.28, 0.000000, 0.00, 0, -24, 566, 0
ATT, -0.69, -0.92, -0.58, -0.53, 0.00, 18.83, 21.81
CTUN, 566, 0.00, 1.27, 0.000000, 0.00, 0, -24, 566, 0
ATT, -0.80, -0.79, -0.82, -0.63, 0.00, 18.80, 21.81
GPS, 3, 458534400, 10, 1.76, -33.7840562, 151.0682249, 1.32, 90.38, 0.09, 9.55
CTUN, 566, 0.00, 1.24, 0.000000, 0.00, 0, -22, 566, 0
ATT, -0.57, -0.78, -0.82, -0.77, 0.00, 18.79, 21.81
CTUN, 565, 0.00, 1.21, 0.000000, 0.00, 0, -20, 566, 0
GPS, 3, 458534600, 10, 1.76, -33.7840560, 151.0682249, 1.27, 90.32, 0.10, 9.55
ATT, -0.69, -0.60, -0.82, -1.02, 0.00, 18.80, 21.81
CTUN, 566, 0.00, 1.20, 0.000000, 0.00, 0, -19, 566, 0
ATT, -1.15, -0.34, -0.82, -1.12, 0.00, 18.82, 21.81
CTUN, 565, 0.00, 1.20, 0.000000, 0.00, 0, -20, 565, 0
GPS, 3, 458534800, 9, 2.42, -33.7840559, 151.0682248, 1.23, 90.25, 0.12, 9.55
ATT, -1.38, -0.44, -0.58, -1.36, 0.00, 18.91, 21.81
CTUN, 565, 0.00, 1.15, 0.000000, 0.00, 0, -16, 565, 0
ATT, -1.15, -0.53, -0.82, -1.36, 0.00, 18.98, 21.81
CTUN, 566, 0.00, 1.18, 0.000000, 0.00, 0, -15, 566, 0
GPS, 3, 458535000, 9, 2.42, -33.7840560, 151.0682247, 1.19, 90.21, 0.11, 9.55
CTUN, 566, 0.00, 1.16, 0.000000, 0.00, 0, -15, 566, 0
ATT, -1.15, -0.46, -0.82, -1.45, 0.00, 19.08, 21.81
DU32, 7, 82041
CURR, 566, 62619, 1102, 0, 4469, 0.000000
CTUN, 566, 0.00, 1.06, 0.000000, 0.00, 0, -13, 566, 0
ATT, -1.15, -0.75, -0.82, -1.48, 0.00, 19.14, 21.81
GPS, 3, 458535200, 10, 1.76, -33.7840560, 151.0682247, 1.16, 90.19, 0.05, 9.55
CTUN, 566, 0.00, 1.01, 0.000000, 0.00, 0, -12, 566, 0
ATT, -1.38, -0.90, -0.58, -1.53, 0.00, 19.15, 21.81
CTUN, 566, 0.00, 1.09, 0.000000, 0.00, 0, -11, 566, 0
GPS, 3, 458535400, 10, 1.76, -33.7840560, 151.0682248, 1.12, 90.17, 0.06, 9.55
ATT, -1.15, -1.13, -0.93, -1.54, 0.00, 19.14, 21.81
CTUN, 565, 0.00, 1.19, 0.000000, 0.00, 0, -12, 565, 0
ATT, -1.15, -1.16, -0.70, -1.68, 0.00, 19.16, 21.81
CTUN, 566, 0.00, 1.06, 0.000000, 0.00, 0, -10, 565, 0
GPS, 3, 458535600, 10, 1.76, -33.7840562, 151.0682248, 1.10, 90.12, 0.10, 9.55
ATT, -1.15, -1.05, -0.70, -1.61, 0.00, 19.20, 21.81
CTUN, 566, 0.00, 1.06, 0.000000, 0.00, 0, -10, 566, 0
ATT, -1.15, -1.01, -0.58, -1.51, 0.00, 19.26, 21.81
CTUN, 566, 0.00, 1.06, 0.000000, 0.00, 0, -10, 566, 0
GPS, 3, 458535800, 10, 1.76, -33.7840564, 151.0682247, 1.07, 90.06, 0.17, 9.55
ATT, -1.15, -1.05, -0.58, -1.55, 0.00, 19.28, 21.81
CTUN, 566, 0.00, 1.01, 0.000000, 0.00, 0, -9, 565, 0
ATT, -1.27, -1.12, -0.82, -1.43, 0.00, 19.27, 21.81
CTUN, 566, 0.00, 1.06, 0.000000, 0.00, 0, -11, 566, 0
GPS, 3, 458536000, 10, 1.76, -33.7840566, 151.0682246, 1.05, 90.00, 0.15, 9.55
CTUN, 566, 0.00, 1.05, 0.000000, 0.00, 0, -11, 566, 0
ATT, -1.27, -1.21, -0.82, -1.46, 0.00, 19.28, 21.81
DU32, 7, 82041
CURR, 566, 67713, 1102, 0, 4487, 0.000000
CTUN, 566, 0.00, 1.01, 0.000000, 0.00, 0, -12, 566, 0
ATT, -1.38, -1.28, -0.82, -1.45, 0.00, 19.33, 21.81
GPS, 3, 458536200, 10, 1.76, -33.7840566, 151.0682247, 1.02, 89.96, 0.07, 9.55
CTUN, 566, 0.00, 1.08, 0.000000, 0.00, 0, -14, 566, 0
ATT, -1.61, -1.34, -0.70, -1.34, 0.00, 19.48, 21.81
CTUN, 566, 0.00, 0.89, 0.000000, 0.00, 0, -12, 565, 0
ATT, -1.61, -1.33, -0.70, -1.17, 0.00, 19.68, 21.81
GPS, 3, 458536400, 10, 1.76, -33.7840567, 151.0682246, 1.00, 89.91, 0.14, 9.55
CTUN, 566, 0.00, 0.93, 0.000000, 0.00, 0, -12, 566, 0
ATT, -1.50, -1.24, -0.46, -1.01, 0.00, 19.89, 21.81
CTUN, 565, 0.00, 0.89, 0.000000, 0.00, 0, -10, 565, 0
ATT, -1.73, -1.11, -0.70, -0.62, 0.00, 20.13, 21.81
GPS, 3, 458536600, 10, 1.76, -33.7840568, 151.0682244, 0.97, 89.87, 0.16, 9.55
CTUN, 566, 0.00, 0.98, 0.000000, 0.00, 0, -11, 566, 0
ATT, -1.61, -1.10, -0.46, -0.66, 0.00, 20.30, 21.81
CTUN, 566, 0.00, 0.87, 0.000000, 0.00, 0, -10, 566, 0
GPS, 3, 458536800, 10, 1.76, -33.7840570, 151.0682242, 0.94, 89.86, 0.17, 9.55
ATT, -1.50, -1.11, -0.46, -0.72, 0.00, 20.39, 21.81
CTUN, 565, 0.00, 0.91, 0.000000, 0.00, 0, -8, 566, 0
ATT, -1.61, -1.04, -0.58, -0.65, 0.00, 20.39, 21.81
CTUN, 566, 0.00, 1.01, 0.000000, 0.00, 0, -8, 566, 0
GPS, 3, 458537000, 10, 1.76, -33.7840572, 151.0682240, 0.92, 89.86, 0.18, 9.55
ATT, -1.96, -1.30, -0.23, -0.70, 0.00, 20.36, 21.81
CTUN, 575, 0.00, 0.89, 0.000000, 0.00, 0, -6, 571, 0
DU32, 7, 82041
CURR, 579, 73381, 1102, 0, 4469, 0.000000
ATT, -1.85, -1.58, -0.11, -0.62, 0.00, 20.31, 21.81
CTUN, 582, 0.00, 0.86, 0.000000, 0.00, 0, -4, 579, 0
GPS, 3, 458537200, 9, 2.42, -33.7840576, 151.0682237, 0.91, 89.81, 0.27, 307.32
CTUN, 581, 0.00, 0.85, 0.000000, 0.00, 0, -2, 581, 0
ATT, -2.19, -1.80, -0.11, -0.53, 0.00, 20.23, 21.81
CTUN, 582, 0.00, 0.80, 0.000000, 0.00, 0, 1, 582, 0
ATT, -2.08, -2.01, 0.00, -0.51, 0.00, 20.17, 21.81
GPS, 3, 458537400, 9, 2.42, -33.7840579, 151.0682233, 0.90, 89.83, 0.26, 307.32
CTUN, 584, 0.00, 0.82, 0.000000, 0.00, 0, 4, 585, 0
ATT, -2.31, -2.19, 0.00, -0.56, 0.00, 20.09, 21.81
CTUN, 586, 0.00, 0.89, 0.000000, 0.00, 0, 5, 586, 0
ATT, -2.08, -2.35, 0.00, -0.72, 0.00, 20.05, 21.81
GPS, 3, 458537600, 9, 2.42, -33.7840581, 151.0682229, 0.90, 89.87, 0.34, 261.62
CTUN, 585, 0.00, 1.04, 0.000000, 0.00, 0, 6, 586, 0
PM, 0, 0, 50, 2, 1000, 13076, 0, 4
ATT, -2.19, -2.27, 0.00, -0.77, 0.00, 20.04, 21.81
CTUN, 582, 0.00, 0.90, 0.000000, 0.00, 0, 8, 586, 0
GPS, 3, 458537800, 9, 2.42, -33.7840583, 151.0682225, 0.93, 89.89, 0.33, 244.50
ATT, -2.19, -2.23, 0.00, -0.86, 0.00, 20.07, 21.81
CTUN, 586, 0.00, 0.89, 0.000000, 0.00, 0, 11, 586, 0
ATT, -2.42, -2.13, 0.00, -0.92, 0.00, 20.13, 21.81
CTUN, 585, 0.00, 0.90, 0.000000, 0.00, 0, 14, 582, 0
GPS, 3, 458538000, 10, 1.76, -33.7840584, 151.0682218, 0.95, 89.91, 0.42, 247.43
ATT, -2.31, -2.23, 0.00, -0.98, 0.00, 20.22, 21.81
CTUN, 582, 0.00, 0.98, 0.000000, 0.00, 0, 16, 582, 0
DU32, 7, 82041
CURR, 585, 78638, 1102, 0, 4469, 0.000000
ATT, -2.77, -2.26, 0.00, -0.83, 0.00, 20.29, 21.81
CTUN, 586, 0.00, 0.87, 0.000000, 0.00, 0, 19, 586, 0
GPS, 3, 458538200, 10, 1.76, -33.7840585, 151.0682211, 0.98, 89.98, 0.40, 245.92
CTUN, 582, 0.00, 0.84, 0.000000, 0.00, 0, 22, 582, 0
ATT, -2.77, -2.55, -0.11, -0.56, 0.00, 20.34, 21.81
CTUN, 586, 0.00, 0.85, 0.000000, 0.00, 0, 22, 586, 0
ATT, -2.54, -2.52, -0.58, -0.32, 0.00, 20.31, 21.81
GPS, 3, 458538400, 10, 1.76, -33.7840586, 151.0682202, 1.01, 90.04, 0.50, 245.08
CTUN, 586, 0.00, 0.95, 0.000000, 0.00, 0, 24, 586, 0
ATT, -2.31, -2.48, -0.70, -0.36, 0.00, 20.27, 21.81
CTUN, 586, 0.00, 1.04, 0.000000, 0.00, 0, 26, 586, 0
ATT, -2.31, -2.41, -0.82, -0.43, 0.00, 20.24, 21.81
GPS, 3, 458538600, 10, 1.76, -33.7840586, 151.0682195, 1.05, 90.14, 0.40, 248.55
CTUN, 581, 0.00, 0.92, 0.000000, 0.00, 0, 28, 581, 0
ATT, -2.31, -2.14, -1.17, -0.74, 0.00, 20.25, 21.81
CTUN, 586, 0.00, 0.87, 0.000000, 0.00, 0, 30, 585, 0
GPS, 3, 458538800, 11, 1.58, -33.7840588, 151.0682186, 1.10, 90.20, 0.51, 245.93
ATT, -2.31, -2.35, -1.17, -0.97, 0.00, 20.20, 21.81
CTUN, 582, 0.00, 1.02, 0.000000, 0.00, 0, 30, 582, 0
ATT, -2.31, -2.54, -1.40, -1.15, 0.00, 20.11, 21.81
CTUN, 584, 0.00, 1.23, 0.000000, 0.00, 0, 31, 585, 0
GPS, 3, 458539000, 10, 1.76, -33.7840585, 151.0682178, 1.15, 90.26, 0.44, 264.44
ATT, -2.31, -2.57, -2.81, -1.45, 0.00, 19.87, 21.81
CTUN, 585, 0.00, 1.22, 0.000000, 0.00, 0, 33, 585, 0
ATT, -1.96, -2.36, -5.27, -2.27, 0.00, 19.61, 21.81
CTUN, 585, 0.00, 1.12, 0.000000, 0.00, 0, 35, 585, 0
GPS, 3, 458539200, 10, 1.76, -33.7840585, 151.0682169, 1.21, 90.29, 0.48, 264.10
DU32, 7, 82041
CURR, 583, 84480, 1102, 0, 4487, 0.000000
CTUN, 581, 0.00, 1.24, 0.000000, 0.00, 1, 36, 587, 0
ATT, -1.73, -1.60, -5.74, -3.96, 0.00, 19.25, 21.81
CTUN, 585, 0.00, 1.26, 0.000000, 0.00, 1, 38, 586, 0
ATT, -1.73, -1.68, -5.85, -4.80, 0.00, 18.97, 21.81
GPS, 3, 458539400, 10, 1.76, -33.7840584, 151.0682155, 1.28, 90.36, 0.61, 265.67
CTUN, 582, 0.00, 1.23, 0.000000, 0.00, 1, 39, 586, 0
ATT, -1.73, -1.84, -6.21, -5.07, 0.00, 18.63, 21.81
CTUN, 584, 0.00, 1.19, 0.000000, 0.00, 2, 40, 586, 0
GPS, 3, 458539600, 10, 1.76, -33.7840585, 151.0682148, 1.36, 90.39, 0.40, 263.71
ATT, -1.27, -2.29, -6.91, -5.40, 0.00, 18.20, 21.81
CTUN, 585, 0.00, 1.36, 0.000000, 0.00, 2, 42, 588, 0
ATT, -1.27, -2.43, -7.61, -5.81, 0.00, 17.76, 21.81
CTUN, 584, 0.00, 1.30, 0.000000, 0.00, 2, 45, 586, 0
GPS, 3, 458539800, 10, 1.76, -33.7840582, 151.0682139, 1.43, 90.52, 0.41, 273.09
ATT, -1.27, -2.27, -7.61, -6.04, 0.00, 17.07, 21.81
CTUN, 584, 0.00, 1.42, 0.000000, 0.00, 2, 47, 586, 0
ATT, -1.38, -2.22, -7.61, -6.14, 0.00, 16.60, 21.81
CTUN, 582, 0.00, 1.58, 0.000000, 0.00, 2, 47, 584, 0
GPS, 3, 458540000, 10, 1.76, -33.7840580, 151.0682131, 1.52, 90.62, 0.38, 279.32
ATT, 0.00, -2.43, -6.32, -6.15, 0.00, 16.28, 21.81
CTUN, 582, 0.00, 1.42, 0.000000, 0.00, 3, 47, 585, 0
ATT, 0.00, -2.16, -5.74, -5.81, 0.00, 16.23, 21.81
CTUN, 584, 0.00, 1.47, 0.000000, 0.00, 2, 50, 586, 0
GPS, 3, 458540200, 10, 1.76, -33.7840574, 151.0682127, 1.61, 90.67, 0.32, 279.32
DU32, 7, 82041
CURR, 586, 89753, 1102, 0, 4487, 0.000000
CTUN, 582, 0.00, 1.52, 0.000000, 0.00, 2, 52, 584, 0
ATT, 0.00, -1.48, -1.99, -5.21, 0.00, 16.34, 21.81
CTUN, 582, 0.00, 1.63, 0.000000, 0.00, 1, 52, 583, 0
ATT, 0.00, -1.05, 0.00, -3.82, 0.00, 16.68, 21.81
GPS, 3, 458540400, 10, 1.76, -33.7840567, 151.0682123, 1.70, 90.73, 0.36, 279.32
CTUN, 585, 0.00, 1.67, 0.000000, 0.00, 0, 50, 585, 0
ATT, 0.00, 0.24, 0.00, -1.48, 0.00, 17.14, 21.81
CTUN, 583, 0.00, 1.82, 0.000000, 0.00, 0, 49, 583, 0
ATT, 0.00, 0.52, -0.23, -0.21, 0.00, 17.61, 21.81
GPS, 3, 458540600, 11, 1.58, -33.7840557, 151.0682120, 1.81, 90.87, 0.36, 309.41
CTUN, 583, 0.00, 1.87, 0.000000, 0.00, 0, 49, 583, 0
ATT, 0.00, 0.51, -0.58, 0.45, 0.00, 17.90, 21.81
CTUN, 584, 0.00, 1.86, 0.000000, 0.00, 0, 50, 585, 0
GPS, 3, 458540800, 11, 1.58, -33.7840547, 151.0682118, 1.91, 90.99, 0.37, 328.73
ATT, 0.00, -0.18, -0.58, 0.52, 0.00, 17.92, 21.81
CTUN, 585, 0.00, 2.02, 0.000000, 0.00, 0, 48, 585, 0
ATT, 1.49, -0.35, -1.64, 0.22, 0.00, 17.78, 21.81
CTUN, 567, 0.00, 2.00, 0.000000, 0.00, 0, 47, 569, 0
GPS, 3, 458541000, 10, 1.76, -33.7840541, 151.0682116, 2.01, 91.05, 0.26, 328.73
ATT, 4.71, 0.96, -3.86, -0.95, 0.00, 17.50, 21.81
CTUN, 565, 0.00, 2.07, 0.000000, 0.00, 0, 46, 565, 0
ATT, 0.46, 2.17, -3.04, -1.69, 0.00, 17.32, 21.81
CTUN, 560, 0.00, 1.99, 0.000000, 0.00, 0, 46, 560, 0
GPS, 3, 458541200, 10, 1.76, -33.7840536, 151.0682109, 2.10, 91.18, 0.34, 328.73
DU32, 7, 82041
CURR, 555, 94954, 1102, 0, 4487, 0.000000
ATT, 0.11, 0.47, -3.98, -2.25, 0.00, 17.39, 21.81
CTUN, 551, 0.00, 2.09, 0.000000, 0.00, 0, 44, 555, 0
ATT, 0.11, -0.86, -5.85, -3.33, 0.00, 17.60, 21.81
CTUN, 536, 0.00, 2.07, 0.000000, 0.00, 0, 38, 536, 0
GPS, 3, 458541400, 9, 2.43, -33.7840531, 151.0682105, 2.18, 91.25, 0.27, 328.73
CTUN, 536, 0.00, 2.16, 0.000000, 0.00, 1, 31, 537, 0
ATT, 0.00, -1.02, -8.55, -5.01, 0.00, 17.94, 21.81
CTUN, 536, 0.00, 2.21, 0.000000, 0.00, 2, 23, 537, 0
ATT, 1.95, -0.82, -9.60, -6.79, 0.00, 18.27, 21.81
GPS, 3, 458541600, 10, 1.76, -33.7840527, 151.0682100, 2.22, 91.34, 0.24, 328.73
CTUN, 535, 0.00, 2.23, 0.000000, 0.00, 3, 14, 538, 0
ATT, 3.10, 0.48, -9.84, -8.31, 0.00, 18.48, 21.81
CTUN, 536, 0.00, 2.33, 0.000000, 0.00, 4, 6, 540, 0
ATT, 1.38, 1.64, -9.25, -8.60, 0.00, 18.52, 21.81
GPS, 3, 458541800, 10, 1.76, -33.7840519, 151.0682099, 2.25, 91.47, 0.29, 328.73
CTUN, 536, 0.00, 2.15, 0.000000, 0.00, 4, 1, 540, 0
ATT, 0.00, 1.69, -5.27, -8.45, 0.00, 18.50, 21.81
CTUN, 536, 0.00, 2.29, 0.000000, 0.00, 3, -5, 539, 0
GPS, 3, 458542000, 9, 1.87, -33.7840513, 151.0682099, 2.24, 91.57, 0.24, 351.33
ATT, 0.00, 0.83, -3.98, -6.77, 0.00, 18.41, 21.81
CTUN, 536, 0.00, 2.28, 0.000000, 0.00, 2, -13, 538, 0
ATT, 0.00, 1.15, -2.34, -4.48, 0.00, 18.21, 21.81
CTUN, 536, 0.00, 2.25, 0.000000, 0.00, 0, -18, 536, 0
GPS, 3, 458542200, 10, 1.72, -33.7840506, 151.0682099, 2.21, 91.72, 0.36, 20.25
ATT, 0.00, 0.84, -3.04, -2.30, 0.00, 17.97, 21.81
DU32, 7, 82041
CURR, 539, 99797, 1102, 0, 4452, 0.000000
CTUN, 541, 0.00, 2.32, 0.000000, 0.00, 0, -23, 539, 0
ATT, 0.11, 0.46, -4.33, -2.13, 0.00, 17.88, 21.81
CTUN, 548, 0.00, 2.23, 0.000000, 0.00, 0, -27, 548, 0
GPS, 3, 458542400, 11, 1.58, -33.7840496, 151.0682106, 2.17, 91.69, 0.61, 31.13
ATT, 0.00, 0.09, -3.04, -2.82, 0.00, 18.02, 21.81
CTUN, 565, 0.00, 2.20, 0.000000, 0.00, 0, -31, 565, 0
ATT, 0.00, 0.36, -2.34, -2.67, 0.00, 18.23, 21.81
CTUN, 567, 0.00, 2.13, 0.000000, 0.00, 0, -32, 566, 0
GPS, 3, 458542600, 11, 1.58, -33.7840490, 151.0682112, 2.11, 91.73, 0.45, 38.07
CTUN, 581, 0.00, 2.04, 0.000000, 0.00, 0, -30, 581, 0
ATT, 0.00, 0.36, -0.58, -2.42, 0.00, 18.43, 21.81
CTUN, 592, 0.00, 2.19, 0.000000, 0.00, 0, -30, 592, 0
ATT, 0.00, 0.46, 0.00, -1.19, 0.00, 18.67, 21.81
GPS, 3, 458542800, 10, 1.72, -33.7840480, 151.0682118, 2.05, 91.79, 0.54, 44.11
CTUN, 596, 0.00, 2.15, 0.000000, 0.00, 0, -27, 596, 0
ATT, 0.00, 1.15, 0.00, 0.00, 0.00, 18.93, 21.81
CTUN, 595, 0.00, 1.98, 0.000000, 0.00, 0, -19, 595, 0
ATT, 0.00, 0.96, 0.00, 0.19, 0.00, 19.01, 21.81
GPS, 3, 458543000, 10, 1.72, -33.7840476, 151.0682124, 2.02, 91.75, 0.39, 48.03
CTUN, 596, 0.00, 1.87, 0.000000, 0.00, 0, -12, 596, 0
ATT, 0.00, 0.55, 0.00, 0.78, 0.00, 18.92, 21.81
CTUN, 596, 0.00, 1.88, 0.000000, 0.00, 0, -9, 596, 0
GPS, 3, 458543200, 10, 1.72, -33.7840471, 151.0682136, 1.98, 91.75, 0.46, 60.11
ATT, 0.00, 0.33, 0.00, 0.73, 0.00, 18.78, 21.81
DU32, 7, 82041
CURR, 597, 104989, 1102, 0, 4469, 0.000000
CTUN, 596, 0.00, 2.01, 0.000000, 0.00, 0, -6, 597, 0
ATT, 0.00, 0.19, 0.00, 0.74, 0.00, 18.73, 21.81
CTUN, 596, 0.00, 1.96, 0.000000, 0.00, 0, -3, 596, 0
GPS, 3, 458543400, 11, 1.58, -33.7840470, 151.0682143, 1.97, 91.72, 0.24, 60.11
ATT, 0.00, 0.36, 0.00, 0.56, 0.00, 18.79, 21.81
CTUN, 596, 0.00, 1.97, 0.000000, 0.00, 0, 0, 596, 0
ATT, 0.00, 0.49, 0.00, 0.42, 0.00, 18.97, 21.81
CTUN, 596, 0.00, 1.87, 0.000000, 0.00, 0, 5, 596, 0
GPS, 3, 458543600, 10, 1.72, -33.7840469, 151.0682149, 1.97, 91.74, 0.25, 60.11
CTUN, 596, 0.00, 1.92, 0.000000, 0.00, 0, 11, 596, 0
ATT, 0.00, 0.52, 0.00, 0.13, 0.00, 19.15, 21.81
CTUN, 596, 0.00, 1.87, 0.000000, 0.00, 0, 16, 596, 0
ATT, 0.00, 0.63, 0.00, -0.13, 0.00, 19.11, 21.81
GPS, 3, 458543800, 11, 1.58, -33.7840472, 151.0682153, 1.99, 91.77, 0.24, 60.11
CTUN, 596, 0.00, 1.92, 0.000000, 0.00, 0, 21, 596, 0
ATT, 0.00, 0.79, 0.00, -0.06, 0.00, 18.90, 21.81
CTUN, 596, 0.00, 1.99, 0.000000, 0.00, 0, 26, 596, 0
ATT, 0.00, 0.92, 0.00, 0.11, 0.00, 18.74, 21.81
GPS, 3, 458544000, 11, 1.58, -33.7840478, 151.0682158, 2.03, 91.82, 0.30, 60.11
CTUN, 596, 0.00, 2.02, 0.000000, 0.00, 0, 30, 596, 0
ATT, 0.00, 0.78, 0.00, 0.19, 0.00, 18.86, 21.81
CTUN, 596, 0.00, 1.96, 0.000000, 0.00, 0, 34, 596, 0
GPS, 3, 458544200, 11, 1.58, -33.7840486, 151.0682158, 2.09, 91.87, 0.45, 114.59
ATT, 0.00, 0.85, 0.00, 0.06, 0.00, 19.16, 21.81
CTUN, 596, 0.00, 2.00, 0.000000, 0.00, 0, 39, 596, 0
DU32, 7, 82041
CURR, 596, 110355, 1102, 0, 4469, 0.000000
ATT, 0.00, 0.91, 0.00, -0.25, 0.00, 19.35, 21.81
CTUN, 596, 0.00, 2.04, 0.000000, 0.00, 0, 43, 596, 0
GPS, 3, 458544400, 11, 1.58, -33.7840494, 151.0682158, 2.16, 91.98, 0.44, 143.14
ATT, 0.00, 0.76, 0.00, -0.69, 0.00, 19.21, 21.81
CTUN, 596, 0.00, 2.02, 0.000000, 0.00, 0, 48, 596, 0
ATT, 0.00, 0.38, 0.00, -0.99, 0.00, 18.81, 21.81
CTUN, 596, 0.00, 2.15, 0.000000, 0.00, 0, 51, 596, 0
GPS, 3, 458544600, 11, 1.58, -33.7840500, 151.0682162, 2.24, 92.11, 0.49, 154.40
CTUN, 596, 0.00, 2.19, 0.000000, 0.00, 0, 52, 596, 0
ATT, 0.00, -0.53, 0.00, -1.02, 0.00, 18.09, 21.81
CTUN, 596, 0.00, 2.17, 0.000000, 0.00, 0, 54, 596, 0
ATT, 0.00, -1.36, 0.00, -1.02, 0.00, 17.35, 21.81
GPS, 3, 458544800, 11, 1.58, -33.7840510, 151.0682164, 2.34, 92.20, 0.66, 166.92
CTUN, 584, 0.00, 2.21, 0.000000, 0.00, 0, 60, 584, 0
ATT, 0.00, -1.59, 0.00, -1.22, 0.00, 16.71, 21.81
CTUN, 582, 0.00, 2.28, 0.000000, 0.00, 0, 59, 581, 0
ATT, 0.00, -1.50, -4.10, -1.41, 0.00, 16.38, 21.81
GPS, 3, 458545000, 11, 1.58, -33.7840517, 151.0682164, 2.44, 92.36, 0.55, 167.94
CTUN, 576, 0.00, 2.28, 0.000000, 0.00, 0, 59, 579, 0
ATT, 0.00, -1.03, -5.85, -3.29, 0.00, 16.35, 21.81
CTUN, 577, 0.00, 2.34, 0.000000, 0.00, 1, 60, 578, 0
ATT, 0.00, -1.91, -4.92, -5.99, 0.00, 16.59, 21.81
GPS, 3, 458545200, 11, 1.58, -33.7840527, 151.0682165, 2.54, 92.43, 0.58, 169.64
CTUN, 577, 0.00, 2.49, 0.000000, 0.00, 3, 62, 580, 0
DU32, 7, 82041
CURR, 577, 116251, 1102, 0, 4452, 0.000000
ATT, 0.00, -1.85, -3.75, -6.78, 0.00, 16.99, 21.81
CTUN, 577, 0.00, 2.44, 0.000000, 0.00, 2, 63, 579, 0
GPS, 3, 458545400, 11, 1.58, -33.7840531, 151.0682169, 2.65, 92.56, 0.41, 168.14
ATT, 0.00, -0.56, -3.51, -5.31, 0.00, 17.37, 21.81
CTUN, 577, 0.00, 2.49, 0.000000, 0.00, 1, 62, 578, 0
ATT, -1.15, -0.64, -0.58, -4.67, 0.00, 17.80, 21.81
CTUN, 576, 0.00, 2.58, 0.000000, 0.00, 1, 62, 578, 0
GPS, 3, 458545600, 11, 1.58, -33.7840536, 151.0682174, 2.75, 92.69, 0.41, 160.05
ATT, -2.19, -0.79, 0.00, -2.74, 0.00, 18.31, 21.81
CTUN, 577, 0.00, 2.59, 0.000000, 0.00, 0, 61, 577, 0
ATT, -3.70, -0.98, 0.00, -1.16, 0.00, 18.58, 21.81
CTUN, 577, 0.00, 2.70, 0.000000, 0.00, 0, 58, 577, 0
GPS, 3, 458545800, 11, 1.58, -33.7840542, 151.0682184, 2.85, 92.78, 0.50, 146.23
CTUN, 577, 0.00, 2.69, 0.000000, 0.00, 0, 56, 577, 0
ATT, -5.66, -2.73, -1.52, -0.38, 0.00, 18.70, 21.81
CTUN, 577, 0.00, 2.69, 0.000000, 0.00, 0, 56, 577, 0
ATT, -7.98, -3.96, -0.11, -0.70, 0.00, 18.56, 21.81
GPS, 3, 458546000, 11, 1.58, -33.7840540, 151.0682195, 2.94, 93.00, 0.43, 126.53
CTUN, 576, 0.00, 2.80, 0.000000, 0.00, 2, 52, 579, 0
ATT, -11.79, -6.48, 0.00, -0.68, 0.00, 18.29, 21.81
CTUN, 577, 0.00, 2.76, 0.000000, 0.00, 4, 48, 581, 0
ATT, -10.29, -8.48, 0.00, -0.32, 0.00, 17.86, 21.81
GPS, 3, 458546200, 11, 1.58, -33.7840542, 151.0682203, 3.02, 93.19, 0.42, 120.18
CTUN, 576, 0.00, 2.83, 0.000000, 0.00, 6, 46, 583, 0
ATT, -9.83, -9.34, 0.00, -0.54, 0.00, 17.39, 21.81
DU32, 7, 82041
CURR, 577, 121457, 1102, 0, 4452, 0.000000
CTUN, 577, 0.00, 2.81, 0.000000, 0.00, 5, 45, 582, 0
ATT, -8.79, -9.32, -1.64, -0.54, 0.00, 16.93, 21.81
GPS, 3, 458546400, 12, 1.33, -33.7840540, 151.0682206, 3.08, 93.33, 0.20, 120.18
CTUN, 577, 0.00, 2.91, 0.000000, 0.00, 5, 42, 582, 0
ATT, -1.04, -7.65, -4.68, -1.79, 0.00, 16.68, 21.81
CTUN, 577, 0.00, 2.96, 0.000000, 0.00, 3, 39, 580, 0
GPS, 3, 458546600, 12, 1.33, -33.7840537, 151.0682203, 3.14, 93.40, 0.16, 120.18
ATT, 0.00, -3.47, -5.74, -3.46, 0.00, 16.42, 21.81
CTUN, 577, 0.00, 2.74, 0.000000, 0.00, 1, 39, 578, 0
ATT, 0.00, -1.15, -7.14, -4.25, 0.00, 16.20, 21.81
CTUN, 577, 0.00, 2.84, 0.000000, 0.00, 1, 41, 578, 0
GPS, 3, 458546800, 12, 1.33, -33.7840531, 151.0682198, 3.18, 93.50, 0.32, 45.32
ATT, 0.00, -0.15, -7.26, -5.82, 0.00, 16.11, 21.81
CTUN, 577, 0.00, 3.03, 0.000000, 0.00, 2, 40, 579, 0
ATT, 0.00, 0.56, -7.26, -6.41, 0.00, 16.18, 21.81
CTUN, 577, 0.00, 3.09, 0.000000, 0.00, 2, 39, 578, 0
GPS, 3, 458547000, 12, 1.33, -33.7840523, 151.0682193, 3.24, 93.65, 0.39, 1.09
CTUN, 569, 0.00, 3.10, 0.000000, 0.00, 2, 39, 571, 0
ATT, 0.00, 1.33, -7.38, -6.51, 0.00, 16.39, 21.81
CTUN, 555, 0.00, 3.14, 0.000000, 0.00, 2, 39, 557, 0
ATT, 0.00, 1.60, -8.08, -6.56, 0.00, 16.62, 21.81
GPS, 3, 458547200, 11, 1.58, -33.7840512, 151.0682193, 3.30, 93.77, 0.50, 5.35
CTUN, 555, 0.00, 3.14, 0.000000, 0.00, 3, 37, 558, 0
ATT, 0.00, 2.09, -7.50, -6.60, 0.00, 16.93, 21.81
DU32, 7, 82041
CURR, 552, 126642, 1102, 0, 4487, 0.000000
CTUN, 555, 0.00, 3.18, 0.000000, 0.00, 3, 34, 556, 0
ATT, 0.00, 2.37, -6.32, -6.41, 0.00, 17.15, 21.81
GPS, 3, 458547400, 11, 1.58, -33.7840502, 151.0682194, 3.35, 93.83, 0.52, 8.42
CTUN, 555, 0.00, 3.23, 0.000000, 0.00, 2, 27, 556, 0
ATT, 0.00, 2.14, -5.97, -5.64, 0.00, 17.24, 21.81
CTUN, 555, 0.00, 3.27, 0.000000, 0.00, 2, 23, 556, 0
GPS, 3, 458547600, 11, 1.58, -33.7840491, 151.0682200, 3.39, 93.89, 0.63, 21.06
ATT, 0.00, 1.90, -4.68, -4.79, 0.00, 17.15, 21.81
CTUN, 555, 0.00, 3.16, 0.000000, 0.00, 1, 22, 556, 0
PM, 0, 0, 50, 1, 1000, 10592, 0, 4
ATT, 0.00, 1.46, -4.57, -4.05, 0.00, 16.97, 21.81
CTUN, 554, 0.00, 3.24, 0.000000, 0.00, 1, 19, 556, 0
GPS, 3, 458547800, 11, 1.58, -33.7840479, 151.0682210, 3.41, 93.93, 0.74, 32.01
ATT, 0.00, 1.36, -4.21, -3.48, 0.00, 16.68, 21.81
CTUN, 555, 0.00, 3.19, 0.000000, 0.00, 0, 17, 555, 0
ATT, 0.00, 1.04, -3.98, -3.29, 0.00, 16.49, 21.81
CTUN, 555, 0.00, 3.12, 0.000000, 0.00, 0, 15, 555, 0
GPS, 3, 458548000, 11, 1.58, -33.7840471, 151.0682221, 3.41, 93.98, 0.72, 41.27
CTUN, 555, 0.00, 3.21, 0.000000, 0.00, 0, 11, 555, 0
ATT, 0.00, 0.77, -3.04, -2.91, 0.00, 16.30, 21.81
CTUN, 555, 0.00, 3.29, 0.000000, 0.00, 0, 5, 555, 0
ATT, 0.00, 0.57, -0.11, -2.35, 0.00, 16.15, 21.81
GPS, 3, 458548200, 11, 1.58, -33.7840462, 151.0682235, 3.40, 94.02, 0.80, 50.26
CTUN, 555, 0.00, 3.26, 0.000000, 0.00, 0, 4, 555, 0
ATT, 0.00, 0.28, 0.00, -0.74, 0.00, 16.03, 21.81
DU32, 7, 82041
CURR, 555, 132199, 1102, 0, 4487, 0.000000
CTUN, 555, 0.00, 3.17, 0.000000, 0.00, 0, 4, 555, 0
ATT, 0.00, 0.57, 0.00, 0.38, 0.00, 15.99, 21.81
GPS, 3, 458548400, 11, 1.58, -33.7840455, 151.0682248, 3.40, 94.03, 0.75, 55.93
CTUN, 555, 0.00, 3.25, 0.000000, 0.00, 0, 1, 554, 0
ATT, 0.00, 0.28, 0.00, 0.50, 0.00, 16.09, 21.81
CTUN, 555, 0.00, 3.24, 0.000000, 0.00, 0, -1, 555, 0
GPS, 3, 458548600, 11, 1.58, -33.7840448, 151.0682264, 3.38, 94.04, 0.80, 60.58
ATT, 0.00, 0.31, 0.00, 0.57, 0.00, 16.28, 21.81
CTUN, 554, 0.00, 3.18, 0.000000, 0.00, 0, -1, 554, 0
ATT, 0.00, 0.67, 0.00, 0.61, 0.00, 16.45, 21.81
CTUN, 555, 0.00, 3.15, 0.000000, 0.00, 0, -2, 555, 0
GPS, 3, 458548800, 11, 1.58, -33.7840444, 151.0682277, 3.35, 94.06, 0.66, 66.08
ATT, 0.00, 0.76, 0.00, 0.48, 0.00, 16.59, 21.81
CTUN, 554, 0.00, 3.09, 0.000000, 0.00, 0, -7, 555, 0
ATT, 0.00, 0.77, 0.00, 0.20, 0.00, 16.64, 21.81
CTUN, 555, 0.00, 3.13, 0.000000, 0.00, 0, -10, 555, 0
GPS, 3, 458549000, 11, 1.58, -33.7840444, 151.0682289, 3.31, 94.08, 0.62, 72.16
CTUN, 555, 0.00, 3.08, 0.000000, 0.00, 0, -13, 555, 0
ATT, 0.00, 0.61, 0.00, -0.12, 0.00, 16.65, 21.81
CTUN, 555, 0.00, 3.10, 0.000000, 0.00, 0, -14, 555, 0
ATT, 0.00, 0.40, 0.00, -0.61, 0.00, 16.60, 21.81
GPS, 3, 458549200, 11, 1.58, -33.7840444, 151.0682300, 3.25, 94.05, 0.64, 76.66
CTUN, 555, 0.00, 3.06, 0.000000, 0.00, 0, -15, 555, 0
ATT, 0.00, 0.28, 0.00, -0.91, 0.00, 16.49, 21.81
DU32, 7, 82041
CURR, 555, 137190, 1102, 0, 4469, 0.000000
CTUN, 554, 0.00, 3.05, 0.000000, 0.00, 0, -15, 554, 0
ATT, 0.00, 0.11, 0.00, -1.06, 0.00, 16.39, 21.81
GPS, 3, 458549400, 11, 1.58, -33.7840447, 151.0682312, 3.20, 93.99, 0.62, 89.94
CTUN, 555, 0.00, 3.06, 0.000000, 0.00, 0, -18, 555, 0
ATT, 0.00, 0.17, 0.00, -0.93, 0.00, 16.30, 21.81
CTUN, 555, 0.00, 3.04, 0.000000, 0.00, 0, -21, 555, 0
GPS, 3, 458549600, 11, 1.58, -33.7840451, 151.0682324, 3.15, 93.95, 0.58, 98.56
ATT, 0.00, 0.23, 0.00, -0.68, 0.00, 16.22, 21.81
CTUN, 555, 0.00, 3.10, 0.000000, 0.00, 0, -24, 555, 0
ATT, 0.00, 0.05, 0.00, -0.72, 0.00, 16.21, 21.81
CTUN, 555, 0.00, 3.10, 0.000000, 0.00, 0, -29, 555, 0
GPS, 3, 458549800, 11, 1.58, -33.7840453, 151.0682337, 3.09, 93.95, 0.65, 99.36
ATT, 0.00, -0.14, 0.00, -0.80, 0.00, 16.29, 21.81
CTUN, 555, 0.00, 2.89, 0.000000, 0.00, 0, -33, 555, 0
ATT, 0.00, -0.01, 0.00, -0.88, 0.00, 16.37, 21.81
CTUN, 555, 0.00, 2.96, 0.000000, 0.00, 0, -38, 554, 0
GPS, 3, 458550000, 11, 1.58, -33.7840458, 151.0682350, 3.00, 93.93, 0.65, 106.63
CTUN, 577, 0.00, 2.89, 0.000000, 0.00, 0, -43, 577, 0
ATT, 0.00, -0.07, 0.00, -0.81, 0.00, 16.53, 21.81
CTUN, 581, 0.00, 2.91, 0.000000, 0.00, 0, -45, 582, 0
ATT, -0.46, 0.02, 0.00, -0.77, 0.00, 16.65, 21.81
GPS, 3, 458550200, 11, 1.58, -33.7840464, 151.0682362, 2.91, 93.89, 0.66, 110.60
CTUN, 589, 0.00, 2.68, 0.000000, 0.00, 0, -40, 589, 0
ATT, -0.69, -0.29, 0.00, -0.58, 0.00, 16.63, 21.81
CTUN, 592, 0.00, 2.76, 0.000000, 0.00, 0, -36, 592, 0
ATT, -3.35, -0.69, 0.00, -0.53, 0.00, 16.62, 21.81
GPS, 3, 458550400, 11, 1.58, -33.7840469, 151.0682375, 2.82, 93.81, 0.66, 111.60
DU32, 7, 82041
CURR, 594, 142275, 1102, 0, 4487, 0.000000
CTUN, 592, 0.00, 2.62, 0.000000, 0.00, 0, -31, 592, 0
ATT, -6.82, -2.33, 0.00, -0.35, 0.00, 16.71, 21.81
CTUN, 593, 0.00, 2.77, 0.000000, 0.00, 0, -27, 594, 0
GPS, 3, 458550600, 11, 1.58, -33.7840477, 151.0682385, 2.75, 93.73, 0.66, 116.74
ATT, -9.02, -4.74, 0.00, -0.42, 0.00, 16.99, 21.81
CTUN, 594, 0.00, 2.58, 0.000000, 0.00, 1, -22, 595, 0
ATT, -9.25, -6.51, 0.23, -0.23, 0.00, 17.31, 21.81
CTUN, 594, 0.00, 2.63, 0.000000, 0.00, 3, -18, 597, 0
GPS, 3, 458550800, 11, 1.58, -33.7840483, 151.0682397, 2.70, 93.74, 0.65, 119.28
ATT, -9.02, -7.91, 0.00, -0.59, 0.00, 17.75, 21.81
CTUN, 594, 0.00, 2.60, 0.000000, 0.00, 4, -15, 598, 0
ATT, -8.67, -8.33, 0.00, -0.87, 0.00, 18.03, 21.81
CTUN, 594, 0.00, 2.59, 0.000000, 0.00, 5, -12, 599, 0
GPS, 3, 458551000, 11, 1.58, -33.7840491, 151.0682404, 2.66, 93.76, 0.51, 127.00
CTUN, 592, 0.00, 2.56, 0.000000, 0.00, 5, -8, 597, 0
ATT, -8.79, -8.42, 0.00, -0.97, 0.00, 18.22, 21.81
CTUN, 593, 0.00, 2.61, 0.000000, 0.00, 5, -5, 599, 0
ATT, -7.05, -8.29, 0.00, -0.99, 0.00, 18.27, 21.81
GPS, 3, 458551200, 11, 1.58, -33.7840493, 151.0682408, 2.64, 93.77, 0.21, 127.00
CTUN, 593, 0.00, 2.59, 0.000000, 0.00, 4, -1, 597, 0
ATT, -6.47, -7.34, 0.00, -0.88, 0.00, 18.20, 21.81
CTUN, 592, 0.00, 2.59, 0.000000, 0.00, 3, 2, 595, 0
ATT, -6.24, -6.52, 0.00, -0.64, 0.00, 18.13, 21.81
GPS, 3, 458551400, 11, 1.58, -33.7840492, 151.0682410, 2.63, 93.86, 0.04, 127.00
DU32, 7, 82041
CURR, 592, 147641, 1102, 0, 4469, 0.000000
CTUN, 592, 0.00, 2.66, 0.000000, 0.00, 2, 7, 594, 0
ATT, -5.20, -5.75, 0.00, -0.42, 0.00, 18.16, 21.81
CTUN, 594, 0.00, 2.69, 0.000000, 0.00, 2, 10, 596, 0
GPS, 3, 458551600, 11, 1.58, -33.7840489, 151.0682407, 2.65, 93.93, 0.21, 127.00
ATT, -1.96, -4.71, 0.00, -0.35, 0.00, 18.29, 21.81
CTUN, 594, 0.00, 2.70, 0.000000, 0.00, 1, 13, 595, 0
ATT, 0.00, -2.71, 0.00, -0.71, 0.00, 18.48, 21.81
CTUN, 594, 0.00, 2.57, 0.000000, 0.00, 0, 16, 594, 0
GPS, 3, 458551800, 11, 1.58, -33.7840481, 151.0682403, 2.68, 93.99, 0.40, 41.02
ATT, 0.00, -0.64, 0.00, -0.68, 0.00, 18.57, 21.81
CTUN, 594, 0.00, 2.74, 0.000000, 0.00, 0, 20, 594, 0
ATT, 0.00, 0.06, 0.00, -0.81, 0.00, 18.62, 21.81
CTUN, 594, 0.00, 2.76, 0.000000, 0.00, 0, 22, 594, 0
GPS, 3, 458552000, 11, 1.58, -33.7840474, 151.0682397, 2.73, 94.06, 0.46, 357.86
CTUN, 592, 0.00, 2.79, 0.000000, 0.00, 0, 26, 593, 0
ATT, 0.00, 0.46, 0.00, -0.79, 0.00, 18.57, 21.81
CTUN, 594, 0.00, 2.81, 0.000000, 0.00, 0, 29, 594, 0
ATT, 0.00, 0.45, 0.00, -0.61, 0.00, 18.43, 21.81
GPS, 3, 458552200, 11, 1.58, -33.7840471, 151.0682389, 2.78, 94.09, 0.40, 328.98
CTUN, 594, 0.00, 2.91, 0.000000, 0.00, 0, 32, 593, 0
ATT, 0.00, 0.13, 0.00, -0.69, 0.00, 18.29, 21.81
CTUN, 594, 0.00, 2.82, 0.000000, 0.00, 0, 35, 593, 0
ATT, 0.00, -0.12, 0.00, -0.80, 0.00, 18.30, 21.81
GPS, 3, 458552400, 11, 1.58, -33.7840467, 151.0682383, 2.86, 94.14, 0.30, 318.68
DU32, 7, 82041
CURR, 592, 152991, 1102, 0, 4487, 0.000000
CTUN, 592, 0.00, 2.91, 0.000000, 0.00, 0, 38, 592, 0
ATT, 0.00, -0.70, 0.00, -0.77, 0.00, 18.38, 21.81
CTUN, 594, 0.00, 2.94, 0.000000, 0.00, 0, 40, 594, 0
GPS, 3, 458552600, 11, 1.58, -33.7840465, 151.0682378, 2.94, 94.22, 0.26, 318.68
ATT, 0.00, -0.68, -1.52, -0.64, 0.00, 18.35, 21.81
CTUN, 594, 0.00, 3.05, 0.000000, 0.00, 0, 44, 594, 0
ATT, 0.00, -0.53, -2.22, -1.17, 0.00, 18.18, 21.81
CTUN, 593, 0.00, 3.03, 0.000000, 0.00, 0, 48, 593, 0
GPS, 3, 458552800, 11, 1.58, -33.7840461, 151.0682373, 3.04, 94.35, 0.24, 318.68
ATT, 0.00, -0.79, -2.69, -1.92, 0.00, 17.84, 21.81
CTUN, 594, 0.00, 3.21, 0.000000, 0.00, 0, 48, 594, 0
ATT, 0.00, -0.70, -2.92, -2.42, 0.00, 17.49, 21.81
CTUN, 594, 0.00, 3.18, 0.000000, 0.00, 0, 52, 594, 0
GPS, 3, 458553000, 10, 1.76, -33.7840461, 151.0682368, 3.15, 94.42, 0.18, 318.68
CTUN, 594, 0.00, 3.25, 0.000000, 0.00, 0, 54, 593, 0
ATT, 0.00, -0.08, -3.39, -2.82, 0.00, 17.12, 21.81
CTUN, 594, 0.00, 3.19, 0.000000, 0.00, 0, 56, 594, 0
ATT, 0.00, 0.49, -3.98, -2.95, 0.00, 16.97, 21.81
GPS, 3, 458553200, 11, 1.58, -33.7840459, 151.0682362, 3.27, 94.52, 0.24, 318.68
CTUN, 594, 0.00, 3.40, 0.000000, 0.00, 0, 57, 594, 0
ATT, 0.00, 1.05, -4.10, -3.43, 0.00, 16.92, 21.81
CTUN, 592, 0.00, 3.51, 0.000000, 0.00, 0, 59, 593, 0
ATT, 0.00, 1.10, -4.10, -3.55, 0.00, 17.02, 21.81
GPS, 3, 458553400, 11, 1.58, -33.7840456, 151.0682359, 3.39, 94.68, 0.17, 318.68
DU32, 7, 82041
CURR, 592, 158330, 1102, 0, 4487, 0.000000
CTUN, 594, 0.00, 3.51, 0.000000, 0.00, 0, 59, 594, 0
ATT, 0.00, 1.07, -5.27, -3.57, 0.00, 17.21, 21.81
CTUN, 582, 0.00, 3.75, 0.000000, 0.00, 0, 60, 589, 0
GPS, 3, 458553600, 11, 1.58, -33.7840458, 151.0682356, 3.52, 94.80, 0.11, 318.68
ATT, 0.00, 0.90, -5.85, -3.90, 0.00, 17.31, 21.81
CTUN, 581, 0.00, 3.56, 0.000000, 0.00, 1, 62, 582, 0
ATT, 0.00, 0.51, -5.97, -4.44, 0.00, 17.43, 21.81
CTUN, 581, 0.00, 3.82, 0.000000, 0.00, 1, 62, 582, 0
GPS, 3, 458553800, 10, 1.66, -33.7840460, 151.0682356, 3.67, 94.91, 0.11, 318.68
ATT, 0.00, 0.15, -5.15, -4.72, 0.00, 17.66, 21.81
CTUN, 580, 0.00, 3.93, 0.000000, 0.00, 1, 60, 581, 0
ATT, 0.00, 0.17, -3.98, -4.47, 0.00, 17.84, 21.81
CTUN, 581, 0.00, 3.91, 0.000000, 0.00, 1, 59, 582, 0
GPS, 3, 458554000, 10, 1.66, -33.7840459, 151.0682360, 3.81, 95.05, 0.20, 318.68
CTUN, 581, 0.00, 4.11, 0.000000, 0.00, 0, 57, 581, 0
ATT, 0.00, 0.26, -1.28, -3.50, 0.00, 17.87, 21.81
CTUN, 581, 0.00, 3.97, 0.000000, 0.00, 0, 56, 581, 0
ATT, 0.00, 0.44, 0.00, -1.80, 0.00, 17.74, 21.81
GPS, 3, 458554200, 11, 1.58, -33.7840463, 151.0682363, 3.94, 95.16, 0.25, 318.68
CTUN, 580, 0.00, 3.99, 0.000000, 0.00, 0, 56, 580, 0
ATT, 0.00, 0.54, 0.00, 0.10, 0.00, 17.37, 21.81
CTUN, 581, 0.00, 4.04, 0.000000, 0.00, 0, 56, 581, 0
ATT, -0.11, 0.22, 0.00, 0.50, 0.00, 17.09, 21.81
GPS, 3, 458554400, 11, 1.58, -33.7840466, 151.0682370, 4.06, 95.30, 0.36, 44.42
DU32, 7, 82041
CURR, 581, 163584, 1102, 0, 4505, 0.000000
CTUN, 581, 0.00, 4.14, 0.000000, 0.00, 0, 57, 581, 0
ATT, -3.58, -0.56, 0.00, 0.71, 0.00, 16.96, 21.81
CTUN, 581, 0.00, 4.24, 0.000000, 0.00, 0, 56, 581, 0
GPS, 3, 458554600, 11, 1.58, -33.7840470, 151.0682376, 4.18, 95.49, 0.38, 81.90
ATT, -5.66, -2.49, 0.00, 0.56, 0.00, 16.99, 21.81
CTUN, 581, 0.00, 4.44, 0.000000, 0.00, 0, 56, 581, 0
ATT, -5.08, -4.39, 0.00, 0.35, 0.00, 17.08, 21.81
CTUN, 581, 0.00, 4.47, 0.000000, 0.00, 1, 53, 582, 0
GPS, 3, 458554800, 11, 1.58, -33.7840470, 151.0682381, 4.31, 95.66, 0.27, 81.90
ATT, -4.62, -5.00, 0.00, 0.14, 0.00, 17.12, 21.81
CTUN, 581, 0.00, 4.63, 0.000000, 0.00, 1, 51, 581, 0
ATT, -5.55, -4.98, 0.00, 0.05, 0.00, 17.09, 21.81
CTUN, 580, 0.00, 4.62, 0.000000, 0.00, 1, 49, 581, 0
GPS, 3, 458555000, 11, 1.58, -33.7840474, 151.0682385, 4.44, 95.80, 0.32, 101.19
CTUN, 581, 0.00, 4.55, 0.000000, 0.00, 2, 48, 583, 0
ATT, -6.59, -5.71, 0.00, -0.19, 0.00, 17.05, 21.81
CTUN, 581, 0.00, 4.56, 0.000000, 0.00, 2, 48, 583, 0
ATT, -6.47, -6.45, 0.00, -0.56, 0.00, 17.03, 21.81
GPS, 3, 458555200, 11, 1.58, -33.7840474, 151.0682387, 4.55, 95.95, 0.12, 101.19
CTUN, 581, 0.00, 4.71, 0.000000, 0.00, 2, 48, 583, 0
ATT, -4.16, -6.55, 0.00, -0.44, 0.00, 16.97, 21.81
CTUN, 580, 0.00, 4.84, 0.000000, 0.00, 2, 49, 583, 0
ATT, -1.38, -5.44, 0.00, -0.53, 0.00, 17.01, 21.81
GPS, 3, 458555400, 11, 1.58, -33.7840473, 151.0682386, 4.66, 96.08, 0.09, 101.19
DU32, 7, 82041
CURR, 581, 168822, 1102, 0, 4505, 0.000000
CTUN, 581, 0.00, 4.83, 0.000000, 0.00, 1, 50, 582, 0
ATT, -1.15, -3.43, 0.00, -0.15, 0.00, 17.02, 21.81
CTUN, 581, 0.00, 4.88, 0.000000, 0.00, 0, 50, 581, 0
GPS, 3, 458555600, 11, 1.58, -33.7840471, 151.0682381, 4.78, 96.20, 0.22, 101.19
ATT, 0.00, -1.96, 0.00, 0.01, 0.00, 17.00, 21.81
CTUN, 581, 0.00, 5.05, 0.000000, 0.00, 0, 50, 580, 0
ATT, 0.00, -0.92, 0.00, -0.15, 0.00, 16.98, 21.81
CTUN, 581, 0.00, 4.99, 0.000000, 0.00, 0, 49, 581, 0
GPS, 3, 458555800, 11, 1.58, -33.7840468, 151.0682374, 4.90, 96.33, 0.33, 204.51
ATT, 0.00, -0.15, -2.34, -0.07, 0.00, 16.99, 21.81
CTUN, 579, 0.00, 5.05, 0.000000, 0.00, 0, 48, 579, 0
ATT, 0.00, 0.34, -0.23, -1.11, 0.00, 16.99, 21.81
CTUN, 579, 0.00, 5.08, 0.000000, 0.00, 0, 48, 579, 0
GPS, 3, 458556000, 11, 1.58, -33.7840465, 151.0682367, 5.00, 96.48, 0.34, 240.44
CTUN, 577, 0.00, 5.19, 0.000000, 0.00, 0, 47, 577, 0
ATT, 0.00, 0.00, -0.46, -1.36, 0.00, 17.13, 21.81
