dump 3

ArduCopter V3.1-rc2
Free RAM: 1157
APM 2
FMT, 128, 89, FMT, BBnNZ, Type,Length,Name,Format
FMT, 129, 23, PARM, Nf, Name,Value
FMT, 130, 35, GPS, BIBcLLeeEe, Status,Time,NSats,HDop,Lat,Lng,RelAlt,Alt,Spd,GCrs
FMT, 131, 27, IMU, ffffff, GyrX,GyrY,GyrZ,AccX,AccY,AccZ
FMT, 132, 67, MSG, Z, Message
FMT, 9, 19, CURR, hIhhhf, Thr,ThrInt,Volt,Curr,Vcc,CurrTot
FMT, 11, 11, MOT, hhhh, Mot1,Mot2,Mot3,Mot4
FMT, 12, 28, OF, hhBccffee, Dx,Dy,SQual,X,Y,Lat,Lng,Roll,Pitch
FMT, 5, 49, NTUN, Ecffffffffee, WPDst,WPBrg,PErX,PErY,DVelX,DVelY,VelX,VelY,DAcX,DAcY,DRol,DPit
FMT, 4, 25, CTUN, hcefchhhh, ThrIn,SonAlt,BarAlt,WPAlt,DesSonAlt,AngBst,CRate,ThrOut,DCRate
FMT, 15, 21, MAG, hhhhhhhhh, MagX,MagY,MagZ,OfsX,OfsY,OfsZ,MOfsX,MOfsY,MOfsZ
FMT, 6, 17, PM, BBBHHIhB, RenCnt,RenBlw,FixCnt,NLon,NLoop,MaxT,PMT,I2CErr
FMT, 8, 20, CMD, BBBBBeLL, CTot,CNum,CId,COpt,Prm1,Alt,Lat,Lng
FMT, 1, 17, ATT, cccccCC, RollIn,Roll,PitchIn,Pitch,YawIn,Yaw,NavYaw
FMT, 17, 37, INAV, cccfffiiff, BAlt,IAlt,IClb,ACorrX,ACorrY,ACorrZ,GLat,GLng,ILat,ILng
FMT, 3, 6, MODE, Mh, Mode,ThrCrs
FMT, 10, 3, STRT, , 
FMT, 13, 4, EV, B, Id
FMT, 20, 6, D16, Bh, Id,Value
FMT, 21, 6, DU16, BH, Id,Value
FMT, 22, 8, D32, Bi, Id,Value
FMT, 23, 8, DU32, BI, Id,Value
FMT, 24, 8, DFLT, Bf, Id,Value
FMT, 14, 28, PID, Biiiiif, Id,Error,P,I,D,Out,Gain
FMT, 16, 15, DMP, ccccCC, DCMRoll,DMPRoll,DCMPtch,DMPPtch,DCMYaw,DMPYaw
FMT, 18, 25, CAM, ILLeccC, GPSTime,Lat,Lng,Alt,Roll,Pitch,Yaw
FMT, 19, 5, ERR, BB, Subsys,ECode
D32, 9, 6149
CMD, 6, 0, 16, 0, 0, 0.00, -33.7840045, 151.0682137
EV, 10
GPS, 3, 458993200, 7, 2.11, -33.7840053, 151.0682140, -0.20, 93.32, 0.03, 0.00
CTUN, 0, 0.00, 0.02, 0.000000, 0.00, 0, -2, 0, 0
ATT, 0.00, 1.18, 0.00, -0.65, 0.00, 61.49, 61.49
CTUN, 0, 0.00, 0.00, 0.000000, 0.00, 0, -2, 0, 0
ATT, 0.00, 1.27, 0.00, -0.51, 0.00, 61.50, 61.50
GPS, 3, 459000600, 7, 2.11, -33.7840274, 151.0682170, -0.18, 91.68, 0.04, 0.00
PM, 0, 0, 27, 2, 1000, 7337524, 0, 4
DU32, 7, 98393
CURR, 0, 0, 1190, 92, 4772, 0.964651
CTUN, 0, 0.00, -0.01, 0.000000, 0.00, 0, -2, 0, 0
ATT, 0.00, 1.34, 0.00, -0.46, 0.00, 61.46, 61.46
CTUN, 0, 0.00, 0.06, 0.000000, 0.00, 0, -2, 0, 0
ATT, 0.00, 1.34, 0.00, -0.42, 0.00, 61.49, 61.49
GPS, 3, 459000800, 7, 2.11, -33.7840283, 151.0682170, -0.16, 91.62, 0.06, 0.00
CTUN, 0, 0.00, 0.07, 0.000000, 0.00, 0, -2, 0, 0
ATT, 0.00, 1.33, 0.00, -0.43, 0.00, 61.49, 61.49
CTUN, 0, 0.00, -0.01, 0.000000, 0.00, 0, -1, 0, 0
ATT, 0.00, 1.29, 0.00, -0.44, 0.00, 61.50, 61.50
GPS, 3, 459001000, 7, 2.11, -33.7840293, 151.0682171, -0.14, 91.58, 0.08, 0.00
CTUN, 0, 0.00, -0.07, 0.000000, 0.00, 0, -1, 0, 0
ATT, 0.00, 1.29, 0.00, -0.46, 0.00, 61.47, 61.47
CTUN, 0, 0.00, -0.01, 0.000000, 0.00, 0, -1, 0, 0
ATT, 0.00, 1.28, 0.00, -0.46, 0.00, 61.49, 61.49
GPS, 3, 459001200, 7, 2.11, -33.7840301, 151.0682172, -0.13, 91.55, 0.09, 0.00
CTUN, 0, 0.00, 0.02, 0.000000, 0.00, 0, -1, 0, 0
ATT, 0.00, 1.28, 0.00, -0.47, 0.00, 61.48, 61.48
CTUN, 0, 0.00, 0.01, 0.000000, 0.00, 0, -1, 0, 0
ATT, 0.00, 1.27, 0.00, -0.47, 0.00, 61.48, 61.48
GPS, 3, 459001400, 7, 2.11, -33.7840306, 151.0682174, -0.12, 91.54, 0.14, 0.00
CTUN, 0, 0.00, -0.02, 0.000000, 0.00, 0, -1, 0, 0
ATT, 0.00, 1.26, 0.00, -0.48, 0.00, 61.47, 61.47
CTUN, 0, 0.00, -0.05, 0.000000, 0.00, 0, 0, 0, 0
ATT, 0.00, 1.25, 0.00, -0.49, 0.00, 61.48, 61.48
GPS, 3, 459001600, 7, 2.11, -33.7840313, 151.0682175, -0.11, 91.50, 0.07, 0.00
DU32, 7, 98393
CURR, 0, 0, 1189, 54, 4793, 1.133664
CTUN, 0, 0.00, -0.01, 0.000000, 0.00, 0, -1, 0, 0
ATT, 0.00, 1.25, 0.00, -0.49, 0.00, 61.47, 61.47
CTUN, 0, 0.00, -0.09, 0.000000, 0.00, 0, 0, 0, 0
ATT, 0.00, 1.27, 0.00, -0.47, 0.00, 61.46, 61.46
GPS, 3, 459001800, 7, 2.11, -33.7840313, 151.0682177, -0.10, 91.44, 0.36, 0.00
CTUN, 0, 0.00, -0.02, 0.000000, 0.00, 0, 0, 0, 0
ATT, 0.00, 1.22, 0.00, -0.50, 0.00, 61.47, 61.47
CTUN, 0, 0.00, -0.08, 0.000000, 0.00, 0, 0, 0, 0
ATT, 0.00, 1.16, 0.00, -0.55, 0.00, 61.47, 61.47
GPS, 3, 459002000, 7, 2.11, -33.7840317, 151.0682178, -0.10, 91.40, 0.12, 0.00
CTUN, 0, 0.00, -0.12, 0.000000, 0.00, 0, 0, 0, 0
ATT, 0.00, 1.16, 0.00, -0.56, 0.00, 61.47, 61.47
CTUN, 0, 0.00, -0.05, 0.000000, 0.00, 0, 0, 0, 0
ATT, 0.00, 1.22, 0.00, -0.52, 0.00, 61.46, 61.46
GPS, 3, 459002200, 7, 2.11, -33.7840323, 151.0682179, -0.10, 91.41, 0.10, 0.00
CTUN, 0, 0.00, -0.07, 0.000000, 0.00, 0, 0, 0, 0
ATT, 0.00, 1.27, 0.00, -0.47, 0.00, 61.47, 61.47
CTUN, 0, 0.00, -0.04, 0.000000, 0.00, 0, 0, 0, 0
ATT, 0.00, 1.33, 0.00, -0.45, 0.00, 61.45, 61.45
GPS, 3, 459002400, 7, 2.11, -33.7840325, 151.0682180, -0.09, 91.42, 0.06, 0.00
CTUN, 0, 0.00, 0.00, 0.000000, 0.00, 0, 0, 0, 0
ATT, 0.00, 1.34, 0.00, -0.43, 0.00, 61.45, 61.45
CTUN, 0, 0.00, -0.13, 0.000000, 0.00, 0, 0, 0, 0
ATT, 0.00, 1.34, 0.00, -0.44, 0.00, 61.44, 61.44
GPS, 3, 459002600, 7, 2.11, -33.7840326, 151.0682180, -0.09, 91.45, 0.12, 0.00
DU32, 7, 98393
CURR, 0, 0, 1189, 57, 4752, 1.297917
CTUN, 0, 0.00, -0.13, 0.000000, 0.00, 0, 0, 0, 0
ATT, 0.00, 1.34, 0.00, -0.43, 0.00, 61.44, 61.44
CTUN, 0, 0.00, -0.08, 0.000000, 0.00, 0, 0, 0, 0
ATT, 0.00, 1.35, 0.00, -0.43, 0.00, 61.44, 61.44
GPS, 3, 459002800, 7, 2.11, -33.7840324, 151.0682181, -0.09, 91.50, 0.01, 0.00
CTUN, 0, 0.00, -0.06, 0.000000, 0.00, 0, 0, 0, 0
ATT, 0.00, 1.34, 0.00, -0.44, 0.00, 61.43, 61.43
CTUN, 0, 0.00, -0.04, 0.000000, 0.00, 0, 0, 0, 0
ATT, 0.00, 1.31, 0.00, -0.46, 0.00, 61.43, 61.43
GPS, 3, 459003000, 7, 2.11, -33.7840321, 151.0682181, -0.09, 91.56, 0.04, 0.00
CTUN, 0, 0.00, -0.12, 0.000000, 0.00, 0, 0, 0, 0
ATT, 0.00, 1.30, 0.00, -0.46, 0.00, 61.44, 61.44
CTUN, 0, 0.00, 0.00, 0.000000, 0.00, 0, 0, 0, 0
ATT, 0.00, 1.31, 0.00, -0.46, 0.00, 61.43, 61.43
GPS, 3, 459003200, 7, 2.11, -33.7840318, 151.0682180, -0.09, 91.64, 0.06, 0.00
CTUN, 0, 0.00, -0.06, 0.000000, 0.00, 0, 0, 0, 0
ATT, 0.00, 1.31, 0.00, -0.46, 0.00, 61.44, 61.44
CTUN, 0, 0.00, -0.05, 0.000000, 0.00, 0, 0, 0, 0
GPS, 3, 459003400, 6, 4.75, -33.7840312, 151.0682180, -0.09, 91.73, 0.03, 0.00
ATT, 0.00, 1.32, 0.00, -0.47, 0.00, 61.43, 61.43
CTUN, 0, 0.00, -0.06, 0.000000, 0.00, 0, 0, 0, 0
ATT, 0.00, 1.29, 0.00, -0.48, 0.00, 61.44, 61.44
CTUN, 0, 0.00, -0.11, 0.000000, 0.00, 0, 0, 0, 0
ATT, 0.00, 1.27, 0.00, -0.49, 0.00, 61.43, 61.43
GPS, 3, 459003600, 6, 4.75, -33.7840308, 151.0682179, -0.09, 91.79, 0.01, 0.00
DU32, 7, 98393
CURR, 0, 0, 1189, 61, 4752, 1.451200
CTUN, 0, 0.00, -0.04, 0.000000, 0.00, 0, 0, 0, 0
ATT, 0.00, 1.26, 0.00, -0.49, 0.00, 61.43, 61.43
CTUN, 0, 0.00, -0.09, 0.000000, 0.00, 0, 0, 0, 0
ATT, 0.00, 1.27, 0.00, -0.50, 0.00, 61.42, 61.42
GPS, 3, 459003800, 7, 2.11, -33.7840313, 151.0682179, -0.08, 91.78, 0.08, 0.00
CTUN, 0, 0.00, -0.02, 0.000000, 0.00, 0, 0, 0, 0
ATT, 0.00, 1.29, 0.00, -0.48, 0.00, 61.42, 61.42
CTUN, 0, 0.00, 0.03, 0.000000, 0.00, 0, 0, 0, 0
ATT, 0.00, 1.30, 0.00, -0.47, 0.00, 61.42, 61.42
GPS, 3, 459004000, 7, 2.11, -33.7840317, 151.0682178, -0.08, 91.75, 0.04, 0.00
CTUN, 0, 0.00, 0.00, 0.000000, 0.00, 0, 0, 0, 0
ATT, 0.00, 1.30, 0.00, -0.47, 0.00, 61.43, 61.43
CTUN, 0, 0.00, 0.00, 0.000000, 0.00, 0, 0, 0, 0
GPS, 3, 459004200, 7, 2.11, -33.7840314, 151.0682177, -0.07, 91.76, 0.11, 0.00
ATT, 0.00, 1.29, 0.00, -0.48, 0.00, 61.43, 61.43
CTUN, 0, 0.00, -0.11, 0.000000, 0.00, 0, 0, 0, 0
ATT, 0.00, 1.25, 0.00, -0.50, 0.00, 61.43, 61.43
CTUN, 0, 0.00, -0.15, 0.000000, 0.00, 0, 0, 0, 0
GPS, 3, 459004400, 7, 2.11, -33.7840313, 151.0682177, -0.07, 91.79, 0.00, 0.00
ATT, 0.00, 1.22, 0.00, -0.52, 0.00, 61.42, 61.42
CTUN, 0, 0.00, 0.00, 0.000000, 0.00, 0, 0, 0, 0
ATT, 0.00, 1.24, 0.00, -0.51, 0.00, 61.44, 61.44
CTUN, 0, 0.00, 0.01, 0.000000, 0.00, 0, 0, 0, 0
GPS, 3, 459004600, 7, 2.11, -33.7840314, 151.0682176, -0.07, 91.80, 0.06, 0.00
ATT, 0.00, 1.27, 0.00, -0.50, 0.00, 61.43, 61.43
DU32, 7, 98393
CURR, 0, 0, 1186, 60, 4732, 1.621817
CTUN, 0, 0.00, -0.01, 0.000000, 0.00, 0, 0, 0, 0
ATT, 0.00, 1.28, 0.00, -0.49, 0.00, 61.42, 61.42
CTUN, 0, 0.00, -0.19, 0.000000, 0.00, 0, 0, 0, 0
GPS, 3, 459004800, 7, 2.11, -33.7840312, 151.0682176, -0.06, 91.83, 0.03, 0.00
ATT, 0.00, 1.30, 0.00, -0.49, 0.00, 61.41, 61.41
CTUN, 0, 0.00, -0.06, 0.000000, 0.00, 0, 0, 0, 0
ATT, 0.00, 1.27, 0.00, -0.50, 0.00, 61.41, 61.41
CTUN, 0, 0.00, -0.09, 0.000000, 0.00, 0, 0, 0, 0
GPS, 3, 459005000, 7, 2.11, -33.7840312, 151.0682176, -0.07, 91.84, 0.01, 0.00
ATT, 0.00, 1.25, 0.00, -0.51, 0.00, 61.40, 61.40
CTUN, 0, 0.00, -0.03, 0.000000, 0.00, 0, 0, 0, 0
ATT, 0.00, 1.26, 0.00, -0.51, 0.00, 61.41, 61.41
CTUN, 0, 0.00, -0.11, 0.000000, 0.00, 0, 0, 0, 0
GPS, 3, 459005200, 7, 2.11, -33.7840316, 151.0682176, -0.07, 91.82, 0.01, 0.00
ATT, 0.00, 1.27, 0.00, -0.51, 0.00, 61.40, 61.40
CTUN, 0, 0.00, -0.15, 0.000000, 0.00, 0, 0, 0, 0
ATT, 0.00, 1.28, 0.00, -0.51, 0.00, 61.39, 61.39
CTUN, 0, 0.00, 0.01, 0.000000, 0.00, 0, 0, 0, 0
GPS, 3, 459005400, 7, 2.11, -33.7840316, 151.0682176, -0.07, 91.85, 0.01, 0.00
ATT, 0.00, 1.27, 0.00, -0.50, -11.54, 61.39, 61.39
CTUN, 0, 0.00, -0.20, 0.000000, 0.00, 0, 0, 0, 0
ATT, 0.00, 1.27, 0.00, -0.50, -30.74, 61.40, 61.40
CTUN, 0, 0.00, -0.15, 0.000000, 0.00, 0, 0, 0, 0
GPS, 3, 459005600, 7, 2.11, -33.7840313, 151.0682176, -0.08, 91.89, 0.03, 0.00
ATT, 0.00, 1.27, 0.00, -0.50, -43.70, 61.40, 61.40
DU32, 7, 98393
CURR, 0, 0, 1187, 57, 4793, 1.787236
CTUN, 0, 0.00, -0.06, 0.000000, 0.00, 0, 0, 0, 0
ATT, 0.00, 1.26, 0.00, -0.52, -44.41, 61.39, 61.39
CTUN, 0, 0.00, -0.02, 0.000000, 0.00, 0, 0, 0, 0
GPS, 3, 459005800, 7, 2.11, -33.7840312, 151.0682176, -0.08, 91.93, 0.01, 0.00
ATT, 0.00, 1.25, 0.00, -0.53, -44.41, 61.39, 61.39
CTUN, 0, 0.00, 0.00, 0.000000, 0.00, 0, 0, 0, 0
ATT, 0.00, 1.25, 0.00, -0.53, -45.00, 61.38, 61.38
CTUN, 0, 0.00, -0.08, 0.000000, 0.00, 0, 0, 0, 0
GPS, 3, 459006000, 7, 2.11, -33.7840313, 151.0682176, -0.07, 91.93, 0.06, 0.00
ATT, 0.00, 1.25, 0.00, -0.52, -45.00, 61.38, 61.38
CTUN, 0, 0.00, -0.06, 0.000000, 0.00, 0, 0, 0, 0
ATT, 0.00, 1.24, 0.00, -0.53, -45.00, 61.38, 61.38
CTUN, 0, 0.00, -0.10, 0.000000, 0.00, 0, 0, 0, 0
ATT, 0.00, 1.23, 0.00, -0.53, -45.00, 61.38, 61.38
GPS, 3, 459006200, 9, 1.88, -33.7840320, 151.0682177, -0.07, 92.05, 0.01, 0.00
CTUN, 0, 0.00, -0.09, 0.000000, 0.00, 0, 0, 0, 0
ATT, 0.00, 1.23, 0.00, -0.53, -45.00, 61.37, 61.37
CTUN, 0, 0.00, -0.11, 0.000000, 0.00, 0, 0, 0, 0
GPS, 3, 459006400, 9, 1.88, -33.7840322, 151.0682180, -0.08, 92.26, 0.02, 0.00
ATT, 0.00, 1.25, 0.00, -0.52, -45.00, 61.36, 61.36
CTUN, 0, 0.00, -0.11, 0.000000, 0.00, 0, 0, 0, 0
ATT, 0.00, 1.25, 0.00, -0.53, -45.00, 61.36, 61.36
CTUN, 0, 0.00, -0.11, 0.000000, 0.00, 0, 0, 0, 0
GPS, 3, 459006600, 9, 1.88, -33.7840324, 151.0682181, -0.08, 92.46, 0.03, 0.00
ATT, 0.00, 1.25, 0.00, -0.54, -45.11, 61.36, 61.36
DU32, 7, 98393
CURR, 0, 0, 1186, 63, 4772, 1.954019
CTUN, 0, 0.00, -0.04, 0.000000, 0.00, 0, 0, 0, 0
ATT, 0.00, 1.25, 0.00, -0.53, -45.11, 61.35, 61.35
CTUN, 0, 0.00, -0.08, 0.000000, 0.00, 0, 0, 0, 0
GPS, 3, 459006800, 9, 1.88, -33.7840318, 151.0682183, -0.08, 92.80, 0.02, 0.00
ATT, 0.00, 1.25, 0.00, -0.53, -45.11, 61.34, 61.34
CTUN, 0, 0.00, 0.01, 0.000000, 0.00, 0, 0, 0, 0
ATT, 0.00, 1.24, 0.00, -0.53, -44.88, 61.34, 61.34
CTUN, 0, 0.00, -0.02, 0.000000, 0.00, 0, 0, 0, 0
GPS, 3, 459007000, 9, 1.88, -33.7840318, 151.0682184, -0.07, 93.04, 0.01, 0.00
ATT, 0.00, 1.23, 0.00, -0.54, -45.11, 61.33, 61.33
CTUN, 0, 0.00, 0.02, 0.000000, 0.00, 0, 0, 0, 0
ATT, 0.00, 1.23, 0.00, -0.54, -45.00, 61.34, 61.34
CTUN, 0, 0.00, 0.00, 0.000000, 0.00, 0, 0, 0, 0
GPS, 3, 459007200, 9, 1.88, -33.7840319, 151.0682186, -0.07, 93.25, 0.00, 0.00
ATT, 0.00, 1.23, 0.00, -0.54, -45.00, 61.34, 61.34
CTUN, 0, 0.00, -0.14, 0.000000, 0.00, 0, 0, 0, 0
ATT, 0.00, 1.24, 0.00, -0.54, -44.88, 61.33, 61.33
CTUN, 0, 0.00, -0.12, 0.000000, 0.00, 0, 0, 0, 0
GPS, 3, 459007400, 9, 1.88, -33.7840322, 151.0682188, -0.07, 93.44, 0.02, 0.00
ATT, 0.00, 1.24, 0.00, -0.54, -45.00, 61.34, 61.34
CTUN, 0, 0.00, -0.06, 0.000000, 0.00, 0, 0, 0, 0
ATT, 0.00, 1.24, 0.00, -0.54, -45.00, 61.34, 61.34
EV, 11
DU32, 7, 98393
DU32, 7, 98393
DU32, 7, 98393
PM, 0, 0, 50, 1, 1000, 108356, 0, 4
DU32, 7, 98393
DU32, 7, 98393
DU32, 7, 98393
DU32, 7, 98393
DU32, 7, 98393
DU32, 7, 98393
DU32, 7, 98393
DU32, 7, 98393
DU32, 7, 98393
DU32, 7, 98393
PM, 0, 0, 50, 0, 1001, 10424, 0, 4
DU32, 7, 98393
DU32, 7, 98393
DU32, 7, 98393
DU32, 7, 98393
DU32, 7, 98393
DU32, 7, 98393
DU32, 7, 98393
DU32, 7, 98393
DU32, 7, 98393
DU32, 7, 98393
PM, 0, 0, 50, 0, 1000, 10412, 0, 4
DU32, 7, 98393
DU32, 7, 98393
DU32, 7, 98393
DU32, 7, 98393
DU32, 7, 98393
DU32, 7, 98393
DU32, 7, 98393
DU32, 7, 98393
DU32, 7, 98393
DU32, 7, 98393
PM, 0, 0, 50, 0, 1000, 10416, 0, 4
DU32, 7, 98393
DU32, 7, 98393
DU32, 7, 98393
DU32, 7, 98393
DU32, 7, 98393
DU32, 7, 98393
DU32, 7, 98393
DU32, 7, 98393
DU32, 7, 98393
DU32, 7, 98393
PM, 0, 0, 50, 0, 1000, 10408, 0, 4
DU32, 7, 98393
DU32, 7, 98393
DU32, 7, 98393
DU32, 7, 98393
DU32, 7, 98393
DU32, 7, 98393
DU32, 7, 98393
DU32, 7, 98393
DU32, 7, 98393
DU32, 7, 98393
PM, 0, 0, 50, 0, 1000, 10416, 0, 4
DU32, 7, 98393
DU32, 7, 98393
DU32, 7, 98393
DU32, 7, 98393
DU32, 7, 98393
DU32, 7, 98393
DU32, 7, 98393
DU32, 7, 98393
DU32, 7, 98393
DU32, 7, 98393
PM, 0, 0, 50, 0, 1000, 10408, 0, 4
DU32, 7, 98393
DU32, 7, 98393
DU32, 7, 98393
DU32, 7, 98393
DU32, 7, 98393
DU32, 7, 98393
DU32, 7, 98393
DU32, 7, 98393
DU32, 7, 98393
DU32, 7, 98393
PM, 0, 0, 49, 0, 1000, 10408, 0, 4
DU32, 7, 98393
DU32, 7, 98393
DU32, 7, 98393
DU32, 7, 98393
DU32, 7, 98393
DU32, 7, 98393
DU32, 7, 98393
DU32, 7, 98393
DU32, 7, 98393
DU32, 7, 98393
PM, 0, 0, 50, 0, 1000, 10416, 0, 4
DU32, 7, 98393
DU32, 7, 98393
DU32, 7, 98393
DU32, 7, 98393
DU32, 7, 98393
DU32, 7, 98393
DU32, 7, 98393
DU32, 7, 98393
DU32, 7, 98393
DU32, 7, 98393
PM, 0, 0, 50, 0, 1000, 10416, 0, 4
DU32, 7, 98393
DU32, 7, 98393
DU32, 7, 98393
DU32, 7, 98393
DU32, 7, 98393
DU32, 7, 98393
DU32, 7, 98393
DU32, 7, 98393
DU32, 7, 98393
DU32, 7, 98393
PM, 0, 0, 50, 0, 1000, 10412, 0, 4
DU32, 7, 98393
DU32, 7, 98393
DU32, 7, 98393
DU32, 7, 98393
DU32, 7, 98393
DU32, 7, 98393
DU32, 7, 98393
DU32, 7, 98393
DU32, 7, 98393
DU32, 7, 98393
PM, 0, 0, 50, 0, 1000, 10412, 0, 4
DU32, 7, 98393
DU32, 7, 98393
DU32, 7, 98393
DU32, 7, 98393
DU32, 7, 98393
DU32, 7, 98393
DU32, 7, 98393
DU32, 7, 98393
DU32, 7, 98393
DU32, 7, 98393
PM, 0, 0, 50, 0, 1000, 10412, 0, 4
DU32, 7, 98393
DU32, 7, 98393
DU32, 7, 98393
DU32, 7, 98393
DU32, 7, 98393
DU32, 7, 98393
DU32, 7, 98393
DU32, 7, 98393
DU32, 7, 98393
DU32, 7, 98393
PM, 0, 0, 50, 0, 1000, 10420, 0, 4
DU32, 7, 98393
DU32, 7, 98393
DU32, 7, 98393
DU32, 7, 98393
DU32, 7, 98393
DU32, 7, 98393
DU32, 7, 98393
DU32, 7, 98393
DU32, 7, 98393
DU32, 7, 98393
PM, 0, 0, 50, 0, 1000, 10416, 0, 4
DU32, 7, 98393
DU32, 7, 98393
DU32, 7, 98393
DU32, 7, 98393
DU32, 7, 98393
DU32, 7, 98393
DU32, 7, 98393
DU32, 7, 98393
DU32, 7, 98393
DU32, 7, 98393
PM, 0, 0, 50, 0, 1000, 10404, 0, 4
DU32, 7, 98393
DU32, 7, 98393
DU32, 7, 98393
DU32, 7, 98393
DU32, 7, 98393
DU32, 7, 98393
DU32, 7, 98393
DU32, 7, 98393
DU32, 7, 98393
DU32, 7, 98393
PM, 0, 0, 50, 0, 1000, 10412, 0, 4
DU32, 7, 98393
DU32, 7, 98393
DU32, 7, 98393
DU32, 7, 98393
DU32, 7, 98393
DU32, 7, 98393
DU32, 7, 98393
DU32, 7, 98393
DU32, 7, 98393
DU32, 7, 98393
PM, 0, 0, 49, 0, 1000, 10412, 0, 4
DU32, 7, 98393
DU32, 7, 98393
DU32, 7, 98393
DU32, 7, 98393
DU32, 7, 98393
DU32, 7, 98393
DU32, 7, 98393
DU32, 7, 98393
DU32, 7, 98393
DU32, 7, 98393
PM, 0, 0, 50, 0, 1000, 10444, 0, 4
DU32, 7, 98393
DU32, 7, 98393
DU32, 7, 98393
DU32, 7, 98393
DU32, 7, 98393
DU32, 7, 98393
DU32, 7, 98393
DU32, 7, 98393
DU32, 7, 98393
DU32, 7, 98393
PM, 0, 0, 50, 5, 1000, 11640, 0, 4
DU32, 7, 98393
DU32, 7, 98393
DU32, 7, 98393
DU32, 7, 98393
DU32, 7, 98393
DU32, 7, 98393
DU32, 7, 98393
DU32, 7, 98393
DU32, 7, 98393
DU32, 7, 98393
D32, 9, 6065
CMD, 6, 0, 16, 0, 0, 0.00, -33.7840644, 151.0681863
EV, 10
GPS, 3, 459210200, 10, 1.47, -33.7840648, 151.0681864, -0.04, 104.95, 0.01, 0.00
EV, 15
EV, 28
CTUN, 184, 0.00, 0.00, 0.000000, 0.00, 0, -1, 183, 0
ATT, 0.00, 1.02, 0.00, -0.73, 0.00, 60.73, 60.65
ATT, 0.00, 1.03, 0.00, -0.75, 0.00, 60.68, 60.65
CTUN, 184, 0.00, 0.12, 0.000000, 0.00, 0, -1, 183, 0
GPS, 3, 459212400, 10, 1.47, -33.7840685, 151.0681867, -0.04, 104.76, 0.01, 0.00
PM, 0, 0, 51, 7, 1000, 2070232, 0, 4
CTUN, 184, 0.00, -0.16, 0.000000, 0.00, 0, -1, 184, 0
ATT, 0.00, 0.99, 0.00, -0.74, 0.00, 60.72, 60.65
CTUN, 183, 0.00, -0.62, 0.000000, 0.00, 0, -1, 183, 0
GPS, 3, 459212600, 10, 1.47, -33.7840688, 151.0681867, -0.04, 104.74, 0.01, 0.00
ATT, 0.00, 1.02, 0.00, -0.73, 0.00, 60.68, 60.65
DU32, 7, 65657
CURR, 186, 735, 1170, 287, 4772, 2.553238
CTUN, 186, 0.00, -0.36, 0.000000, 0.00, 0, -2, 183, 0
ATT, 0.00, 1.02, 0.00, -0.74, 0.00, 60.70, 60.65
CTUN, 199, 0.00, -0.55, 0.000000, 0.00, 0, -2, 195, 0
GPS, 3, 459212800, 10, 1.47, -33.7840691, 151.0681866, -0.09, 104.71, 0.04, 0.00
ATT, 0.00, 1.05, 0.00, -0.74, 0.00, 60.68, 60.65
CTUN, 206, 0.00, -0.33, 0.000000, 0.00, 0, -3, 206, 0
ATT, 0.00, 1.01, 0.00, -0.71, 0.00, 60.69, 60.65
GPS, 3, 459213000, 10, 1.47, -33.7840694, 151.0681865, -0.14, 104.66, 0.11, 0.00
CTUN, 206, 0.00, -0.43, 0.000000, 0.00, 0, -3, 206, 0
ATT, 0.00, 1.03, 0.00, -0.69, 0.00, 60.69, 60.65
CTUN, 255, 0.00, -0.42, 0.000000, 0.00, 0, -4, 236, 0
ATT, 0.00, 1.01, 0.00, -0.64, 0.00, 60.69, 60.65
GPS, 3, 459213200, 10, 1.47, -33.7840697, 151.0681864, -0.18, 104.63, 0.13, 0.00
CTUN, 388, 0.00, -0.56, 0.000000, 0.00, 0, -4, 331, 0
ATT, 0.00, 1.05, 0.00, -0.62, 0.00, 60.66, 60.65
CTUN, 442, 0.00, -0.69, 0.000000, 0.00, 0, -4, 438, 0
ATT, 0.00, 1.20, 0.00, -0.57, 0.00, 60.65, 60.65
GPS, 3, 459213400, 10, 1.47, -33.7840700, 151.0681863, -0.24, 104.59, 0.10, 0.00
CTUN, 476, 0.00, -1.02, 0.000000, 0.00, 0, -5, 467, 0
EV, 16
ATT, 0.00, 1.23, 0.00, -0.58, 0.00, 60.67, 60.65
CTUN, 493, 0.00, -1.24, 0.000000, 0.00, 0, -6, 493, 0
GPS, 3, 459213600, 10, 1.47, -33.7840704, 151.0681862, -0.34, 104.51, 0.10, 0.00
ATT, 0.00, 1.29, 0.00, -0.52, 0.00, 60.46, 60.65
CTUN, 493, 0.00, -1.78, 0.000000, 0.00, 0, -7, 493, 0
DU32, 7, 82041
CURR, 499, 3773, 1120, 1050, 4732, 4.269224
ATT, 0.00, 1.27, 0.00, -0.09, 0.00, 60.11, 60.65
CTUN, 513, 0.00, -1.56, 0.000000, 0.00, 0, -8, 507, 0
GPS, 3, 459213800, 10, 1.47, -33.7840707, 151.0681861, -0.50, 104.43, 0.08, 0.00
CTUN, 594, 0.00, -1.74, 0.000000, 0.00, 0, -9, 594, 0
ATT, 0.00, 1.17, 0.00, 0.64, 0.00, 59.54, 60.65
CTUN, 595, 0.00, -2.04, 0.000000, 0.00, 0, -3, 595, 0
ATT, 0.00, -0.05, 0.00, 1.66, 0.00, 58.34, 60.65
GPS, 3, 459214000, 10, 1.47, -33.7840711, 151.0681859, -0.65, 104.37, 0.11, 0.00
CTUN, 599, 0.00, -1.63, 0.000000, 0.00, 0, 7, 599, 0
ATT, 0.00, -0.72, 0.00, 2.63, 0.00, 55.86, 60.65
CTUN, 624, 0.00, -0.90, 0.000000, 0.00, 0, 15, 624, 0
ATT, 0.00, -0.66, 0.00, 3.49, 0.00, 53.70, 60.65
GPS, 3, 459214200, 10, 1.47, -33.7840715, 151.0681856, -0.73, 104.28, 0.10, 0.00
CTUN, 625, 0.00, -0.29, 0.000000, 0.00, 0, 23, 624, 0
ATT, 0.00, -1.11, 0.00, 3.11, 0.00, 51.41, 60.65
CTUN, 624, 0.00, -0.05, 0.000000, 0.00, 0, 37, 626, 0
ATT, 0.00, -1.03, -4.00, 2.74, 0.00, 49.53, 59.53
GPS, 3, 459214400, 10, 1.47, -33.7840715, 151.0681847, -0.62, 104.36, 0.32, 0.00
CTUN, 624, 0.00, 0.06, 0.000000, 0.00, 0, 47, 624, 0
ATT, 0.00, -0.81, -8.00, 0.12, 0.00, 48.02, 58.02
CTUN, 625, 0.00, 0.20, 0.000000, 0.00, 0, 54, 623, 0
GPS, 3, 459214600, 9, 1.58, -33.7840721, 151.0681829, -0.43, 104.23, 0.61, 0.00
ATT, 0.00, -0.63, -12.25, -4.17, 0.00, 46.55, 56.55
CTUN, 625, 0.00, 0.33, 0.000000, 0.00, 1, 59, 626, 0
ATT, 0.00, 0.03, -16.25, -7.64, 0.00, 45.44, 55.44
DU32, 7, 82041
CURR, 625, 9205, 1082, 1544, 4693, 8.277737
CTUN, 625, 0.00, 0.42, 0.000000, 0.00, 4, 63, 629, 0
GPS, 3, 459214800, 8, 2.00, -33.7840727, 151.0681814, -0.22, 104.28, 0.69, 274.33
CTUN, 623, 0.00, 0.50, 0.000000, 0.00, 9, 68, 632, 0
ATT, 0.00, 1.17, -17.34, -11.40, 0.00, 44.26, 54.26
CTUN, 612, 0.00, 0.61, 0.000000, 0.00, 12, 71, 624, 0
ATT, 0.00, 2.22, -15.64, -13.23, 0.00, 43.30, 53.30
GPS, 3, 459215000, 8, 2.00, -33.7840731, 151.0681800, -0.02, 104.24, 0.45, 274.33
CTUN, 611, 0.00, 0.66, 0.000000, 0.00, 13, 73, 624, 0
ATT, 0.00, 3.19, -13.70, -13.05, 0.00, 42.30, 52.30
CTUN, 612, 0.00, 0.76, 0.000000, 0.00, 12, 75, 623, 0
ATT, 0.00, 3.49, -11.03, -11.76, 0.00, 41.55, 51.55
GPS, 3, 459215200, 8, 2.00, -33.7840728, 151.0681793, 0.22, 104.33, 0.33, 274.33
CTUN, 612, 0.00, 0.86, 0.000000, 0.00, 10, 76, 622, 0
ATT, 0.00, 3.52, -7.27, -8.99, 1.32, 40.88, 50.88
CTUN, 612, 0.00, 0.99, 0.000000, 0.00, 6, 79, 617, 0
ATT, 0.00, 3.38, -7.27, -5.80, 0.00, 40.56, 50.56
GPS, 3, 459215400, 9, 1.83, -33.7840720, 151.0681791, 0.45, 104.38, 0.53, 336.99
CTUN, 612, 0.00, 0.94, 0.000000, 0.00, 2, 80, 614, 0
ATT, 0.00, 2.43, -7.39, -4.54, 0.00, 40.19, 50.19
CTUN, 588, 0.00, 1.14, 0.000000, 0.00, 1, 80, 598, 0
GPS, 3, 459215600, 9, 1.83, -33.7840715, 151.0681790, 0.67, 104.44, 0.46, 354.53
ATT, 0.00, 2.00, -9.33, -4.27, 0.00, 39.84, 49.84
CTUN, 542, 0.00, 1.18, 0.000000, 0.00, 1, 80, 543, 0
ATT, 0.00, 1.71, -10.18, -4.63, 0.00, 39.54, 49.54
DU32, 7, 82041
CURR, 513, 14692, 1092, 1292, 4752, 12.33203
CTUN, 513, 0.00, 1.27, 0.000000, 0.00, 1, 73, 535, 0
GPS, 3, 459215800, 11, 1.41, -33.7840706, 151.0681793, 0.87, 104.48, 0.59, 9.47
ATT, 0.00, 1.36, -9.70, -5.89, 0.00, 39.40, 49.40
CTUN, 503, 0.00, 1.30, 0.000000, 0.00, 2, 59, 505, 0
ATT, 0.00, 1.07, -9.09, -6.51, 0.00, 39.50, 49.40
CTUN, 503, 0.00, 1.46, 0.000000, 0.00, 2, 44, 503, 0
GPS, 3, 459216000, 10, 1.78, -33.7840693, 151.0681801, 1.02, 104.52, 0.79, 18.56
CTUN, 503, 0.00, 1.60, 0.000000, 0.00, 2, 25, 505, 0
ATT, 0.00, 1.21, -6.67, -6.30, 0.00, 39.84, 49.40
CTUN, 503, 0.00, 1.61, 0.000000, 0.00, 1, 11, 504, 0
ATT, 0.00, 1.33, -1.94, -5.21, 1.68, 40.22, 49.47
GPS, 3, 459216200, 10, 1.78, -33.7840677, 151.0681807, 1.11, 104.49, 0.98, 16.92
CTUN, 507, 0.00, 1.56, 0.000000, 0.00, 0, -5, 503, 0
ATT, 0.00, 1.18, 0.00, -2.32, 6.48, 41.23, 51.23
CTUN, 530, 0.00, 1.66, 0.000000, 0.00, 0, -15, 530, 0
ATT, 0.00, 2.04, 0.00, 0.38, 5.88, 43.08, 53.08
GPS, 3, 459216400, 10, 1.78, -33.7840665, 151.0681815, 1.14, 104.40, 0.93, 19.44
CTUN, 531, 0.00, 1.63, 0.000000, 0.00, 0, -25, 531, 0
ATT, 0.00, 1.06, 0.00, 1.42, 7.20, 45.82, 55.82
CTUN, 532, 0.00, 1.45, 0.000000, 0.00, 0, -36, 532, 0
ATT, 0.00, 0.35, 0.00, 1.19, 6.00, 48.82, 58.77
GPS, 3, 459216600, 11, 1.41, -33.7840658, 151.0681821, 1.13, 104.18, 0.86, 21.27
CTUN, 532, 0.00, 1.48, 0.000000, 0.00, 0, -50, 532, 0
ATT, 0.00, 0.64, -2.54, 1.00, 5.40, 52.08, 61.50
CTUN, 567, 0.00, 1.35, 0.000000, 0.00, 0, -59, 567, 0
DU32, 7, 82041
CURR, 602, 19912, 1090, 1224, 4732, 15.84653
GPS, 3, 459216800, 11, 1.41, -33.7840648, 151.0681822, 1.05, 103.93, 0.84, 14.13
ATT, 0.00, 0.22, -3.76, -1.00, 0.00, 55.17, 62.40
CTUN, 621, 0.00, 1.25, 0.000000, 0.00, 0, -67, 621, 0
ATT, 0.00, 0.00, -3.15, -2.45, 0.00, 56.39, 62.40
CTUN, 628, 0.00, 1.24, 0.000000, 0.00, 0, -64, 624, 0
GPS, 3, 459217000, 11, 1.41, -33.7840638, 151.0681827, 0.95, 103.76, 0.79, 14.21
CTUN, 650, 0.00, 1.10, 0.000000, 0.00, 0, -56, 650, 0
ATT, 0.00, 0.31, -5.57, -2.33, 0.00, 56.92, 62.40
CTUN, 650, 0.00, 1.01, 0.000000, 0.00, 0, -48, 650, 0
ATT, 0.00, 0.61, -6.30, -3.23, 0.00, 56.82, 62.40
GPS, 3, 459217200, 11, 1.41, -33.7840626, 151.0681833, 0.88, 103.61, 0.75, 14.12
CTUN, 653, 0.00, 1.04, 0.000000, 0.00, 1, -37, 654, 0
ATT, 1.03, 0.59, -6.79, -4.86, 0.00, 56.31, 62.40
CTUN, 653, 0.00, 0.92, 0.000000, 0.00, 2, -26, 655, 0
ATT, 5.88, 1.57, -5.33, -5.55, 0.00, 55.71, 62.40
GPS, 3, 459217400, 11, 1.41, -33.7840617, 151.0681835, 0.83, 103.37, 0.66, 9.58
CTUN, 652, 0.00, 0.90, 0.000000, 0.00, 2, -19, 655, 0
ATT, 8.30, 4.75, -4.00, -4.74, 0.00, 54.91, 62.40
CTUN, 653, 0.00, 0.95, 0.000000, 0.00, 3, -6, 656, 0
ATT, 11.19, 6.63, -2.54, -3.27, 0.00, 54.36, 62.40
GPS, 3, 459217600, 11, 1.41, -33.7840607, 151.0681838, 0.82, 103.24, 0.60, 6.45
CTUN, 650, 0.00, 1.00, 0.000000, 0.00, 4, 6, 654, 0
ATT, 10.96, 9.10, -1.21, -2.38, 0.00, 53.88, 62.40
CTUN, 652, 0.00, 0.85, 0.000000, 0.00, 7, 15, 659, 0
GPS, 3, 459217800, 11, 1.41, -33.7840600, 151.0681844, 0.86, 103.09, 0.44, 10.71
ATT, 10.84, 9.69, -1.45, -0.93, 0.00, 53.82, 62.40
CTUN, 652, 0.00, 0.99, 0.000000, 0.00, 7, 26, 659, 0
DU32, 7, 82041
CURR, 652, 25745, 1058, 1641, 4732, 20.22276
ATT, 9.92, 10.03, -1.33, -0.44, 0.00, 53.80, 62.40
CTUN, 654, 0.00, 0.92, 0.000000, 0.00, 8, 33, 660, 0
GPS, 3, 459218000, 10, 1.47, -33.7840599, 151.0681853, 0.94, 102.98, 0.30, 10.71
CTUN, 650, 0.00, 0.96, 0.000000, 0.00, 6, 44, 656, 0
ATT, 8.19, 9.03, -0.36, -0.19, 0.00, 53.96, 62.40
CTUN, 654, 0.00, 0.96, 0.000000, 0.00, 5, 51, 659, 0
ATT, 7.15, 7.96, 0.00, 0.17, 0.00, 54.13, 62.40
GPS, 3, 459218200, 10, 1.47, -33.7840591, 151.0681865, 1.02, 102.95, 0.53, 10.71
CTUN, 654, 0.00, 1.03, 0.000000, 0.00, 3, 60, 657, 0
ATT, 7.61, 6.49, 0.00, 0.42, 0.00, 54.32, 62.40
CTUN, 652, 0.00, 1.10, 0.000000, 0.00, 3, 67, 655, 0
ATT, 9.69, 6.02, 0.00, 0.37, 0.00, 54.35, 62.40
GPS, 3, 459218400, 10, 1.47, -33.7840591, 151.0681878, 1.16, 102.94, 0.47, 10.71
CTUN, 652, 0.00, 1.09, 0.000000, 0.00, 2, 74, 654, 0
ATT, 7.38, 6.64, 0.00, 0.19, 0.00, 54.24, 62.40
CTUN, 652, 0.00, 1.17, 0.000000, 0.00, 3, 82, 655, 0
ATT, 2.19, 5.49, 0.00, 0.49, 0.00, 54.15, 62.40
GPS, 3, 459218600, 10, 1.47, -33.7840596, 151.0681891, 1.32, 102.97, 0.61, 80.45
CTUN, 652, 0.00, 1.39, 0.000000, 0.00, 1, 90, 653, 0
ATT, 0.00, 2.18, 0.00, 0.49, 0.00, 54.12, 62.40
CTUN, 652, 0.00, 1.38, 0.000000, 0.00, 0, 97, 652, 0
GPS, 3, 459218800, 10, 1.47, -33.7840601, 151.0681903, 1.50, 102.93, 0.61, 97.17
ATT, 0.00, 0.09, 0.00, -0.13, 5.04, 54.09, 63.43
CTUN, 652, 0.00, 1.50, 0.000000, 0.00, 0, 103, 652, 0
DU32, 7, 82041
CURR, 652, 31651, 1063, 1619, 4732, 24.74204
ATT, 0.00, -0.56, 0.00, -0.20, 13.20, 55.18, 65.18
CTUN, 653, 0.00, 1.67, 0.000000, 0.00, 0, 112, 653, 0
GPS, 3, 459219000, 10, 1.47, -33.7840609, 151.0681909, 1.72, 102.80, 0.42, 97.17
CTUN, 652, 0.00, 1.61, 0.000000, 0.00, 0, 122, 652, 0
ATT, 0.00, -0.66, 0.00, -0.27, 10.44, 58.52, 68.52
CTUN, 639, 0.00, 1.77, 0.000000, 0.00, 0, 127, 639, 0
ATT, 0.00, -0.94, 0.00, -0.83, 5.52, 62.03, 71.87
GPS, 3, 459219200, 11, 1.41, -33.7840614, 151.0681919, 1.94, 102.92, 0.58, 116.38
CTUN, 577, 0.00, 1.90, 0.000000, 0.00, 0, 131, 610, 0
ATT, 0.00, -0.96, 0.00, -1.07, 0.00, 65.55, 72.39
CTUN, 563, 0.00, 2.13, 0.000000, 0.00, 0, 129, 563, 0
ATT, 0.00, -0.80, 0.00, -0.95, 0.00, 66.96, 72.39
GPS, 3, 459219400, 10, 1.47, -33.7840621, 151.0681925, 2.21, 103.02, 0.61, 142.52
CTUN, 555, 0.00, 2.17, 0.000000, 0.00, 0, 121, 555, 0
ATT, 0.00, -0.59, 0.00, -0.96, 0.00, 67.98, 72.39
CTUN, 555, 0.00, 2.38, 0.000000, 0.00, 0, 107, 555, 0
ATT, 0.00, -0.60, 0.00, -0.98, 0.00, 68.36, 72.39
GPS, 3, 459219600, 10, 1.47, -33.7840630, 151.0681930, 2.42, 103.09, 0.54, 157.39
CTUN, 538, 0.00, 2.52, 0.000000, 0.00, 0, 92, 538, 0
ATT, 0.00, -0.08, 0.00, -0.79, 0.00, 68.25, 72.39
CTUN, 533, 0.00, 2.47, 0.000000, 0.00, 0, 81, 534, 0
ATT, 0.00, 0.39, 0.00, -0.64, 0.00, 67.89, 72.39
GPS, 3, 459219800, 10, 1.47, -33.7840638, 151.0681933, 2.59, 103.17, 0.50, 160.60
DU32, 7, 82041
CURR, 510, 36987, 1089, 1153, 4772, 28.67549
CTUN, 509, 0.00, 2.65, 0.000000, 0.00, 0, 64, 510, 0
ATT, 0.00, 0.68, 0.00, -0.68, 0.00, 67.39, 72.39
CTUN, 510, 0.00, 2.81, 0.000000, 0.00, 0, 48, 509, 0
GPS, 3, 459220000, 10, 1.47, -33.7840650, 151.0681933, 2.70, 103.34, 0.84, 174.19
ATT, 0.00, 1.01, 0.00, -0.81, 0.00, 66.90, 72.39
CTUN, 509, 0.00, 2.74, 0.000000, 0.00, 0, 27, 509, 0
ATT, 0.00, 1.14, 0.00, -0.87, 0.00, 66.61, 72.39
CTUN, 509, 0.00, 2.84, 0.000000, 0.00, 0, 11, 509, 0
GPS, 3, 459220200, 10, 1.47, -33.7840651, 151.0681932, 2.74, 103.45, 0.47, 175.60
ATT, 0.00, 0.96, 0.00, -1.07, 0.00, 66.55, 72.39
CTUN, 509, 0.00, 2.70, 0.000000, 0.00, 0, -6, 509, 0
ATT, 0.00, 0.84, -3.15, -1.28, 0.00, 66.63, 72.39
CTUN, 509, 0.00, 2.83, 0.000000, 0.00, 0, -21, 509, 0
GPS, 3, 459220400, 11, 1.41, -33.7840649, 151.0681934, 2.72, 103.45, 0.22, 175.60
CTUN, 509, 0.00, 2.69, 0.000000, 0.00, 0, -40, 509, 0
ATT, 0.00, 0.98, -5.57, -2.91, 0.00, 66.86, 72.39
CTUN, 512, 0.00, 2.71, 0.000000, 0.00, 1, -54, 510, 0
ATT, 0.00, 0.68, -5.70, -4.79, 0.00, 67.07, 72.39
GPS, 3, 459220600, 11, 1.41, -33.7840649, 151.0681932, 2.63, 103.27, 0.03, 175.60
CTUN, 565, 0.00, 2.64, 0.000000, 0.00, 2, -70, 553, 0
ATT, 0.00, 0.41, -3.15, -5.64, 0.00, 67.27, 72.39
CTUN, 573, 0.00, 2.64, 0.000000, 0.00, 1, -80, 574, 0
ATT, 0.00, 0.41, -0.36, -4.30, 0.00, 67.30, 72.39
GPS, 3, 459220800, 11, 1.41, -33.7840647, 151.0681934, 2.48, 103.06, 0.12, 175.60
DU32, 7, 82041
CURR, 586, 41667, 1078, 1277, 4752, 31.73608
CTUN, 590, 0.00, 2.49, 0.000000, 0.00, 0, -85, 586, 0
ATT, 0.00, 0.71, -0.36, -2.06, 0.00, 67.16, 72.39
CTUN, 623, 0.00, 2.36, 0.000000, 0.00, 0, -86, 618, 0
GPS, 3, 459221000, 11, 1.41, -33.7840643, 151.0681937, 2.32, 102.73, 0.25, 175.60
ATT, 0.00, 0.40, -0.60, -1.29, 0.00, 67.08, 72.39
CTUN, 632, 0.00, 2.29, 0.000000, 0.00, 0, -81, 632, 0
ATT, 0.00, 0.42, -0.36, -1.09, 0.00, 67.07, 72.39
CTUN, 631, 0.00, 2.26, 0.000000, 0.00, 0, -75, 631, 0
GPS, 3, 459221200, 11, 1.41, -33.7840647, 151.0681943, 2.17, 102.45, 0.23, 175.60
ATT, 0.00, 0.29, 0.00, -0.63, 0.00, 67.19, 72.39
CTUN, 631, 0.00, 2.10, 0.000000, 0.00, 0, -68, 631, 0
ATT, 0.00, 0.29, 0.00, -0.45, 0.00, 67.41, 72.39
CTUN, 631, 0.00, 2.16, 0.000000, 0.00, 0, -62, 631, 0
GPS, 3, 459221400, 11, 1.41, -33.7840648, 151.0681942, 2.04, 102.06, 0.08, 175.60
CTUN, 631, 0.00, 2.01, 0.000000, 0.00, 0, -56, 631, 0
ATT, 0.00, 0.26, 0.00, -0.33, 0.00, 67.82, 72.39
CTUN, 631, 0.00, 1.86, 0.000000, 0.00, 0, -50, 631, 0
ATT, 0.00, 0.05, -0.24, -0.13, 0.00, 68.18, 72.39
GPS, 3, 459221600, 11, 1.41, -33.7840649, 151.0681946, 1.93, 101.89, 0.13, 175.60
CTUN, 631, 0.00, 1.91, 0.000000, 0.00, 0, -44, 631, 0
ATT, 0.00, 0.16, -0.84, -0.26, 0.00, 68.56, 72.39
CTUN, 633, 0.00, 2.05, 0.000000, 0.00, 0, -40, 633, 0
ATT, 0.00, 0.06, -0.84, -0.57, 0.00, 68.84, 72.39
GPS, 3, 459221800, 11, 1.41, -33.7840647, 151.0681944, 1.85, 101.66, 0.15, 175.60
DU32, 7, 82041
CURR, 632, 47289, 1063, 1491, 4712, 35.80782
CTUN, 632, 0.00, 1.91, 0.000000, 0.00, 0, -36, 631, 0
ATT, 0.00, -0.04, -0.60, -0.72, 0.00, 69.12, 72.39
CTUN, 631, 0.00, 1.97, 0.000000, 0.00, 0, -32, 633, 0
GPS, 3, 459222000, 11, 1.41, -33.7840646, 151.0681939, 1.80, 101.41, 0.26, 175.60
ATT, 0.00, -0.12, -0.72, -0.76, 0.00, 69.28, 72.39
CTUN, 631, 0.00, 1.87, 0.000000, 0.00, 0, -28, 631, 0
ATT, 0.00, 0.00, -0.48, -0.89, 0.00, 69.38, 72.39
CTUN, 631, 0.00, 1.76, 0.000000, 0.00, 0, -24, 633, 0
GPS, 3, 459222200, 11, 1.41, -33.7840639, 151.0681934, 1.76, 101.25, 0.48, 249.09
ATT, 0.00, 0.08, -0.12, -0.72, 0.00, 69.44, 72.39
CTUN, 632, 0.00, 1.70, 0.000000, 0.00, 0, -20, 633, 0
ATT, 0.00, 0.01, 0.00, -0.65, 0.00, 69.46, 72.39
CTUN, 631, 0.00, 1.74, 0.000000, 0.00, 0, -16, 633, 0
GPS, 3, 459222400, 11, 1.41, -33.7840642, 151.0681932, 1.72, 101.14, 0.16, 249.09
PM, 0, 0, 50, 0, 1001, 10424, 0, 4
CTUN, 631, 0.00, 1.56, 0.000000, 0.00, 0, -11, 631, 0
ATT, 0.00, 0.11, 0.00, -0.45, 0.00, 69.42, 72.39
CTUN, 633, 0.00, 1.64, 0.000000, 0.00, 0, -7, 632, 0
ATT, 0.00, 0.12, 0.00, -0.39, 0.00, 69.19, 72.39
GPS, 3, 459222600, 11, 1.41, -33.7840639, 151.0681928, 1.69, 101.05, 0.33, 249.09
CTUN, 631, 0.00, 1.60, 0.000000, 0.00, 0, -2, 631, 0
ATT, 0.00, 0.01, 0.00, -0.47, 0.00, 68.78, 72.39
CTUN, 631, 0.00, 1.66, 0.000000, 0.00, 0, 0, 631, 0
ATT, 0.00, -0.06, 0.00, -0.44, 0.00, 68.37, 72.39
GPS, 3, 459222800, 11, 1.41, -33.7840632, 151.0681922, 1.68, 100.91, 0.51, 270.99
CTUN, 631, 0.00, 1.52, 0.000000, 0.00, 0, 3, 631, 0
ATT, 0.00, -0.20, 0.00, -0.45, 0.00, 67.85, 72.39
DU32, 7, 82041
CURR, 631, 53603, 1059, 1498, 4732, 40.43719
CTUN, 631, 0.00, 1.67, 0.000000, 0.00, 0, 6, 631, 0
GPS, 3, 459223000, 11, 1.41, -33.7840633, 151.0681916, 1.68, 100.75, 0.32, 270.99
ATT, 0.00, -0.25, 0.00, -0.64, 0.00, 67.38, 72.39
CTUN, 631, 0.00, 1.63, 0.000000, 0.00, 0, 11, 631, 0
ATT, 0.00, -0.21, 0.00, -0.81, 0.00, 67.01, 72.39
CTUN, 631, 0.00, 1.68, 0.000000, 0.00, 0, 14, 631, 0
GPS, 3, 459223200, 11, 1.41, -33.7840629, 151.0681911, 1.71, 100.72, 0.43, 270.99
ATT, 8.42, 1.25, 0.00, -1.25, 0.00, 66.59, 72.39
CTUN, 631, 0.00, 1.72, 0.000000, 0.00, 0, 17, 631, 0
ATT, 7.15, 4.85, 0.00, -0.89, 0.00, 66.21, 72.39
CTUN, 631, 0.00, 1.74, 0.000000, 0.00, 1, 21, 634, 0
GPS, 3, 459223400, 11, 1.41, -33.7840621, 151.0681903, 1.75, 100.63, 0.59, 295.65
CTUN, 631, 0.00, 1.69, 0.000000, 0.00, 2, 25, 633, 0
ATT, 6.69, 5.77, 0.00, -0.67, 0.00, 66.02, 72.39
CTUN, 633, 0.00, 1.82, 0.000000, 0.00, 2, 28, 633, 0
ATT, 5.76, 5.73, 0.00, -0.61, 0.00, 65.98, 72.39
GPS, 3, 459223600, 11, 1.41, -33.7840619, 151.0681894, 1.80, 100.54, 0.53, 297.52
CTUN, 631, 0.00, 1.68, 0.000000, 0.00, 2, 31, 633, 0
ATT, 4.50, 5.45, 0.00, -0.43, 0.00, 66.03, 72.39
CTUN, 631, 0.00, 1.76, 0.000000, 0.00, 1, 34, 632, 0
ATT, 1.03, 4.71, 0.00, -0.42, 0.00, 66.11, 72.39
GPS, 3, 459223800, 10, 1.48, -33.7840619, 151.0681885, 1.85, 100.48, 0.43, 297.52
CTUN, 631, 0.00, 1.78, 0.000000, 0.00, 1, 36, 634, 0
ATT, 3.46, 2.70, 0.00, -0.26, 0.00, 66.29, 72.39
DU32, 7, 82041
CURR, 627, 59298, 1056, 1508, 4712, 44.63299
CTUN, 613, 0.00, 1.84, 0.000000, 0.00, 0, 39, 631, 0
GPS, 3, 459224000, 10, 1.48, -33.7840620, 151.0681875, 1.92, 100.47, 0.46, 297.52
ATT, 3.46, 3.52, -2.42, -0.98, 0.00, 66.36, 72.39
CTUN, 612, 0.00, 1.86, 0.000000, 0.00, 1, 40, 614, 0
ATT, 5.19, 4.04, -5.45, -1.58, 0.00, 66.38, 72.39
CTUN, 611, 0.00, 1.94, 0.000000, 0.00, 1, 41, 612, 0
GPS, 3, 459224200, 11, 1.41, -33.7840620, 151.0681865, 1.99, 100.45, 0.44, 297.52
ATT, 2.65, 3.95, -5.33, -4.17, 0.00, 66.46, 72.39
CTUN, 611, 0.00, 1.99, 0.000000, 0.00, 2, 39, 615, 0
ATT, 0.00, 2.67, -4.48, -4.78, 0.00, 66.69, 72.39
CTUN, 612, 0.00, 2.02, 0.000000, 0.00, 2, 38, 613, 0
GPS, 3, 459224400, 11, 1.41, -33.7840620, 151.0681858, 2.07, 100.53, 0.41, 297.52
CTUN, 604, 0.00, 2.06, 0.000000, 0.00, 1, 37, 612, 0
ATT, 0.00, 1.28, -3.39, -4.58, 0.00, 66.92, 72.39
CTUN, 583, 0.00, 2.08, 0.000000, 0.00, 1, 35, 584, 0
ATT, 0.00, 0.85, -3.39, -4.34, 0.00, 67.07, 72.39
GPS, 3, 459224600, 10, 1.52, -33.7840627, 151.0681859, 2.14, 100.60, 0.43, 243.35
CTUN, 585, 0.00, 2.01, 0.000000, 0.00, 0, 31, 585, 0
ATT, 0.00, 0.86, -3.39, -3.53, 0.00, 67.28, 72.39
CTUN, 583, 0.00, 2.04, 0.000000, 0.00, 0, 25, 583, 0
ATT, 0.00, 0.79, -5.70, -3.42, 0.00, 67.50, 72.39
GPS, 3, 459224800, 10, 1.52, -33.7840637, 151.0681853, 2.18, 100.42, 0.38, 243.35
CTUN, 583, 0.00, 2.13, 0.000000, 0.00, 0, 20, 583, 0
ATT, 0.92, 0.90, -7.27, -4.49, 0.00, 67.77, 72.39
CTUN, 583, 0.00, 2.16, 0.000000, 0.00, 1, 13, 586, 0
GPS, 3, 459225000, 10, 1.52, -33.7840640, 151.0681851, 2.20, 100.36, 0.16, 243.35
ATT, 0.00, 0.87, -7.03, -5.68, 0.00, 68.06, 72.39
DU32, 7, 82041
CURR, 583, 65311, 1066, 1319, 4732, 48.90958
CTUN, 585, 0.00, 2.16, 0.000000, 0.00, 2, 6, 585, 0
ATT, 0.00, 0.77, -6.79, -5.97, 0.00, 68.27, 72.39
CTUN, 587, 0.00, 2.23, 0.000000, 0.00, 2, 0, 589, 0
GPS, 3, 459225200, 11, 1.41, -33.7840639, 151.0681851, 2.21, 100.29, 0.07, 243.35
ATT, 0.00, 0.99, -6.67, -5.92, 0.00, 68.46, 72.39
CTUN, 584, 0.00, 2.20, 0.000000, 0.00, 2, -6, 586, 0
ATT, 0.00, 1.05, -6.18, -5.67, 0.00, 68.57, 72.39
CTUN, 583, 0.00, 2.13, 0.000000, 0.00, 2, -11, 584, 0
GPS, 3, 459225400, 11, 1.41, -33.7840639, 151.0681851, 2.19, 100.21, 0.05, 243.35
CTUN, 583, 0.00, 2.14, 0.000000, 0.00, 2, -15, 585, 0
ATT, 3.11, 1.68, -7.15, -5.54, 0.00, 68.61, 72.39
CTUN, 585, 0.00, 2.16, 0.000000, 0.00, 2, -20, 585, 0
ATT, 2.42, 3.07, -6.42, -5.62, 0.00, 68.50, 72.39
GPS, 3, 459225600, 10, 1.78, -33.7840639, 151.0681857, 2.15, 100.22, 0.22, 243.35
CTUN, 585, 0.00, 2.04, 0.000000, 0.00, 2, -24, 587, 0
ATT, 1.61, 2.94, -5.57, -4.96, 0.00, 68.38, 72.39
CTUN, 585, 0.00, 2.01, 0.000000, 0.00, 2, -28, 586, 0
ATT, 0.34, 2.51, -4.85, -4.16, 0.00, 68.21, 72.39
GPS, 3, 459225800, 9, 1.89, -33.7840642, 151.0681862, 2.09, 100.16, 0.29, 243.35
CTUN, 585, 0.00, 1.97, 0.000000, 0.00, 1, -31, 585, 0
ATT, 0.00, 2.12, -4.36, -3.40, 0.00, 67.99, 72.39
CTUN, 582, 0.00, 1.94, 0.000000, 0.00, 0, -33, 584, 0
GPS, 3, 459226000, 10, 1.78, -33.7840642, 151.0681872, 2.01, 100.08, 0.36, 243.35
ATT, 0.00, 1.12, -4.24, -3.10, 0.00, 67.76, 72.39
DU32, 7, 82041
CURR, 584, 70589, 1062, 1337, 4732, 52.60717
CTUN, 584, 0.00, 1.90, 0.000000, 0.00, 0, -36, 584, 0
ATT, 0.00, 0.75, -4.36, -3.02, 0.00, 67.55, 72.39
CTUN, 584, 0.00, 1.96, 0.000000, 0.00, 0, -39, 585, 0
GPS, 3, 459226200, 10, 1.78, -33.7840644, 151.0681882, 1.93, 100.05, 0.44, 243.35
ATT, 0.00, 0.62, -4.60, -3.25, 0.00, 67.34, 72.39
CTUN, 585, 0.00, 1.94, 0.000000, 0.00, 0, -44, 585, 0
ATT, 0.00, 0.55, -5.57, -3.59, 0.00, 67.21, 72.39
CTUN, 585, 0.00, 1.86, 0.000000, 0.00, 0, -47, 585, 0
GPS, 3, 459226400, 10, 1.78, -33.7840642, 151.0681892, 1.84, 99.93, 0.46, 243.35
CTUN, 585, 0.00, 1.74, 0.000000, 0.00, 1, -52, 586, 0
ATT, 0.00, 0.37, -4.60, -4.29, 0.00, 67.15, 72.39
CTUN, 584, 0.00, 1.76, 0.000000, 0.00, 1, -56, 586, 0
ATT, 0.00, 0.30, -4.00, -4.18, 0.00, 67.18, 72.39
GPS, 3, 459226600, 10, 1.78, -33.7840643, 151.0681901, 1.72, 99.76, 0.41, 243.35
CTUN, 585, 0.00, 1.69, 0.000000, 0.00, 1, -61, 586, 0
ATT, 0.00, 0.52, -0.36, -3.31, 0.00, 67.33, 72.39
CTUN, 587, 0.00, 1.66, 0.000000, 0.00, 0, -64, 583, 0
ATT, 0.00, 0.61, 0.00, -1.48, 0.00, 67.55, 72.39
GPS, 3, 459226800, 10, 1.78, -33.7840638, 151.0681912, 1.60, 99.65, 0.45, 243.35
CTUN, 586, 0.00, 1.60, 0.000000, 0.00, 0, -68, 586, 0
ATT, 0.00, 0.85, 0.00, -0.20, 0.00, 67.84, 72.39
CTUN, 584, 0.00, 1.52, 0.000000, 0.00, 0, -72, 584, 0
GPS, 3, 459227000, 10, 1.78, -33.7840634, 151.0681923, 1.47, 99.50, 0.48, 243.35
ATT, 0.00, 0.35, 0.00, 0.03, 0.00, 68.34, 72.39
CTUN, 584, 0.00, 1.39, 0.000000, 0.00, 0, -75, 584, 0
DU32, 7, 82041
CURR, 584, 75851, 1062, 1323, 4732, 56.31750
ATT, 0.00, 0.25, 0.00, 0.11, 0.00, 68.81, 72.39
CTUN, 588, 0.00, 1.28, 0.000000, 0.00, 0, -79, 586, 0
GPS, 3, 459227200, 10, 1.78, -33.7840632, 151.0681931, 1.29, 99.35, 0.36, 243.35
ATT, 0.00, 0.22, 0.00, 0.17, 0.00, 69.35, 72.39
CTUN, 589, 0.00, 1.25, 0.000000, 0.00, 0, -82, 589, 0
ATT, 0.00, 0.28, 0.00, 0.17, 0.00, 69.84, 72.39
CTUN, 594, 0.00, 1.22, 0.000000, 0.00, 0, -86, 590, 0
GPS, 3, 459227400, 11, 1.41, -33.7840627, 151.0681936, 1.13, 99.21, 0.28, 243.35
ATT, 0.00, 0.42, 0.00, -0.01, 0.00, 70.42, 72.39
CTUN, 619, 0.00, 1.05, 0.000000, 0.00, 0, -88, 617, 0
ATT, 0.00, 0.35, 0.00, -0.16, 0.00, 70.85, 72.39
CTUN, 623, 0.00, 1.00, 0.000000, 0.00, 0, -87, 620, 0
GPS, 3, 459227600, 11, 1.41, -33.7840626, 151.0681944, 0.96, 99.06, 0.37, 243.35
CTUN, 642, 0.00, 0.93, 0.000000, 0.00, 0, -85, 642, 0
ATT, 0.00, 0.42, 0.00, -0.23, 0.00, 71.26, 72.39
CTUN, 657, 0.00, 0.82, 0.000000, 0.00, 0, -81, 649, 0
ATT, 0.00, 0.40, 0.00, -0.24, 0.00, 71.41, 72.39
GPS, 3, 459227800, 11, 1.41, -33.7840622, 151.0681947, 0.79, 98.91, 0.17, 243.35
CTUN, 667, 0.00, 0.84, 0.000000, 0.00, 0, -74, 667, 0
ATT, 0.00, 0.35, 0.00, -0.16, 0.00, 71.44, 72.39
CTUN, 678, 0.00, 0.72, 0.000000, 0.00, 0, -64, 672, 0
ATT, 0.00, 0.15, 0.00, -0.13, 0.00, 71.34, 72.39
GPS, 3, 459228000, 10, 1.52, -33.7840617, 151.0681948, 0.66, 98.73, 0.19, 243.35
CTUN, 679, 0.00, 0.68, 0.000000, 0.00, 0, -55, 678, 0
DU32, 7, 82041
CURR, 678, 82118, 1042, 1643, 4732, 60.73457
ATT, 0.00, 0.12, 0.00, -0.26, 0.00, 71.11, 72.39
CTUN, 678, 0.00, 0.55, 0.000000, 0.00, 0, -45, 678, 0
GPS, 3, 459228200, 10, 1.52, -33.7840615, 151.0681950, 0.57, 98.57, 0.14, 243.35
ATT, 0.00, 0.23, 0.00, -0.38, 0.00, 70.77, 72.39
CTUN, 678, 0.00, 0.59, 0.000000, 0.00, 0, -31, 678, 0
ATT, 0.00, 0.47, 0.00, -0.47, 0.00, 70.45, 72.39
CTUN, 678, 0.00, 0.52, 0.000000, 0.00, 0, -22, 681, 0
GPS, 3, 459228400, 10, 1.52, -33.7840613, 151.0681948, 0.52, 98.45, 0.11, 243.35
ATT, 0.00, 0.52, 0.00, -0.51, 0.00, 70.04, 72.39
CTUN, 678, 0.00, 0.69, 0.000000, 0.00, 0, -11, 678, 0
ATT, 0.00, 0.51, 0.00, -0.50, 0.00, 69.67, 72.39
CTUN, 678, 0.00, 0.71, 0.000000, 0.00, 0, -1, 678, 0
GPS, 3, 459228600, 10, 1.52, -33.7840613, 151.0681943, 0.52, 98.34, 0.22, 243.35
CTUN, 681, 0.00, 0.57, 0.000000, 0.00, 0, 8, 681, 0
ATT, 0.00, 0.49, 0.00, -0.72, 0.00, 69.24, 72.39
CTUN, 679, 0.00, 0.62, 0.000000, 0.00, 0, 17, 679, 0
ATT, 3.11, 0.45, -1.09, -0.66, 0.00, 68.92, 72.39
GPS, 3, 459228800, 10, 1.52, -33.7840612, 151.0681941, 0.56, 98.28, 0.11, 243.35
CTUN, 679, 0.00, 0.74, 0.000000, 0.00, 0, 26, 678, 0
ATT, 4.96, 1.67, -1.94, -1.28, 0.00, 68.60, 72.39
CTUN, 679, 0.00, 0.72, 0.000000, 0.00, 0, 36, 679, 0
ATT, 4.26, 2.88, -1.69, -1.72, 0.00, 68.46, 72.39
GPS, 3, 459229000, 11, 1.41, -33.7840606, 151.0681936, 0.64, 98.33, 0.21, 243.35
CTUN, 678, 0.00, 0.76, 0.000000, 0.00, 1, 45, 679, 0
DU32, 7, 82041
CURR, 678, 88221, 1040, 1678, 4752, 65.33981
ATT, 6.23, 3.52, -2.30, -2.01, 0.00, 68.40, 72.39
CTUN, 678, 0.00, 0.80, 0.000000, 0.00, 1, 54, 680, 0
GPS, 3, 459229200, 11, 1.41, -33.7840603, 151.0681931, 0.75, 98.35, 0.21, 243.35
ATT, 4.96, 5.52, -1.57, -2.37, 0.00, 68.31, 72.39
CTUN, 678, 0.00, 0.79, 0.000000, 0.00, 2, 64, 681, 0
ATT, 1.15, 5.12, -1.33, -1.72, 0.00, 68.37, 72.39
CTUN, 669, 0.00, 0.93, 0.000000, 0.00, 2, 71, 676, 0
GPS, 3, 459229400, 11, 1.41, -33.7840598, 151.0681925, 0.90, 98.48, 0.21, 243.35
ATT, 0.46, 3.12, -1.81, -1.34, 0.00, 68.42, 72.39
CTUN, 660, 0.00, 0.90, 0.000000, 0.00, 0, 79, 660, 0
ATT, 0.00, 2.15, -1.81, -1.70, 0.00, 68.42, 72.39
CTUN, 632, 0.00, 1.00, 0.000000, 0.00, 0, 83, 632, 0
GPS, 3, 459229600, 11, 1.41, -33.7840595, 151.0681920, 1.06, 98.65, 0.24, 243.35
CTUN, 629, 0.00, 1.07, 0.000000, 0.00, 0, 84, 630, 0
ATT, 0.00, 1.01, -4.12, -1.90, 0.00, 68.44, 72.39
CTUN, 630, 0.00, 1.15, 0.000000, 0.00, 0, 83, 630, 0
ATT, 5.42, 0.57, -5.33, -2.92, 0.00, 68.50, 72.39
GPS, 3, 459229800, 11, 1.41, -33.7840592, 151.0681917, 1.22, 98.83, 0.19, 243.35
CTUN, 630, 0.00, 1.39, 0.000000, 0.00, 1, 82, 631, 0
ATT, 3.92, 2.42, -4.85, -4.28, 0.00, 68.35, 72.39
CTUN, 617, 0.00, 1.40, 0.000000, 0.00, 1, 83, 629, 0
ATT, 1.15, 2.90, -4.36, -3.91, 0.00, 68.28, 72.39
GPS, 3, 459230000, 11, 1.41, -33.7840588, 151.0681913, 1.39, 99.00, 0.14, 243.35
CTUN, 607, 0.00, 1.41, 0.000000, 0.00, 1, 81, 607, 0
DU32, 7, 82041
CURR, 607, 94041, 1054, 1431, 4732, 69.64983
ATT, 0.00, 1.61, -3.63, -3.85, 0.00, 68.41, 72.39
CTUN, 601, 0.00, 1.62, 0.000000, 0.00, 1, 77, 607, 0
GPS, 3, 459230200, 11, 1.41, -33.7840587, 151.0681911, 1.55, 99.13, 0.20, 243.35
ATT, 0.00, 1.04, -3.88, -3.53, 0.00, 68.59, 72.39
CTUN, 601, 0.00, 1.73, 0.000000, 0.00, 0, 71, 601, 0
ATT, 0.00, 0.87, -3.51, -3.36, 0.00, 68.66, 72.39
CTUN, 601, 0.00, 1.75, 0.000000, 0.00, 0, 66, 601, 0
GPS, 3, 459230400, 11, 1.41, -33.7840582, 151.0681910, 1.70, 99.24, 0.10, 243.35
ATT, 0.46, 0.51, -4.73, -3.42, 0.00, 68.76, 72.39
CTUN, 601, 0.00, 1.98, 0.000000, 0.00, 0, 59, 600, 0
ATT, 0.69, 0.62, -4.48, -4.01, 0.00, 68.81, 72.39
CTUN, 601, 0.00, 2.02, 0.000000, 0.00, 1, 54, 602, 0
GPS, 3, 459230600, 11, 1.41, -33.7840586, 151.0681911, 1.83, 99.28, 0.20, 243.35
CTUN, 602, 0.00, 2.05, 0.000000, 0.00, 1, 47, 603, 0
ATT, 0.69, 0.89, -4.85, -4.02, 0.00, 68.83, 72.39
CTUN, 601, 0.00, 2.08, 0.000000, 0.00, 1, 43, 602, 0
ATT, 0.00, 1.03, -4.24, -3.90, 0.00, 68.81, 72.39
GPS, 3, 459230800, 11, 1.41, -33.7840588, 151.0681911, 1.95, 99.26, 0.14, 243.35
CTUN, 601, 0.00, 2.16, 0.000000, 0.00, 1, 38, 602, 0
ATT, 0.00, 0.65, -4.36, -3.65, 0.00, 68.77, 72.39
CTUN, 601, 0.00, 2.17, 0.000000, 0.00, 0, 34, 601, 0
ATT, 0.00, 0.48, -4.24, -3.65, 0.00, 68.67, 72.39
GPS, 3, 459231000, 11, 1.41, -33.7840587, 151.0681911, 2.04, 99.27, 0.09, 243.35
CTUN, 602, 0.00, 2.23, 0.000000, 0.00, 1, 30, 602, 0
ATT, 0.00, 0.05, -3.76, -3.83, 0.00, 68.56, 72.39
DU32, 7, 82041
CURR, 602, 99461, 1054, 1368, 4732, 73.45902
CTUN, 602, 0.00, 2.34, 0.000000, 0.00, 1, 25, 603, 0
GPS, 3, 459231200, 11, 1.41, -33.7840586, 151.0681912, 2.11, 99.26, 0.08, 243.35
ATT, 0.00, -0.32, -3.76, -3.50, 0.00, 68.46, 72.39
CTUN, 602, 0.00, 2.30, 0.000000, 0.00, 0, 20, 602, 0
ATT, 0.00, -0.45, -3.51, -3.22, 0.00, 68.38, 72.39
CTUN, 602, 0.00, 2.34, 0.000000, 0.00, 0, 16, 602, 0
GPS, 3, 459231400, 11, 1.41, -33.7840584, 151.0681918, 2.18, 99.28, 0.25, 243.35
ATT, 0.00, -0.51, -3.27, -2.85, 0.00, 68.28, 72.39
CTUN, 602, 0.00, 2.41, 0.000000, 0.00, 0, 10, 602, 0
ATT, 0.00, -0.60, -3.27, -2.67, 0.00, 68.18, 72.39
CTUN, 602, 0.00, 2.45, 0.000000, 0.00, 0, 7, 602, 0
GPS, 3, 459231600, 11, 1.41, -33.7840578, 151.0681921, 2.22, 99.33, 0.18, 243.35
CTUN, 602, 0.00, 2.33, 0.000000, 0.00, 0, 4, 602, 0
ATT, 1.15, -0.62, -2.54, -2.64, 0.00, 68.05, 72.39
CTUN, 602, 0.00, 2.36, 0.000000, 0.00, 0, 2, 602, 0
ATT, 1.50, -0.25, -2.42, -2.44, 0.00, 67.90, 72.39
GPS, 3, 459231800, 11, 1.41, -33.7840575, 151.0681925, 2.24, 99.36, 0.22, 243.35
CTUN, 603, 0.00, 2.32, 0.000000, 0.00, 0, 0, 602, 0
ATT, 3.34, 0.55, -3.15, -2.27, 0.00, 67.71, 72.39
CTUN, 602, 0.00, 2.37, 0.000000, 0.00, 0, 0, 601, 0
ATT, 4.73, 1.91, -3.15, -2.42, 0.00, 67.52, 72.39
GPS, 3, 459232000, 11, 1.41, -33.7840573, 151.0681928, 2.26, 99.27, 0.11, 243.35
CTUN, 601, 0.00, 2.44, 0.000000, 0.00, 0, -2, 600, 0
ATT, 5.53, 3.27, -3.39, -2.36, 0.00, 67.38, 72.39
DU32, 7, 82041
CURR, 600, 104878, 1058, 1386, 4712, 77.29274
CTUN, 601, 0.00, 2.53, 0.000000, 0.00, 1, -4, 602, 0
GPS, 3, 459232200, 11, 1.41, -33.7840567, 151.0681931, 2.27, 99.25, 0.24, 243.35
ATT, 5.88, 4.36, -3.03, -2.36, 0.00, 67.32, 72.39
CTUN, 601, 0.00, 2.44, 0.000000, 0.00, 1, -6, 602, 0
ATT, 8.42, 5.02, -1.81, -2.37, 0.00, 67.38, 72.39
CTUN, 601, 0.00, 2.46, 0.000000, 0.00, 2, -8, 602, 0
GPS, 3, 459232400, 11, 1.41, -33.7840564, 151.0681935, 2.28, 99.21, 0.18, 243.35
PM, 0, 0, 50, 0, 1000, 10428, 0, 4
ATT, 7.38, 6.52, -1.69, -1.63, 0.00, 67.56, 72.39
CTUN, 600, 0.00, 2.47, 0.000000, 0.00, 3, -10, 603, 0
ATT, 5.65, 6.45, -3.03, -1.45, 0.00, 67.82, 72.39
CTUN, 600, 0.00, 2.36, 0.000000, 0.00, 3, -12, 604, 0
GPS, 3, 459232600, 11, 1.41, -33.7840559, 151.0681938, 2.28, 99.13, 0.18, 243.35
CTUN, 603, 0.00, 2.39, 0.000000, 0.00, 2, -14, 605, 0
ATT, 5.30, 5.23, -3.76, -2.25, 0.00, 68.20, 72.39
CTUN, 603, 0.00, 2.35, 0.000000, 0.00, 2, -15, 605, 0
ATT, 2.07, 4.52, -4.24, -2.98, 0.00, 68.48, 72.39
GPS, 3, 459232800, 10, 1.52, -33.7840559, 151.0681941, 2.26, 99.09, 0.12, 243.35
CTUN, 603, 0.00, 2.39, 0.000000, 0.00, 1, -17, 604, 0
ATT, 0.00, 2.08, -4.73, -3.63, 0.00, 68.90, 72.39
CTUN, 601, 0.00, 2.46, 0.000000, 0.00, 1, -21, 602, 0
ATT, 0.00, 0.37, -5.21, -4.57, 0.00, 69.23, 72.39
GPS, 3, 459233000, 10, 1.47, -33.7840556, 151.0681945, 2.24, 99.05, 0.27, 243.35
CTUN, 602, 0.00, 2.30, 0.000000, 0.00, 1, -22, 604, 0
ATT, 0.00, -0.28, -5.33, -5.02, 0.00, 69.48, 72.39
DU32, 7, 82041
CURR, 604, 110304, 1059, 1361, 4693, 81.11082
CTUN, 602, 0.00, 2.38, 0.000000, 0.00, 1, -26, 605, 0
GPS, 3, 459233200, 11, 1.41, -33.7840556, 151.0681950, 2.20, 98.97, 0.18, 243.35
ATT, 0.00, -0.68, -5.33, -5.38, 0.00, 69.58, 72.39
CTUN, 601, 0.00, 2.32, 0.000000, 0.00, 2, -26, 603, 0
ATT, 2.07, -0.57, -4.73, -5.34, 0.00, 69.57, 72.39
CTUN, 602, 0.00, 2.21, 0.000000, 0.00, 2, -28, 604, 0
GPS, 3, 459233400, 11, 1.41, -33.7840554, 151.0681956, 2.16, 98.93, 0.35, 243.35
ATT, 0.80, 0.76, -3.27, -4.84, 0.00, 69.44, 72.39
CTUN, 602, 0.00, 2.21, 0.000000, 0.00, 1, -29, 603, 0
ATT, 1.84, 1.26, -3.03, -3.88, 0.00, 69.24, 72.39
CTUN, 602, 0.00, 2.16, 0.000000, 0.00, 1, -27, 603, 0
GPS, 3, 459233600, 11, 1.41, -33.7840552, 151.0681963, 2.11, 98.86, 0.40, 243.35
ATT, 1.03, 1.51, -2.54, -3.67, 0.00, 68.99, 72.39
CTUN, 601, 0.00, 2.22, 0.000000, 0.00, 1, -30, 602, 0
ATT, 1.26, 1.32, -1.94, -2.90, 0.00, 68.74, 72.39
CTUN, 602, 0.00, 2.19, 0.000000, 0.00, 0, -30, 602, 0
GPS, 3, 459233800, 11, 1.41, -33.7840553, 151.0681973, 2.06, 98.77, 0.44, 184.00
CTUN, 601, 0.00, 2.04, 0.000000, 0.00, 0, -30, 601, 0
ATT, 0.57, 1.38, -1.94, -2.38, 0.00, 68.56, 72.39
CTUN, 602, 0.00, 2.09, 0.000000, 0.00, 0, -31, 602, 0
ATT, 0.00, 1.08, -0.60, -1.82, 0.00, 68.54, 72.39
GPS, 3, 459234000, 11, 1.41, -33.7840554, 151.0681984, 2.01, 98.66, 0.46, 134.12
CTUN, 602, 0.00, 2.05, 0.000000, 0.00, 0, -33, 602, 0
ATT, 0.00, 0.73, -0.84, -0.76, 0.00, 68.58, 72.39
CTUN, 602, 0.00, 2.08, 0.000000, 0.00, 0, -35, 602, 0
DU32, 7, 82041
CURR, 602, 116329, 1054, 1379, 4752, 85.24817
ATT, 0.00, 0.70, -0.48, -0.49, 0.00, 68.63, 72.39
GPS, 3, 459234200, 11, 1.41, -33.7840552, 151.0681992, 1.94, 98.56, 0.40, 134.12
CTUN, 602, 0.00, 2.01, 0.000000, 0.00, 0, -35, 602, 0
ATT, 0.00, 0.34, 0.00, -0.38, 0.00, 68.79, 72.39
CTUN, 601, 0.00, 1.99, 0.000000, 0.00, 0, -38, 602, 0
ATT, 0.00, 0.37, 0.00, -0.11, 0.00, 68.96, 72.39
GPS, 3, 459234400, 11, 1.41, -33.7840554, 151.0682000, 1.88, 98.41, 0.26, 134.12
CTUN, 602, 0.00, 1.97, 0.000000, 0.00, 0, -40, 602, 0
ATT, 0.00, 0.47, 0.00, 0.01, 0.00, 69.11, 72.39
CTUN, 602, 0.00, 1.79, 0.000000, 0.00, 0, -41, 601, 0
GPS, 3, 459234600, 11, 1.41, -33.7840556, 151.0682006, 1.80, 98.23, 0.32, 134.12
ATT, 0.00, 0.57, 0.00, 0.03, 0.00, 69.25, 72.39
CTUN, 602, 0.00, 1.81, 0.000000, 0.00, 0, -45, 601, 0
ATT, 0.00, 0.72, 0.00, 0.08, 0.00, 69.33, 72.39
CTUN, 601, 0.00, 1.77, 0.000000, 0.00, 0, -46, 602, 0
GPS, 3, 459234800, 11, 1.41, -33.7840554, 151.0682014, 1.71, 98.17, 0.26, 134.12
CTUN, 602, 0.00, 1.73, 0.000000, 0.00, 0, -49, 601, 0
ATT, 0.00, 0.93, 0.00, 0.12, 0.00, 69.36, 72.39
CTUN, 602, 0.00, 1.78, 0.000000, 0.00, 0, -52, 601, 0
ATT, 0.00, 0.69, 0.00, -0.02, 0.00, 69.41, 72.39
GPS, 3, 459235000, 11, 1.41, -33.7840555, 151.0682016, 1.62, 97.99, 0.06, 134.12
CTUN, 601, 0.00, 1.60, 0.000000, 0.00, 0, -53, 602, 0
ATT, 0.00, 0.69, 0.00, -0.11, 0.00, 69.47, 72.39
CTUN, 601, 0.00, 1.57, 0.000000, 0.00, 0, -56, 602, 0
ATT, 0.00, 0.60, 0.00, -0.20, 0.00, 69.60, 72.39
GPS, 3, 459235200, 11, 1.41, -33.7840555, 151.0682016, 1.51, 97.84, 0.02, 134.12
CTUN, 602, 0.00, 1.49, 0.000000, 0.00, 0, -58, 602, 0
DU32, 7, 82041
CURR, 602, 122346, 1057, 1358, 4693, 89.48223
ATT, 0.00, 0.36, 0.00, -0.37, 0.00, 69.77, 72.39
CTUN, 602, 0.00, 1.43, 0.000000, 0.00, 0, -61, 604, 0
ATT, 0.00, 0.31, 0.00, -0.59, 0.00, 69.91, 72.39
GPS, 3, 459235400, 11, 1.41, -33.7840552, 151.0682014, 1.39, 97.73, 0.11, 134.12
CTUN, 602, 0.00, 1.44, 0.000000, 0.00, 0, -64, 602, 0
ATT, 0.00, 0.18, 0.00, -0.68, 0.00, 70.00, 72.39
CTUN, 602, 0.00, 1.32, 0.000000, 0.00, 0, -66, 601, 0
GPS, 3, 459235600, 11, 1.41, -33.7840545, 151.0682009, 1.26, 97.55, 0.40, 41.57
ATT, 0.00, 0.24, 0.00, -0.77, 0.00, 70.06, 72.39
CTUN, 604, 0.00, 1.22, 0.000000, 0.00, 0, -69, 602, 0
ATT, 0.00, 0.20, 0.00, -0.72, 0.00, 70.13, 72.39
CTUN, 601, 0.00, 1.20, 0.000000, 0.00, 0, -70, 602, 0
GPS, 3, 459235800, 11, 1.41, -33.7840543, 151.0682006, 1.12, 97.38, 0.23, 41.57
ATT, 0.00, 0.08, 0.00, -0.68, 0.00, 70.18, 72.39
CTUN, 603, 0.00, 1.16, 0.000000, 0.00, 0, -73, 603, 0
ATT, 0.00, 0.19, 0.00, -0.70, 0.00, 70.18, 72.39
CTUN, 611, 0.00, 1.00, 0.000000, 0.00, 0, -75, 612, 0
GPS, 3, 459236000, 11, 1.41, -33.7840538, 151.0682001, 0.98, 97.19, 0.32, 41.57
CTUN, 616, 0.00, 0.95, 0.000000, 0.00, 0, -74, 616, 0
ATT, 0.00, 0.07, 0.00, -0.61, 0.00, 70.08, 72.39
CTUN, 616, 0.00, 0.95, 0.000000, 0.00, 0, -75, 616, 0
ATT, 0.00, -0.01, 0.00, -0.48, 0.00, 69.83, 72.39
GPS, 3, 459236200, 11, 1.41, -33.7840533, 151.0681995, 0.84, 97.02, 0.37, 41.57
CTUN, 623, 0.00, 0.91, 0.000000, 0.00, 0, -75, 623, 0
ATT, 0.46, -0.11, 0.00, -0.53, 0.00, 69.31, 72.39
DU32, 7, 82041
CURR, 623, 127812, 1052, 1421, 4752, 93.16582
CTUN, 623, 0.00, 0.75, 0.000000, 0.00, 0, -75, 623, 0
ATT, 2.76, 0.38, -1.33, -0.59, 0.00, 68.81, 72.39
GPS, 3, 459236400, 11, 1.41, -33.7840528, 151.0681988, 0.69, 96.83, 0.39, 41.57
CTUN, 639, 0.00, 0.67, 0.000000, 0.00, 0, -73, 632, 0
ATT, 4.61, 2.37, -2.54, -1.20, 0.00, 68.13, 72.39
CTUN, 654, 0.00, 0.54, 0.000000, 0.00, 0, -69, 654, 0
ATT, 1.61, 2.73, -1.57, -1.73, 0.00, 67.65, 72.39
GPS, 3, 459236600, 11, 1.41, -33.7840527, 151.0681979, 0.55, 96.63, 0.41, 41.57
CTUN, 656, 0.00, 0.54, 0.000000, 0.00, 0, -60, 656, 0
ATT, 1.26, 2.42, -1.57, -1.65, 0.00, 67.24, 72.39
CTUN, 656, 0.00, 0.57, 0.000000, 0.00, 0, -54, 656, 0
GPS, 3, 459236800, 11, 1.41, -33.7840520, 151.0681971, 0.44, 96.41, 0.45, 41.57
ATT, 1.03, 1.84, -1.33, -1.37, 0.00, 66.83, 72.39
CTUN, 655, 0.00, 0.39, 0.000000, 0.00, 0, -47, 655, 0
ATT, 0.80, 1.54, -1.09, -1.48, 0.00, 66.47, 72.39
CTUN, 655, 0.00, 0.36, 0.000000, 0.00, 0, -41, 656, 0
GPS, 3, 459237000, 11, 1.41, -33.7840515, 151.0681962, 0.35, 96.31, 0.44, 41.57
CTUN, 657, 0.00, 0.33, 0.000000, 0.00, 0, -35, 657, 0
ATT, 0.92, 1.42, -1.09, -1.48, 0.00, 66.13, 72.39
CTUN, 657, 0.00, 0.28, 0.000000, 0.00, 0, -29, 657, 0
ATT, 1.15, 1.64, -1.09, -1.39, 0.00, 65.88, 72.39
GPS, 3, 459237200, 11, 1.41, -33.7840512, 151.0681953, 0.30, 96.19, 0.44, 41.57
CTUN, 657, 0.00, 0.30, 0.000000, 0.00, 0, -23, 657, 0
ATT, 3.11, 2.14, -1.81, -1.48, 0.00, 65.68, 72.39
DU32, 7, 82041
CURR, 657, 133657, 1036, 1590, 4712, 97.47314
CTUN, 657, 0.00, 0.30, 0.000000, 0.00, 0, -17, 657, 0
ATT, 6.69, 2.92, -2.78, -1.59, 0.00, 65.50, 72.39
GPS, 3, 459237400, 11, 1.41, -33.7840510, 151.0681946, 0.25, 96.11, 0.36, 41.57
CTUN, 657, 0.00, 0.22, 0.000000, 0.00, 0, -12, 657, 0
ATT, 7.96, 5.17, -4.12, -2.36, 0.00, 65.23, 72.39
CTUN, 658, 0.00, 0.29, 0.000000, 0.00, 3, -6, 662, 0
ATT, 7.26, 6.49, -4.12, -2.82, 0.00, 65.08, 72.39
GPS, 3, 459237600, 11, 1.41, -33.7840510, 151.0681936, 0.24, 96.00, 0.46, 41.57
CTUN, 657, 0.00, 0.18, 0.000000, 0.00, 4, 1, 661, 0
ATT, 7.15, 7.00, -4.24, -3.21, 0.00, 64.98, 72.39
CTUN, 658, 0.00, 0.22, 0.000000, 0.00, 4, 6, 662, 0
GPS, 3, 459237800, 11, 1.41, -33.7840508, 151.0681930, 0.25, 95.98, 0.32, 41.57
ATT, 6.69, 7.14, -4.48, -3.59, 0.00, 64.99, 72.39
CTUN, 658, 0.00, 0.21, 0.000000, 0.00, 5, 12, 663, 0
ATT, 4.38, 6.61, -5.57, -3.85, 0.00, 65.11, 72.39
CTUN, 658, 0.00, 0.16, 0.000000, 0.00, 4, 16, 662, 0
GPS, 3, 459238000, 11, 1.41, -33.7840510, 151.0681924, 0.27, 95.98, 0.34, 41.57
CTUN, 658, 0.00, 0.26, 0.000000, 0.00, 3, 22, 659, 0
ATT, 2.53, 4.86, -6.30, -4.52, 0.00, 65.36, 72.39
CTUN, 658, 0.00, 0.20, 0.000000, 0.00, 3, 27, 661, 0
ATT, 1.03, 3.21, -7.27, -5.23, 0.00, 65.60, 72.39
GPS, 3, 459238200, 10, 1.51, -33.7840516, 151.0681922, 0.31, 96.00, 0.42, 112.16
CTUN, 658, 0.00, 0.23, 0.000000, 0.00, 2, 33, 660, 0
ATT, 0.00, 1.59, -7.64, -5.60, 0.00, 65.82, 72.39
DU32, 7, 82041
CURR, 658, 139603, 1038, 1613, 4712, 101.9305
CTUN, 658, 0.00, 0.29, 0.000000, 0.00, 2, 38, 660, 0
ATT, 0.00, 0.74, -7.15, -6.20, 0.00, 65.91, 72.39
GPS, 3, 459238400, 11, 1.41, -33.7840520, 151.0681918, 0.38, 96.00, 0.34, 112.16
CTUN, 657, 0.00, 0.31, 0.000000, 0.00, 3, 42, 660, 0
ATT, 0.00, 0.18, -7.15, -6.51, 0.00, 65.88, 72.39
CTUN, 657, 0.00, 0.40, 0.000000, 0.00, 3, 47, 660, 0
ATT, 0.00, 0.08, -7.27, -6.52, 0.00, 65.85, 72.39
GPS, 3, 459238600, 11, 1.41, -33.7840524, 151.0681921, 0.47, 95.98, 0.37, 138.87
CTUN, 658, 0.00, 0.41, 0.000000, 0.00, 3, 53, 662, 0
ATT, 0.57, 0.04, -5.82, -6.54, 0.00, 65.89, 72.39
CTUN, 669, 0.00, 0.47, 0.000000, 0.00, 3, 57, 660, 0
ATT, 3.34, 0.37, -4.97, -5.97, 0.00, 65.98, 72.39
GPS, 3, 459238800, 11, 1.41, -33.7840527, 151.0681926, 0.57, 96.08, 0.46, 144.64
CTUN, 668, 0.00, 0.42, 0.000000, 0.00, 2, 62, 672, 0
ATT, 2.65, 1.90, -4.24, -5.23, 0.00, 66.12, 72.39
CTUN, 671, 0.00, 0.65, 0.000000, 0.00, 2, 68, 672, 0
GPS, 3, 459239000, 11, 1.41, -33.7840532, 151.0681934, 0.69, 96.16, 0.56, 144.25
ATT, 0.00, 2.24, -4.97, -3.97, 0.00, 66.42, 72.39
CTUN, 661, 0.00, 0.65, 0.000000, 0.00, 1, 74, 670, 0
ATT, 0.00, 1.25, -4.36, -3.86, 0.00, 66.87, 72.39
CTUN, 607, 0.00, 0.79, 0.000000, 0.00, 1, 79, 612, 0
GPS, 3, 459239200, 11, 1.41, -33.7840524, 151.0681940, 0.84, 96.36, 0.29, 144.25
ATT, 0.00, 1.20, -4.36, -3.07, 0.00, 67.37, 72.39
CTUN, 606, 0.00, 0.88, 0.000000, 0.00, 0, 77, 607, 0
DU32, 7, 82041
CURR, 606, 146133, 1045, 1364, 4732, 106.6898
ATT, 0.00, 1.24, -4.12, -2.98, 0.00, 67.90, 72.39
CTUN, 610, 0.00, 0.92, 0.000000, 0.00, 0, 73, 610, 0
GPS, 3, 459239400, 11, 1.41, -33.7840518, 151.0681950, 0.97, 96.46, 0.49, 144.25
CTUN, 607, 0.00, 1.16, 0.000000, 0.00, 0, 67, 607, 0
ATT, 0.00, 0.67, -2.91, -3.20, 0.00, 68.56, 72.39
CTUN, 610, 0.00, 1.16, 0.000000, 0.00, 0, 62, 609, 0
ATT, 0.00, 0.62, -2.30, -2.79, 0.00, 68.95, 72.39
GPS, 3, 459239600, 11, 1.41, -33.7840510, 151.0681959, 1.12, 96.77, 0.39, 144.25
CTUN, 610, 0.00, 1.29, 0.000000, 0.00, 0, 58, 610, 0
ATT, 0.00, 0.61, -2.42, -2.11, 0.00, 69.18, 72.39
CTUN, 610, 0.00, 1.31, 0.000000, 0.00, 0, 53, 610, 0
ATT, 0.00, 0.79, -2.42, -1.94, 0.00, 69.21, 72.39
GPS, 3, 459239800, 11, 1.41, -33.7840510, 151.0681969, 1.25, 96.89, 0.45, 144.25
CTUN, 610, 0.00, 1.24, 0.000000, 0.00, 0, 51, 610, 0
ATT, 0.00, 0.59, -2.30, -1.84, 0.00, 69.08, 72.39
CTUN, 609, 0.00, 1.37, 0.000000, 0.00, 0, 46, 609, 0
GPS, 3, 459240000, 11, 1.41, -33.7840506, 151.0681977, 1.35, 97.05, 0.39, 144.25
ATT, 0.00, 0.52, -1.69, -1.91, 0.00, 68.84, 72.39
CTUN, 607, 0.00, 1.37, 0.000000, 0.00, 0, 40, 607, 0
ATT, 0.00, 0.50, 0.00, -1.54, 0.00, 68.62, 72.39
CTUN, 609, 0.00, 1.44, 0.000000, 0.00, 0, 36, 609, 0
GPS, 3, 459240200, 11, 1.41, -33.7840503, 151.0681988, 1.42, 97.18, 0.46, 144.25
ATT, 0.00, 0.64, 0.00, -0.49, 0.00, 68.39, 72.39
CTUN, 609, 0.00, 1.52, 0.000000, 0.00, 0, 32, 609, 0
DU32, 7, 82041
CURR, 609, 151613, 1048, 1397, 4712, 110.5405
ATT, 0.00, 0.79, 0.00, 0.01, 0.00, 68.24, 72.39
CTUN, 609, 0.00, 1.45, 0.000000, 0.00, 0, 30, 609, 0
GPS, 3, 459240400, 11, 1.41, -33.7840498, 151.0681994, 1.49, 97.26, 0.35, 144.25
CTUN, 609, 0.00, 1.45, 0.000000, 0.00, 0, 26, 609, 0
ATT, 0.00, 0.48, 0.00, 0.00, 0.00, 68.11, 72.39
CTUN, 607, 0.00, 1.53, 0.000000, 0.00, 0, 22, 607, 0
ATT, 0.00, 0.13, 0.00, -0.09, 0.00, 68.02, 72.39
GPS, 3, 459240600, 11, 1.41, -33.7840498, 151.0682001, 1.54, 97.30, 0.33, 144.25
CTUN, 609, 0.00, 1.63, 0.000000, 0.00, 0, 17, 609, 0
ATT, 0.00, 0.07, -0.12, -0.28, 0.00, 67.83, 72.39
CTUN, 609, 0.00, 1.68, 0.000000, 0.00, 0, 13, 609, 0
ATT, 0.00, 0.02, -0.60, -0.56, 0.00, 67.62, 72.39
GPS, 3, 459240800, 11, 1.41, -33.7840495, 151.0682006, 1.57, 97.38, 0.22, 144.25
CTUN, 609, 0.00, 1.66, 0.000000, 0.00, 0, 9, 607, 0
ATT, 0.00, -0.27, -0.24, -0.96, 0.00, 67.42, 72.39
CTUN, 607, 0.00, 1.67, 0.000000, 0.00, 0, 5, 609, 0
GPS, 3, 459241000, 11, 1.41, -33.7840492, 151.0682008, 1.60, 97.43, 0.19, 144.25
ATT, 0.00, -0.36, -0.48, -1.12, 0.00, 67.19, 72.39
CTUN, 609, 0.00, 1.65, 0.000000, 0.00, 0, 1, 609, 0
ATT, 0.00, -0.42, -0.72, -1.08, 0.00, 66.97, 72.39
CTUN, 609, 0.00, 1.62, 0.000000, 0.00, 0, 0, 609, 0
GPS, 3, 459241200, 11, 1.41, -33.7840490, 151.0682009, 1.61, 97.43, 0.09, 144.25
ATT, 0.00, -0.49, -0.97, -1.19, 0.00, 66.79, 72.39
CTUN, 609, 0.00, 1.66, 0.000000, 0.00, 0, -2, 609, 0
DU32, 7, 82041
CURR, 609, 157090, 1048, 1398, 4712, 114.3992
ATT, 0.00, -0.40, -0.72, -1.35, 0.00, 66.69, 72.39
CTUN, 607, 0.00, 1.62, 0.000000, 0.00, 0, -4, 609, 0
GPS, 3, 459241400, 11, 1.41, -33.7840488, 151.0682009, 1.60, 97.42, 0.10, 144.25
CTUN, 609, 0.00, 1.66, 0.000000, 0.00, 0, -7, 609, 0
ATT, 0.00, -0.10, -0.72, -1.42, 0.00, 66.59, 72.39
CTUN, 609, 0.00, 1.68, 0.000000, 0.00, 0, -10, 609, 0
ATT, 0.00, 0.01, -0.24, -1.46, 0.00, 66.53, 72.39
GPS, 3, 459241600, 11, 1.41, -33.7840482, 151.0682007, 1.59, 97.42, 0.19, 144.25
CTUN, 609, 0.00, 1.59, 0.000000, 0.00, 0, -12, 609, 0
ATT, 0.00, 0.09, -0.12, -1.34, 0.00, 66.49, 72.39
CTUN, 616, 0.00, 1.63, 0.000000, 0.00, 0, -14, 614, 0
ATT, 0.00, 0.38, -0.12, -0.98, 0.00, 66.43, 72.39
GPS, 3, 459241800, 11, 1.41, -33.7840477, 151.0682005, 1.57, 97.35, 0.22, 144.25
CTUN, 630, 0.00, 1.71, 0.000000, 0.00, 0, -16, 630, 0
