dump 36

ArduCopter V3.1-rc5.1
Free RAM: 873
APM 2
FMT, 128, 89, FMT, BBnNZ, Type,Length,Name,Format
FMT, 129, 23, PARM, Nf, Name,Value
FMT, 130, 35, GPS, BIBcLLeeEe, Status,Time,NSats,HDop,Lat,Lng,RelAlt,Alt,Spd,GCrs
FMT, 131, 27, IMU, ffffff, GyrX,GyrY,GyrZ,AccX,AccY,AccZ
FMT, 132, 67, MSG, Z, Message
FMT, 25, 25, ATUN, BBfffff, Axis,TuneStep,RateMin,RateMax,RPGain,RDGain,SPGain
FMT, 26, 9, ATDE, cf, Angle,Rate
FMT, 9, 19, CURR, hIhhhf, Thr,ThrInt,Volt,Curr,Vcc,CurrTot
FMT, 11, 11, MOT, hhhh, Mot1,Mot2,Mot3,Mot4
FMT, 12, 28, OF, hhBccffee, Dx,Dy,SQual,X,Y,Lat,Lng,Roll,Pitch
FMT, 5, 49, NTUN, Ecffffffffee, WPDst,WPBrg,PErX,PErY,DVelX,DVelY,VelX,VelY,DAcX,DAcY,DRol,DPit
FMT, 4, 25, CTUN, hcefchhhh, ThrIn,SonAlt,BarAlt,WPAlt,DesSonAlt,AngBst,CRate,ThrOut,DCRate
FMT, 15, 21, MAG, hhhhhhhhh, MagX,MagY,MagZ,OfsX,OfsY,OfsZ,MOfsX,MOfsY,MOfsZ
FMT, 6, 17, PM, BBBHHIhB, RenCnt,RenBlw,FixCnt,NLon,NLoop,MaxT,PMT,I2CErr
FMT, 8, 20, CMD, BBBBBeLL, CTot,CNum,CId,COpt,Prm1,Alt,Lat,Lng
FMT, 1, 17, ATT, cccccCC, RollIn,Roll,PitchIn,Pitch,YawIn,Yaw,NavYaw
FMT, 17, 37, INAV, cccfffiiff, BAlt,IAlt,IClb,ACorrX,ACorrY,ACorrZ,GLat,GLng,ILat,ILng
FMT, 3, 6, MODE, Mh, Mode,ThrCrs
FMT, 10, 3, STRT, , 
FMT, 13, 4, EV, B, Id
FMT, 20, 6, D16, Bh, Id,Value
FMT, 21, 6, DU16, BH, Id,Value
FMT, 22, 8, D32, Bi, Id,Value
FMT, 23, 8, DU32, BI, Id,Value
FMT, 24, 8, DFLT, Bf, Id,Value
FMT, 14, 28, PID, Biiiiif, Id,Error,P,I,D,Out,Gain
FMT, 18, 25, CAM, ILLeccC, GPSTime,Lat,Lng,Alt,Roll,Pitch,Yaw
FMT, 19, 5, ERR, BB, Subsys,ECode
D32, 9, 12408
CMD, 1, 0, 16, 0, 0, 0.00, -33.7851404, 151.0662053
EV, 10
GPS, 3, 352184000, 11, 1.74, -33.7851405, 151.0662053, 1.14, 83.57, 0.00, 237.23
CTUN, 0, 0.00, -0.02, 0.000000, 0.00, 0, 0, 0, 0
ATT, 0.00, -2.90, 0.00, -2.58, 0.00, 124.13, 124.13
CTUN, 0, 0.00, -0.07, 0.000000, 0.00, 0, 0, 0, 0
GPS, 3, 352191600, 11, 1.74, -33.7851408, 151.0662075, 1.12, 83.67, 0.01, 237.23
ATT, 0.00, -2.89, 0.00, -2.55, 0.00, 124.07, 124.07
CTUN, 0, 0.00, -0.07, 0.000000, 0.00, 0, -1, 0, 0
ATT, 0.00, -2.88, 0.00, -2.52, 0.00, 124.02, 124.02
CTUN, 0, 0.00, -0.05, 0.000000, 0.00, 0, -3, 0, 0
GPS, 3, 352191800, 11, 1.74, -33.7851408, 151.0662075, 0.97, 83.68, 0.00, 237.23
ATT, 0.00, -2.87, 0.00, -2.47, 0.00, 123.99, 123.99
CTUN, 0, 0.00, -0.17, 0.000000, 0.00, 0, -4, 0, 0
ATT, 0.00, -2.87, 0.00, -2.45, 0.00, 123.97, 123.97
CTUN, 0, 0.00, -0.16, 0.000000, 0.00, 0, -5, 0, 0
GPS, 3, 352192000, 11, 1.74, -33.7851408, 151.0662076, 0.84, 83.68, 0.00, 237.23
ATT, 0.00, -2.88, 0.00, -2.42, 0.00, 123.94, 123.94
CTUN, 0, 0.00, -0.24, 0.000000, 0.00, 0, -7, 0, 0
ATT, 0.00, -2.87, 0.00, -2.37, 0.00, 123.93, 123.93
CTUN, 0, 0.00, -0.24, 0.000000, 0.00, 0, -8, 0, 0
GPS, 3, 352192200, 11, 1.74, -33.7851408, 151.0662076, 0.70, 83.68, 0.02, 237.23
ATT, 0.00, -2.86, 0.00, -2.34, 0.00, 123.91, 123.91
CTUN, 0, 0.00, -0.13, 0.000000, 0.00, 0, -9, 0, 0
ATT, 0.00, -2.85, 0.00, -2.31, 0.00, 123.91, 123.91
CTUN, 0, 0.00, -0.14, 0.000000, 0.00, 0, -10, 0, 0
GPS, 3, 352192400, 11, 1.74, -33.7851408, 151.0662076, 0.58, 83.68, 0.01, 237.23
ATT, 0.00, -2.87, 0.00, -2.27, 0.00, 123.88, 123.88
DU32, 7, 8793
CURR, 0, 0, 1217, 71, 4732, 5.644706
CTUN, 0, 0.00, -0.12, 0.000000, 0.00, 0, -11, 0, 0
ATT, 0.00, -2.85, 0.00, -2.23, 0.00, 123.89, 123.89
CTUN, 0, 0.00, -0.12, 0.000000, 0.00, 0, -12, 0, 0
GPS, 3, 352192600, 11, 1.74, -33.7851408, 151.0662077, 0.47, 83.69, 0.01, 237.23
ATT, 0.00, -2.88, 0.00, -2.19, 0.00, 123.87, 123.87
CTUN, 0, 0.00, 0.00, 0.000000, 0.00, 0, -13, 0, 0
ATT, 0.00, -2.87, 0.00, -2.16, 0.00, 123.85, 123.85
CTUN, 0, 0.00, -0.30, 0.000000, 0.00, 0, -13, 0, 0
GPS, 3, 352192800, 11, 1.74, -33.7851407, 151.0662077, 0.38, 83.69, 0.00, 237.23
ATT, 0.00, -2.86, 0.00, -2.13, 0.00, 123.85, 123.85
CTUN, 0, 0.00, -0.08, 0.000000, 0.00, 0, -15, 0, 0
ATT, 0.00, -2.88, 0.00, -2.09, 0.00, 123.84, 123.84
CTUN, 0, 0.00, -0.05, 0.000000, 0.00, 0, -16, 0, 0
GPS, 3, 352193000, 11, 1.74, -33.7851408, 151.0662077, 0.29, 83.70, 0.01, 237.23
ATT, 0.00, -2.85, 0.00, -2.07, 0.00, 123.83, 123.83
CTUN, 0, 0.00, -0.10, 0.000000, 0.00, 0, -16, 0, 0
ATT, 0.00, -2.87, 0.00, -2.03, 0.00, 123.83, 123.83
CTUN, 0, 0.00, -0.03, 0.000000, 0.00, 0, -17, 0, 0
GPS, 3, 352193200, 11, 1.74, -33.7851407, 151.0662078, 0.21, 83.70, 0.01, 237.23
ATT, 0.00, -2.86, 0.00, -2.00, 0.00, 123.82, 123.82
CTUN, 0, 0.00, 0.00, 0.000000, 0.00, 0, -17, 0, 0
ATT, 0.00, -2.84, 0.00, -1.97, 0.00, 123.81, 123.81
CTUN, 0, 0.00, -0.18, 0.000000, 0.00, 0, -17, 0, 0
GPS, 3, 352193400, 11, 1.74, -33.7851407, 151.0662078, 0.14, 83.71, 0.01, 237.23
ATT, 0.00, -2.84, 0.00, -1.92, 0.00, 123.81, 123.81
DU32, 7, 8793
CURR, 0, 0, 1210, 101, 4813, 5.896614
CTUN, 0, 0.00, -0.10, 0.000000, 0.00, 0, -18, 0, 0
ATT, 0.00, -2.83, 0.00, -1.91, 0.00, 123.81, 123.81
CTUN, 0, 0.00, -0.11, 0.000000, 0.00, 0, -18, 0, 0
GPS, 3, 352193600, 11, 1.74, -33.7851407, 151.0662078, 0.08, 83.71, 0.00, 237.23
ATT, 0.00, -2.85, 0.00, -1.87, 0.00, 123.80, 123.80
CTUN, 0, 0.00, -0.34, 0.000000, 0.00, 0, -19, 0, 0
ATT, 0.00, -2.83, 0.00, -1.84, 0.00, 123.80, 123.80
CTUN, 0, 0.00, -0.24, 0.000000, 0.00, 0, -19, 0, 0
GPS, 3, 352193800, 11, 1.74, -33.7851407, 151.0662079, 0.00, 83.72, 0.01, 237.23
EV, 28
ATT, 0.00, -2.84, 0.00, -1.81, 0.00, 123.80, 123.80
CTUN, 0, 0.00, -0.19, 0.000000, 0.00, 0, -20, 0, 0
ATT, 0.00, -2.84, 0.00, -1.78, 0.00, 123.79, 123.79
CTUN, 0, 0.00, -0.26, 0.000000, 0.00, 0, -20, 0, 0
GPS, 3, 352194000, 11, 1.74, -33.7851408, 151.0662079, -0.06, 83.73, 0.01, 237.23
ATT, 0.00, -2.82, 0.00, -1.75, 0.00, 123.80, 123.80
CTUN, 0, 0.00, -0.22, 0.000000, 0.00, 0, -20, 0, 0
ATT, 0.00, -2.84, 0.00, -1.71, 0.00, 123.79, 123.79
CTUN, 0, 0.00, -0.20, 0.000000, 0.00, 0, -21, 0, 0
GPS, 3, 352194200, 11, 1.74, -33.7851407, 151.0662079, -0.12, 83.73, 0.01, 237.23
ATT, 0.00, -2.83, 0.00, -1.69, 0.00, 123.80, 123.80
CTUN, 0, 0.00, -0.28, 0.000000, 0.00, 0, -21, 0, 0
ATT, 0.00, -2.83, 0.00, -1.67, 0.00, 123.80, 123.80
CTUN, 0, 0.00, -0.15, 0.000000, 0.00, 0, -22, 0, 0
GPS, 3, 352194400, 11, 1.74, -33.7851408, 151.0662079, -0.17, 83.74, 0.01, 237.23
ATT, 0.00, -2.85, 0.00, -1.62, 0.00, 123.80, 123.80
DU32, 7, 8281
CURR, 0, 0, 1214, 102, 4813, 6.170052
CTUN, 0, 0.00, -0.10, 0.000000, 0.00, 0, -22, 0, 0
EV, 15
ATT, 0.00, -2.82, 0.00, -1.60, 0.00, 123.82, 123.81
CTUN, 199, 0.00, -0.18, 0.000000, 0.00, 0, -22, 213, 0
GPS, 3, 352194600, 11, 1.74, -33.7851408, 151.0662080, -0.21, 83.74, 0.00, 237.23
ATT, 0.00, -2.81, 0.00, -1.56, 0.00, 123.81, 123.81
CTUN, 199, 0.00, -0.22, 0.000000, 0.00, 0, -23, 213, 0
ATT, 0.00, -2.75, 0.00, -1.53, 0.00, 123.77, 123.81
CTUN, 287, 0.00, -0.42, 0.000000, 0.00, 0, -23, 320, 0
GPS, 3, 352194800, 11, 1.74, -33.7851408, 151.0662080, -0.26, 83.75, 0.01, 237.23
ATT, 0.00, -2.73, 0.00, -1.48, 0.00, 123.77, 123.81
CTUN, 314, 0.00, -0.47, 0.000000, 0.00, 0, -23, 353, 0
ATT, 0.00, -2.68, 0.00, -1.42, 0.00, 123.71, 123.81
CTUN, 321, 0.00, -0.52, 0.000000, 0.00, 0, -24, 362, 0
GPS, 3, 352195000, 11, 1.74, -33.7851408, 151.0662080, -0.33, 83.74, 0.01, 237.23
ATT, 0.00, -2.68, 0.00, -1.38, 0.00, 123.65, 123.81
CTUN, 410, 0.00, -0.57, 0.000000, 0.00, 0, -24, 470, 0
ATT, 0.00, -2.41, 0.00, -1.11, 0.00, 123.43, 123.81
CTUN, 409, 0.00, -0.51, 0.000000, 0.00, 0, -25, 469, 0
GPS, 3, 352195200, 11, 1.74, -33.7851408, 151.0662081, -0.40, 83.75, 0.02, 237.23
ATT, 0.00, -2.21, 0.00, -0.61, 0.00, 122.69, 123.81
CTUN, 410, 0.00, -0.68, 0.000000, 0.00, 0, -25, 470, 0
ATT, 0.00, -2.23, 0.00, -0.22, 0.00, 122.13, 123.81
CTUN, 410, 0.00, -0.91, 0.000000, 0.00, 0, -25, 470, 0
GPS, 3, 352195400, 11, 1.74, -33.7851408, 151.0662081, -0.48, 83.75, 0.01, 237.23
ATT, 0.00, -2.02, 0.00, 0.20, 0.00, 121.38, 123.81
DU32, 7, 8313
CURR, 411, 3333, 1142, 951, 4712, 7.871211
CTUN, 411, 0.00, -0.80, 0.000000, 0.00, 0, -26, 471, 0
ATT, 0.00, -2.06, 0.00, 0.54, 0.00, 120.86, 123.81
CTUN, 411, 0.00, -0.61, 0.000000, 0.00, 0, -26, 471, 0
GPS, 3, 352195600, 11, 1.74, -33.7851407, 151.0662081, -0.57, 83.76, 0.03, 237.23
ATT, 0.00, -2.08, 0.00, 0.60, 0.00, 120.00, 123.81
CTUN, 410, 0.00, -0.85, 0.000000, 0.00, 0, -27, 470, 0
ATT, 0.00, -2.33, 0.00, 0.60, 0.00, 119.08, 123.81
CTUN, 464, 0.00, -0.96, 0.000000, 0.00, 0, -27, 536, 0
EV, 16
GPS, 3, 352195800, 11, 1.74, -33.7851407, 151.0662081, -0.65, 83.77, 0.03, 237.23
ATT, 0.00, -2.53, 0.00, 1.01, 0.00, 118.28, 123.81
CTUN, 518, 0.00, -0.86, 0.000000, 0.00, 0, -23, 595, 0
ATT, 0.00, -1.48, 0.00, 2.71, 0.00, 117.64, 123.81
CTUN, 541, 0.00, -0.97, 0.000000, 0.00, 1, -12, 615, 0
GPS, 3, 352196000, 11, 1.74, -33.7851407, 151.0662081, -0.72, 83.78, 0.03, 237.23
ATT, 0.00, -0.56, 0.00, 5.44, 0.00, 117.32, 123.81
CTUN, 569, 0.00, -0.84, 0.000000, 0.00, 2, 7, 639, 0
ATT, 0.00, 0.23, 0.00, 6.79, 0.00, 117.29, 123.81
CTUN, 585, 0.00, -0.27, 0.000000, 0.00, 4, 27, 655, 0
GPS, 3, 352196200, 11, 1.74, -33.7851405, 151.0662080, -0.69, 83.82, 0.09, 237.23
ATT, 0.00, -0.77, 0.00, 8.02, 0.00, 117.56, 123.81
CTUN, 584, 0.00, -0.16, 0.000000, 0.00, 5, 48, 655, 0
ATT, 0.00, -1.86, 0.00, 8.07, 0.00, 117.93, 123.81
CTUN, 585, 0.00, 0.05, 0.000000, 0.00, 5, 67, 656, 0
GPS, 3, 352196400, 11, 1.74, -33.7851402, 151.0662077, -0.52, 83.92, 0.22, 266.70
ATT, 0.00, -1.74, 0.00, 6.95, 0.00, 118.06, 123.81
DU32, 7, 8569
CURR, 583, 9058, 1093, 1640, 4693, 11.45995
CTUN, 583, 0.00, 0.37, 0.000000, 0.00, 3, 83, 652, 0
ATT, 0.00, -0.96, 0.00, 5.95, 0.00, 118.26, 123.81
CTUN, 558, 0.00, 0.63, 0.000000, 0.00, 2, 97, 630, 0
GPS, 3, 352196600, 11, 1.74, -33.7851392, 151.0662069, -0.25, 84.08, 0.61, 311.72
ATT, 0.00, 0.90, 0.00, 5.13, 0.00, 118.61, 123.81
CTUN, 510, 0.00, 0.57, 0.000000, 0.00, 1, 103, 589, 0
ATT, 0.00, 1.99, 0.00, 3.77, 0.00, 119.09, 123.81
CTUN, 509, 0.00, 0.48, 0.000000, 0.00, 1, 104, 588, 0
GPS, 3, 352196800, 11, 1.74, -33.7851382, 151.0662057, 0.04, 84.26, 0.81, 312.53
ATT, 0.00, 2.45, 0.00, 2.98, 0.00, 119.45, 123.81
CTUN, 509, 0.00, 0.78, 0.000000, 0.00, 0, 102, 587, 0
ATT, 0.00, 2.41, 0.00, 2.49, 0.00, 119.75, 123.81
CTUN, 509, 0.00, 0.88, 0.000000, 0.00, 0, 100, 587, 0
GPS, 3, 352197000, 11, 1.74, -33.7851369, 151.0662043, 0.32, 84.55, 0.94, 313.42
ATT, 0.00, 2.22, 0.00, 2.02, 0.00, 119.94, 123.81
CTUN, 509, 0.00, 0.97, 0.000000, 0.00, 0, 99, 587, 0
ATT, 0.00, 2.20, 0.00, 1.71, 0.00, 120.00, 123.81
CTUN, 488, 0.00, 1.16, 0.000000, 0.00, 0, 96, 565, 0
GPS, 3, 352197200, 11, 1.74, -33.7851355, 151.0662025, 0.58, 84.82, 1.14, 311.26
ATT, 0.00, 2.80, 0.00, 1.34, 0.00, 120.15, 123.81
CTUN, 474, 0.00, 1.18, 0.000000, 0.00, 0, 93, 548, 0
ATT, 0.00, 3.31, 0.00, 1.23, 0.00, 120.36, 123.81
CTUN, 474, 0.00, 1.49, 0.000000, 0.00, 0, 86, 548, 0
GPS, 3, 352197400, 11, 1.74, -33.7851342, 151.0662005, 0.84, 85.08, 1.12, 308.89
ATT, 0.00, 3.10, -1.59, 0.99, 0.00, 120.53, 123.81
DU32, 7, 8569
CURR, 446, 14970, 1127, 1234, 4732, 15.33383
CTUN, 441, 0.00, 1.56, 0.000000, 0.00, 0, 78, 508, 0
ATT, 0.00, 1.85, -1.59, -0.14, 0.00, 120.40, 123.81
CTUN, 437, 0.00, 1.72, 0.000000, 0.00, 0, 66, 503, 0
GPS, 3, 352197600, 11, 1.74, -33.7851330, 151.0661983, 1.06, 85.30, 1.25, 305.89
ATT, 0.00, 0.12, -1.59, -1.13, 0.00, 120.32, 123.81
CTUN, 422, 0.00, 1.72, 0.000000, 0.00, 0, 50, 485, 0
ATT, -0.35, -1.24, -4.16, -1.40, 0.00, 120.33, 123.81
CTUN, 423, 0.00, 1.81, 0.000000, 0.00, 0, 33, 486, 0
GPS, 3, 352197800, 11, 1.74, -33.7851319, 151.0661960, 1.23, 85.46, 1.24, 303.22
ATT, -5.97, -2.00, -5.88, -2.51, 0.00, 120.53, 123.81
CTUN, 420, 0.00, 1.93, 0.000000, 0.00, 0, 15, 482, 0
ATT, -5.27, -3.95, -6.98, -4.45, 0.00, 120.93, 123.81
CTUN, 424, 0.00, 1.97, 0.000000, 0.00, 2, -2, 489, 0
GPS, 3, 352198000, 11, 1.74, -33.7851310, 151.0661937, 1.32, 85.54, 1.19, 301.38
ATT, -1.99, -5.41, -7.35, -5.63, 0.00, 121.27, 123.81
CTUN, 424, 0.00, 2.07, 0.000000, 0.00, 3, -18, 490, 0
ATT, -2.57, -3.88, -6.49, -6.45, 0.00, 121.35, 123.81
CTUN, 441, 0.00, 2.06, 0.000000, 0.00, 3, -33, 511, 0
GPS, 3, 352198200, 11, 1.74, -33.7851300, 151.0661918, 1.36, 85.58, 1.07, 302.89
ATT, -0.70, -2.53, -6.37, -6.40, 0.00, 121.24, 123.81
CTUN, 501, 0.00, 1.90, 0.000000, 0.00, 3, -44, 583, 0
ATT, 0.00, -1.75, -4.53, -5.44, 0.00, 121.13, 123.81
CTUN, 526, 0.00, 2.06, 0.000000, 0.00, 1, -44, 602, 0
GPS, 3, 352198400, 10, 1.84, -33.7851291, 151.0661902, 1.34, 85.53, 0.92, 305.59
ATT, 0.00, -1.28, -1.59, -3.32, 0.00, 121.02, 123.81
DU32, 7, 8569
CURR, 531, 20095, 1109, 1412, 4712, 18.41345
CTUN, 531, 0.00, 1.96, 0.000000, 0.00, 0, -37, 606, 0
ATT, 0.00, -0.42, -0.36, 0.19, 0.00, 121.00, 123.81
CTUN, 531, 0.00, 1.92, 0.000000, 0.00, 0, -27, 606, 0
GPS, 3, 352198600, 10, 1.84, -33.7851286, 151.0661889, 1.35, 85.40, 0.69, 304.60
ATT, 0.00, 0.66, 0.00, 2.18, 0.00, 121.11, 123.81
CTUN, 531, 0.00, 1.90, 0.000000, 0.00, 0, -18, 606, 0
ATT, 0.00, 1.38, 0.00, 3.20, 0.00, 121.26, 123.81
CTUN, 531, 0.00, 1.81, 0.000000, 0.00, 1, -9, 607, 0
GPS, 3, 352198800, 11, 1.74, -33.7851280, 151.0661879, 1.39, 85.37, 0.59, 303.21
ATT, 0.00, 1.53, 0.00, 3.62, 0.00, 121.25, 123.81
CTUN, 531, 0.00, 1.83, 0.000000, 0.00, 1, 0, 607, 0
ATT, 0.00, 1.16, 0.00, 3.16, 0.00, 121.11, 123.81
CTUN, 522, 0.00, 1.73, 0.000000, 0.00, 0, 6, 598, 0
GPS, 3, 352199000, 11, 1.74, -33.7851273, 151.0661867, 1.44, 85.38, 0.68, 303.04
ATT, -0.46, 0.61, 0.00, 3.05, 0.00, 120.92, 123.81
CTUN, 512, 0.00, 1.87, 0.000000, 0.00, 0, 14, 590, 0
ATT, -1.17, -0.82, 0.00, 3.03, 0.00, 120.73, 123.81
CTUN, 501, 0.00, 1.81, 0.000000, 0.00, 0, 20, 580, 0
GPS, 3, 352199200, 11, 1.74, -33.7851265, 151.0661852, 1.52, 85.41, 0.80, 300.58
ATT, -1.99, -2.78, 0.00, 3.08, 0.00, 120.74, 123.81
CTUN, 498, 0.00, 1.95, 0.000000, 0.00, 1, 21, 578, 0
ATT, -3.63, -4.42, 0.00, 2.93, 0.00, 120.96, 123.81
CTUN, 498, 0.00, 1.98, 0.000000, 0.00, 2, 21, 579, 0
GPS, 3, 352199400, 11, 1.74, -33.7851256, 151.0661835, 1.61, 85.46, 0.89, 301.17
ATT, -9.96, -5.93, 0.00, 2.70, 0.00, 121.34, 123.81
DU32, 7, 8569
CURR, 488, 26068, 1115, 1293, 4732, 22.27995
PM, 0, 0, 52, 4, 1000, 7648867, 18, 0
CTUN, 488, 0.00, 2.05, 0.000000, 0.00, 3, 21, 568, 0
ATT, -11.60, -8.42, 0.00, 2.56, 0.00, 121.65, 123.81
CTUN, 482, 0.00, 1.94, 0.000000, 0.00, 5, 21, 563, 0
GPS, 3, 352199600, 11, 1.74, -33.7851245, 151.0661821, 1.69, 85.52, 0.91, 305.78
ATT, -13.71, -9.88, 0.00, 2.40, 0.00, 121.61, 123.81
CTUN, 482, 0.00, 2.03, 0.000000, 0.00, 7, 17, 565, 0
ATT, -17.69, -11.13, 0.00, 2.15, 0.00, 121.25, 123.81
CTUN, 474, 0.00, 1.88, 0.000000, 0.00, 9, 14, 557, 0
GPS, 3, 352199800, 11, 1.74, -33.7851230, 151.0661809, 1.76, 85.58, 1.01, 317.72
ATT, -17.34, -13.06, 0.00, 1.79, 0.00, 120.87, 123.81
CTUN, 454, 0.00, 1.97, 0.000000, 0.00, 11, 10, 535, 0
ATT, -18.16, -13.97, -0.85, 1.53, 0.00, 120.49, 123.81
CTUN, 446, 0.00, 2.19, 0.000000, 0.00, 12, 3, 526, 0
GPS, 3, 352200000, 11, 1.74, -33.7851210, 151.0661802, 1.80, 85.62, 1.12, 332.24
ATT, -18.51, -14.17, -2.20, 1.34, 0.00, 120.16, 123.81
CTUN, 437, 0.00, 2.12, 0.000000, 0.00, 11, -9, 514, 0
ATT, -18.28, -14.02, -3.43, -0.04, 0.00, 120.17, 123.81
CTUN, 436, 0.00, 2.25, 0.000000, 0.00, 11, -23, 513, 0
GPS, 3, 352200200, 11, 1.74, -33.7851185, 151.0661801, 1.81, 85.61, 1.39, 348.19
ATT, -17.22, -14.07, -4.65, -1.96, 0.00, 120.37, 123.81
CTUN, 436, 0.00, 2.28, 0.000000, 0.00, 11, -36, 513, 0
ATT, -16.75, -13.92, -6.00, -2.17, 0.00, 120.09, 123.81
CTUN, 436, 0.00, 2.03, 0.000000, 0.00, 11, -50, 513, 0
GPS, 3, 352200400, 11, 1.74, -33.7851155, 151.0661805, 1.78, 85.56, 1.66, 359.30
ATT, -12.89, -13.16, -7.84, -2.54, 0.00, 120.02, 123.81
DU32, 7, 8569
CURR, 437, 31441, 1124, 1113, 4712, 25.58966
CTUN, 437, 0.00, 2.05, 0.000000, 0.00, 9, -65, 512, 0
ATT, -12.18, -11.01, -8.58, -3.86, 0.00, 120.47, 123.81
CTUN, 444, 0.00, 1.96, 0.000000, 0.00, 7, -80, 518, 0
GPS, 3, 352200600, 11, 1.74, -33.7851122, 151.0661817, 1.67, 85.46, 1.94, 7.74
ATT, -8.55, -8.47, -9.68, -4.78, 0.00, 121.13, 123.81
CTUN, 498, 0.00, 1.96, 0.000000, 0.00, 5, -95, 582, 0
ATT, -3.63, -6.26, -10.66, -4.55, 0.00, 121.67, 123.81
CTUN, 520, 0.00, 1.82, 0.000000, 0.00, 3, -100, 599, 0
GPS, 3, 352200800, 11, 1.74, -33.7851088, 151.0661833, 1.51, 85.30, 2.08, 14.91
ATT, 0.00, -2.39, -11.52, -5.17, 0.00, 122.23, 123.81
CTUN, 560, 0.00, 1.71, 0.000000, 0.00, 2, -97, 632, 0
ATT, 0.00, 0.28, -11.40, -5.34, 0.00, 122.95, 123.81
CTUN, 566, 0.00, 1.94, 0.000000, 0.00, 2, -94, 637, 0
GPS, 3, 352201000, 11, 1.74, -33.7851053, 151.0661853, 1.36, 85.10, 2.21, 20.26
ATT, 0.00, 2.86, -11.64, -5.08, 0.00, 123.39, 123.81
CTUN, 573, 0.00, 1.61, 0.000000, 0.00, 2, -88, 643, 0
ATT, 0.00, 2.81, -11.52, -4.98, 0.00, 123.67, 123.81
CTUN, 575, 0.00, 1.63, 0.000000, 0.00, 2, -80, 645, 0
GPS, 3, 352201200, 11, 1.75, -33.7851023, 151.0661876, 1.23, 84.90, 1.96, 25.55
ATT, 0.00, 2.41, -11.64, -5.44, 0.00, 123.80, 123.81
CTUN, 575, 0.00, 1.85, 0.000000, 0.00, 2, -66, 645, 0
ATT, 0.00, 2.50, -11.77, -4.68, 0.00, 123.78, 123.81
CTUN, 575, 0.00, 1.60, 0.000000, 0.00, 2, -55, 645, 0
GPS, 3, 352201400, 11, 1.75, -33.7850998, 151.0661899, 1.17, 84.74, 1.78, 30.14
ATT, 0.00, 2.81, -11.03, -4.48, 0.00, 123.76, 123.81
DU32, 7, 8569
CURR, 575, 37471, 1092, 1569, 4752, 29.39295
CTUN, 575, 0.00, 1.64, 0.000000, 0.00, 2, -44, 645, 0
ATT, 0.00, 2.35, -9.93, -3.84, 0.00, 123.62, 123.81
CTUN, 581, 0.00, 1.75, 0.000000, 0.00, 1, -30, 649, 0
GPS, 3, 352201600, 11, 1.75, -33.7850975, 151.0661922, 1.15, 84.62, 1.58, 33.86
ATT, 0.00, 1.71, -7.84, -2.89, 0.00, 123.37, 123.81
CTUN, 583, 0.00, 1.58, 0.000000, 0.00, 0, -14, 649, 0
ATT, 0.00, 0.86, -6.86, -0.84, 0.00, 123.13, 123.81
CTUN, 582, 0.00, 1.60, 0.000000, 0.00, 0, 2, 648, 0
GPS, 3, 352201800, 11, 1.75, -33.7850956, 151.0661944, 1.19, 84.53, 1.42, 38.65
ATT, 0.68, 0.42, -6.98, 0.01, 0.00, 122.84, 123.81
CTUN, 583, 0.00, 1.65, 0.000000, 0.00, 0, 15, 649, 0
ATT, 7.32, -0.01, -9.68, 0.08, 0.00, 122.48, 123.81
CTUN, 581, 0.00, 1.27, 0.000000, 0.00, 0, 29, 648, 0
GPS, 3, 352202000, 11, 1.75, -33.7850937, 151.0661966, 1.28, 84.56, 1.34, 44.28
ATT, 8.47, 2.91, -10.54, -1.62, 0.00, 121.93, 123.81
CTUN, 584, 0.00, 1.43, 0.000000, 0.00, 1, 43, 651, 0
ATT, 9.04, 6.11, -12.99, -2.97, 0.00, 121.62, 123.81
CTUN, 584, 0.00, 1.26, 0.000000, 0.00, 4, 59, 654, 0
GPS, 3, 352202200, 11, 1.75, -33.7850921, 151.0661987, 1.38, 84.64, 1.19, 47.76
ATT, 9.50, 8.19, -15.94, -4.70, 0.00, 121.66, 123.81
CTUN, 583, 0.00, 1.26, 0.000000, 0.00, 7, 75, 656, 0
ATT, 10.87, 9.29, -17.16, -6.66, 0.00, 121.90, 123.81
CTUN, 584, 0.00, 1.62, 0.000000, 0.00, 12, 91, 662, 0
GPS, 3, 352202400, 11, 1.75, -33.7850912, 151.0662006, 1.54, 84.72, 0.99, 51.98
ATT, 12.70, 10.62, -18.26, -8.83, 0.00, 122.17, 123.81
DU32, 7, 8569
CURR, 583, 43982, 1086, 1589, 4732, 33.76794
CTUN, 582, 0.00, 1.66, 0.000000, 0.00, 16, 103, 664, 0
ATT, 12.82, 11.52, -17.65, -9.99, 0.00, 122.40, 123.81
CTUN, 552, 0.00, 1.64, 0.000000, 0.00, 18, 116, 641, 0
GPS, 3, 352202600, 11, 1.75, -33.7850906, 151.0662022, 1.76, 84.92, 0.74, 61.10
ATT, 14.08, 12.49, -17.90, -10.71, 0.00, 122.85, 123.81
CTUN, 552, 0.00, 1.89, 0.000000, 0.00, 22, 129, 645, 0
ATT, 17.17, 14.22, -17.65, -11.39, 0.00, 123.30, 123.81
CTUN, 542, 0.00, 2.01, 0.000000, 0.00, 26, 136, 641, 0
GPS, 3, 352202800, 11, 1.75, -33.7850913, 151.0662034, 2.02, 85.13, 0.68, 98.12
ATT, 17.40, 15.91, -17.41, -11.44, 0.00, 123.59, 123.81
CTUN, 542, 0.00, 2.11, 0.000000, 0.00, 29, 144, 644, 0
ATT, 17.06, 15.60, -17.53, -10.69, 0.00, 123.88, 123.81
CTUN, 542, 0.00, 2.17, 0.000000, 0.00, 26, 150, 641, 0
GPS, 3, 352203000, 11, 1.75, -33.7850931, 151.0662045, 2.32, 85.36, 1.12, 145.11
ATT, 15.34, 14.80, -15.94, -10.30, 0.00, 124.10, 123.81
CTUN, 520, 0.00, 2.18, 0.000000, 0.00, 23, 156, 619, 0
ATT, 15.34, 13.83, -15.94, -9.42, 0.00, 124.46, 123.81
CTUN, 522, 0.00, 2.37, 0.000000, 0.00, 19, 158, 617, 0
GPS, 3, 352203200, 11, 1.75, -33.7850962, 151.0662049, 2.61, 85.62, 1.72, 163.84
ATT, 15.91, 12.14, -14.10, -9.36, 0.00, 124.35, 123.81
CTUN, 514, 0.00, 2.65, 0.000000, 0.00, 15, 159, 606, 0
ATT, 16.83, 10.74, -12.50, -8.63, 0.00, 124.02, 123.81
CTUN, 514, 0.00, 2.92, 0.000000, 0.00, 12, 157, 603, 0
GPS, 3, 352203400, 11, 1.75, -33.7851001, 151.0662048, 2.92, 85.89, 2.19, 171.26
ATT, 18.66, 9.46, -12.01, -7.64, 0.00, 123.68, 123.81
DU32, 7, 8569
CURR, 514, 50320, 1097, 1406, 4732, 37.98579
CTUN, 514, 0.00, 2.90, 0.000000, 0.00, 10, 157, 601, 0
ATT, 18.89, 9.55, -11.40, -6.64, 0.00, 123.10, 123.81
CTUN, 502, 0.00, 2.98, 0.000000, 0.00, 9, 157, 590, 0
GPS, 3, 352203600, 11, 1.75, -33.7851045, 151.0662046, 3.22, 86.14, 2.43, 173.29
ATT, 19.12, 10.26, -9.07, -5.82, 0.00, 122.51, 123.81
CTUN, 483, 0.00, 2.98, 0.000000, 0.00, 9, 153, 568, 0
ATT, 22.55, 10.93, -5.64, -5.42, 0.00, 121.79, 123.81
CTUN, 479, 0.00, 3.06, 0.000000, 0.00, 9, 145, 563, 0
GPS, 3, 352203800, 11, 1.75, -33.7851093, 151.0662059, 3.49, 86.31, 2.60, 171.95
ATT, 22.09, 12.48, -3.06, -2.81, 0.00, 121.23, 123.81
CTUN, 479, 0.00, 2.96, 0.000000, 0.00, 11, 133, 565, 0
ATT, 20.03, 13.42, -0.73, -0.66, 0.00, 120.85, 123.81
CTUN, 481, 0.00, 3.14, 0.000000, 0.00, 12, 123, 568, 0
GPS, 3, 352204000, 11, 1.75, -33.7851095, 151.0662060, 3.69, 86.44, 0.92, 171.95
ATT, 19.12, 13.19, 0.00, 1.95, 0.00, 120.90, 123.81
CTUN, 480, 0.00, 3.41, 0.000000, 0.00, 12, 113, 567, 0
ATT, 19.23, 13.57, 0.00, 4.05, 0.00, 120.99, 123.81
CTUN, 479, 0.00, 3.35, 0.000000, 0.00, 13, 100, 567, 0
GPS, 3, 352204200, 10, 1.84, -33.7851013, 151.0662028, 3.85, 86.51, 2.50, 200.83
ATT, 17.63, 13.24, 0.00, 4.99, 0.00, 120.87, 123.81
CTUN, 479, 0.00, 3.51, 0.000000, 0.00, 12, 89, 566, 0
ATT, 18.77, 12.28, 0.00, 5.80, 0.00, 120.80, 123.81
CTUN, 479, 0.00, 3.58, 0.000000, 0.00, 11, 79, 565, 0
GPS, 3, 352204400, 9, 1.92, -33.7851077, 151.0662011, 3.97, 86.65, 1.40, 200.83
ATT, 12.70, 11.80, 0.00, 5.94, 0.00, 120.58, 123.81
DU32, 7, 8569
CURR, 479, 56055, 1102, 1317, 4752, 41.60419
CTUN, 479, 0.00, 3.41, 0.000000, 0.00, 11, 70, 565, 0
ATT, 4.80, 9.71, 0.69, 5.63, 0.00, 120.47, 123.81
CTUN, 479, 0.00, 3.40, 0.000000, 0.00, 6, 62, 560, 0
GPS, 3, 352204600, 9, 1.92, -33.7851134, 151.0661986, 4.04, 86.79, 2.47, 205.86
ATT, 0.00, 3.59, 4.05, 7.01, 0.00, 120.71, 123.81
CTUN, 481, 0.00, 3.46, 0.000000, 0.00, 3, 57, 559, 0
ATT, 0.00, -3.53, 6.37, 9.14, 0.00, 120.74, 123.81
CTUN, 481, 0.00, 3.67, 0.000000, 0.00, 7, 53, 563, 0
GPS, 3, 352204800, 9, 1.92, -33.7851193, 151.0661954, 4.09, 86.93, 3.07, 207.68
ATT, 0.00, -7.21, 7.07, 11.89, 0.00, 120.11, 123.81
CTUN, 480, 0.00, 3.76, 0.000000, 0.00, 14, 49, 569, 0
ATT, 0.00, -7.28, 6.72, 13.94, 0.00, 119.33, 123.81
CTUN, 484, 0.00, 3.78, 0.000000, 0.00, 16, 41, 576, 0
GPS, 3, 352205000, 9, 1.92, -33.7851251, 151.0661919, 4.14, 87.06, 3.35, 208.23
ATT, -3.75, -6.48, 6.26, 14.09, 0.00, 119.11, 123.81
CTUN, 484, 0.00, 3.84, 0.000000, 0.00, 15, 35, 575, 0
ATT, -4.33, -7.62, 5.79, 13.06, 0.00, 119.47, 123.81
CTUN, 484, 0.00, 3.99, 0.000000, 0.00, 15, 30, 575, 0
GPS, 3, 352205200, 9, 1.92, -33.7851307, 151.0661881, 4.17, 87.19, 3.44, 208.90
ATT, -5.27, -8.32, 5.56, 12.08, 0.00, 119.78, 123.81
CTUN, 485, 0.00, 3.92, 0.000000, 0.00, 14, 27, 575, 0
ATT, -4.10, -8.68, 4.52, 11.34, 0.00, 119.90, 123.81
CTUN, 485, 0.00, 3.97, 0.000000, 0.00, 12, 21, 573, 0
GPS, 3, 352205400, 9, 1.92, -33.7851351, 151.0661843, 4.19, 87.31, 3.24, 210.51
ATT, -4.57, -7.76, 3.94, 9.94, 0.00, 120.06, 123.81
DU32, 7, 8569
CURR, 488, 61740, 1109, 1335, 4732, 45.20678
CTUN, 487, 0.00, 4.25, 0.000000, 0.00, 9, 18, 573, 0
ATT, -4.68, -6.52, 3.36, 8.30, 0.00, 120.26, 123.81
CTUN, 487, 0.00, 3.99, 0.000000, 0.00, 6, 15, 570, 0
GPS, 3, 352205600, 9, 1.92, -33.7851356, 151.0661796, 4.22, 87.34, 2.52, 221.27
ATT, -5.27, -5.23, 3.47, 7.57, 0.00, 120.29, 123.81
CTUN, 487, 0.00, 4.02, 0.000000, 0.00, 5, 11, 569, 0
ATT, -6.67, -4.36, 3.71, 6.69, 0.00, 120.27, 123.81
CTUN, 488, 0.00, 3.99, 0.000000, 0.00, 4, 7, 569, 0
GPS, 3, 352205800, 9, 1.92, -33.7851374, 151.0661754, 4.21, 87.34, 2.19, 227.75
ATT, -10.07, -4.80, 3.94, 5.88, 0.00, 120.27, 123.81
CTUN, 487, 0.00, 4.05, 0.000000, 0.00, 4, 2, 568, 0
ATT, -12.07, -6.46, 4.05, 5.61, 0.00, 120.30, 123.81
CTUN, 487, 0.00, 3.95, 0.000000, 0.00, 5, -1, 569, 0
GPS, 3, 352206000, 9, 1.92, -33.7851390, 151.0661714, 4.19, 87.35, 2.00, 234.13
ATT, -13.47, -7.79, 4.05, 5.46, 0.00, 120.46, 123.81
CTUN, 487, 0.00, 4.00, 0.000000, 0.00, 6, -6, 570, 0
ATT, -15.11, -8.83, 3.71, 5.17, 0.00, 120.67, 123.81
CTUN, 487, 0.00, 3.88, 0.000000, 0.00, 7, -11, 571, 0
GPS, 3, 352206200, 9, 1.92, -33.7851401, 151.0661676, 4.15, 87.31, 1.84, 243.30
ATT, -20.74, -9.70, 3.47, 4.70, 0.00, 120.86, 123.81
CTUN, 489, 0.00, 3.93, 0.000000, 0.00, 7, -15, 573, 0
ATT, -20.27, -11.46, 2.55, 4.19, 0.00, 120.84, 123.81
CTUN, 487, 0.00, 3.81, 0.000000, 0.00, 11, -17, 575, 0
GPS, 3, 352206400, 9, 1.92, -33.7851408, 151.0661640, 4.09, 87.28, 1.66, 250.08
ATT, -21.32, -13.27, 1.39, 3.17, 0.00, 120.80, 123.81
DU32, 7, 8569
CURR, 487, 67449, 1101, 1319, 4732, 48.76107
CTUN, 488, 0.00, 3.89, 0.000000, 0.00, 13, -20, 578, 0
ATT, -23.32, -14.31, 0.81, 1.71, 0.00, 120.72, 123.81
CTUN, 487, 0.00, 3.76, 0.000000, 0.00, 14, -25, 578, 0
GPS, 3, 352206600, 9, 1.92, -33.7851406, 151.0661609, 4.01, 87.19, 1.44, 262.52
ATT, -22.96, -15.05, 0.69, 0.68, 0.00, 120.72, 123.81
CTUN, 487, 0.00, 3.81, 0.000000, 0.00, 15, -30, 579, 0
ATT, -23.20, -14.97, 0.00, 0.19, 0.00, 120.70, 123.81
CTUN, 484, 0.00, 3.97, 0.000000, 0.00, 15, -36, 575, 0
GPS, 3, 352206800, 9, 1.92, -33.7851397, 151.0661584, 3.93, 87.08, 1.26, 283.68
ATT, -21.67, -14.92, 0.00, 0.21, 0.00, 120.95, 123.81
CTUN, 487, 0.00, 3.75, 0.000000, 0.00, 14, -40, 578, 0
ATT, -21.67, -14.39, 0.00, 0.80, 0.00, 120.97, 123.81
CTUN, 487, 0.00, 3.65, 0.000000, 0.00, 13, -44, 577, 0
GPS, 3, 352207000, 9, 1.92, -33.7851381, 151.0661568, 3.83, 87.02, 1.24, 312.01
ATT, -21.44, -14.06, 0.00, 1.03, 0.00, 121.17, 123.81
CTUN, 487, 0.00, 3.76, 0.000000, 0.00, 13, -49, 577, 0
ATT, -17.46, -13.83, 0.00, 0.51, 0.00, 121.53, 123.81
CTUN, 494, 0.00, 3.76, 0.000000, 0.00, 12, -53, 584, 0
GPS, 3, 352207200, 9, 1.92, -33.7851365, 151.0661564, 3.72, 86.50, 1.27, 336.71
ATT, -15.58, -12.54, 0.00, 0.56, 0.00, 121.76, 123.81
CTUN, 502, 0.00, 3.60, 0.000000, 0.00, 10, -56, 591, 0
ATT, -10.42, -11.04, -0.24, 1.14, 0.00, 121.98, 123.81
CTUN, 505, 0.00, 3.53, 0.000000, 0.00, 7, -59, 591, 0
GPS, 3, 352207400, 10, 1.84, -33.7851341, 151.0661562, 3.60, 86.44, 1.47, 349.62
ATT, -9.02, -7.71, -2.82, 1.12, 0.00, 122.51, 123.81
DU32, 7, 8569
CURR, 505, 73254, 1095, 1351, 4732, 52.36973
CTUN, 505, 0.00, 3.44, 0.000000, 0.00, 2, -60, 586, 0
ATT, -4.92, -4.57, -5.39, -0.02, 0.00, 123.24, 123.81
CTUN, 505, 0.00, 3.35, 0.000000, 0.00, 1, -63, 585, 0
GPS, 3, 352207600, 10, 1.84, -33.7851313, 151.0661565, 3.46, 86.23, 1.74, 0.19
ATT, -4.92, -1.74, -5.39, -1.36, 0.00, 123.75, 123.81
CTUN, 509, 0.00, 3.43, 0.000000, 0.00, 0, -67, 587, 0
ATT, -4.92, -0.17, -5.88, -2.09, 0.00, 124.06, 123.81
CTUN, 514, 0.00, 3.31, 0.000000, 0.00, 0, -69, 591, 0
GPS, 3, 352207800, 10, 1.84, -33.7851286, 151.0661572, 3.32, 86.03, 1.76, 5.37
ATT, -5.15, -0.65, -5.88, -1.87, 0.00, 124.28, 123.81
CTUN, 522, 0.00, 3.22, 0.000000, 0.00, 0, -72, 598, 0
ATT, -4.68, -0.51, -6.13, -2.35, 0.00, 124.45, 123.81
CTUN, 522, 0.00, 3.21, 0.000000, 0.00, 0, -74, 598, 0
GPS, 3, 352208000, 10, 1.84, -33.7851257, 151.0661578, 3.17, 85.89, 1.76, 7.55
ATT, -3.28, -0.16, -7.35, -3.95, 0.00, 124.47, 123.81
CTUN, 522, 0.00, 3.03, 0.000000, 0.00, 1, -74, 599, 0
ATT, -1.05, 0.81, -9.68, -5.16, 0.00, 124.13, 123.81
CTUN, 531, 0.00, 2.89, 0.000000, 0.00, 2, -77, 608, 0
GPS, 3, 352208200, 10, 1.84, -33.7851230, 151.0661588, 3.01, 85.75, 1.68, 9.72
ATT, -1.28, 3.44, -9.93, -6.42, 0.00, 123.34, 123.81
CTUN, 531, 0.00, 2.83, 0.000000, 0.00, 4, -75, 610, 0
ATT, -0.82, 3.61, -9.68, -5.26, 0.00, 122.51, 123.81
CTUN, 531, 0.00, 2.65, 0.000000, 0.00, 2, -70, 608, 0
GPS, 3, 352208400, 10, 1.84, -33.7851209, 151.0661597, 2.85, 85.58, 1.44, 13.21
ATT, 0.00, 1.36, -10.66, -2.53, 0.00, 121.90, 123.81
DU32, 7, 8569
CURR, 531, 79224, 1094, 1415, 4772, 56.08331
CTUN, 539, 0.00, 2.45, 0.000000, 0.00, 0, -63, 612, 0
ATT, 0.00, -0.94, -10.91, -1.81, 0.00, 121.60, 123.81
CTUN, 552, 0.00, 2.55, 0.000000, 0.00, 0, -55, 623, 0
GPS, 3, 352208600, 9, 1.92, -33.7851190, 151.0661608, 2.69, 85.47, 1.24, 18.08
ATT, 0.00, -2.39, -10.05, -1.86, 0.00, 121.56, 123.81
CTUN, 558, 0.00, 2.51, 0.000000, 0.00, 0, -48, 628, 0
ATT, 0.00, -1.99, -10.29, -2.08, 0.00, 121.80, 123.81
CTUN, 558, 0.00, 2.76, 0.000000, 0.00, 0, -41, 628, 0
GPS, 3, 352208800, 9, 1.92, -33.7851174, 151.0661619, 2.59, 85.36, 1.13, 21.19
ATT, 0.00, -0.93, -10.54, -2.53, 0.00, 122.10, 123.81
CTUN, 558, 0.00, 2.92, 0.000000, 0.00, 0, -33, 628, 0
ATT, 0.00, 0.30, -12.01, -3.12, 0.00, 122.33, 123.81
CTUN, 558, 0.00, 2.78, 0.000000, 0.00, 0, -25, 628, 0
GPS, 3, 352209000, 9, 1.92, -33.7851159, 151.0661632, 2.56, 85.26, 1.11, 25.74
ATT, 0.00, 0.81, -12.13, -4.49, 0.00, 122.55, 123.81
CTUN, 558, 0.00, 2.79, 0.000000, 0.00, 1, -18, 629, 0
ATT, 0.00, 1.03, -11.03, -4.96, 0.00, 122.46, 123.81
CTUN, 558, 0.00, 2.67, 0.000000, 0.00, 1, -6, 629, 0
GPS, 3, 352209200, 9, 1.92, -33.7851145, 151.0661645, 2.56, 85.19, 1.08, 29.91
ATT, 0.00, 0.22, -10.66, -4.29, 0.00, 122.23, 123.81
CTUN, 558, 0.00, 2.43, 0.000000, 0.00, 1, 4, 629, 0
ATT, 0.00, -0.54, -9.68, -3.56, 0.00, 122.09, 123.81
CTUN, 558, 0.00, 2.43, 0.000000, 0.00, 0, 14, 628, 0
GPS, 3, 352209400, 9, 1.92, -33.7851134, 151.0661659, 2.57, 85.16, 0.98, 34.45
ATT, 0.00, -0.83, -8.70, -2.56, 0.00, 122.17, 123.81
DU32, 7, 8569
CURR, 558, 85479, 1086, 1447, 4772, 60.11720
PM, 0, 0, 50, 0, 1000, 10202, 10, 0
CTUN, 558, 0.00, 2.64, 0.000000, 0.00, 0, 23, 628, 0
ATT, 0.00, -0.67, -8.58, -2.12, 0.00, 122.45, 123.81
CTUN, 530, 0.00, 2.64, 0.000000, 0.00, 0, 32, 605, 0
GPS, 3, 352209600, 9, 1.92, -33.7851125, 151.0661675, 2.62, 85.16, 0.94, 41.42
ATT, 0.00, 0.09, -8.70, -1.84, 0.00, 122.75, 123.81
CTUN, 530, 0.00, 2.61, 0.000000, 0.00, 0, 36, 605, 0
ATT, 0.00, 1.10, -9.19, -2.59, 0.00, 123.15, 123.81
CTUN, 530, 0.00, 2.69, 0.000000, 0.00, 0, 38, 605, 0
GPS, 3, 352209800, 10, 1.79, -33.7851116, 151.0661691, 2.70, 85.21, 0.91, 47.10
ATT, 0.00, 1.51, -9.19, -3.53, 0.00, 123.41, 123.81
CTUN, 530, 0.00, 2.76, 0.000000, 0.00, 1, 40, 606, 0
ATT, 0.00, 1.75, -9.19, -3.93, 0.00, 123.68, 123.81
CTUN, 530, 0.00, 2.53, 0.000000, 0.00, 1, 41, 606, 0
GPS, 3, 352210000, 10, 1.79, -33.7851108, 151.0661708, 2.77, 85.28, 0.92, 51.55
ATT, 0.00, 2.17, -10.05, -4.46, 0.00, 123.94, 123.81
CTUN, 499, 0.00, 2.67, 0.000000, 0.00, 1, 41, 579, 0
ATT, 0.00, 1.86, -10.66, -4.69, 0.00, 123.99, 123.81
CTUN, 499, 0.00, 2.74, 0.000000, 0.00, 1, 37, 579, 0
GPS, 3, 352210200, 10, 1.79, -33.7851103, 151.0661724, 2.84, 85.33, 0.84, 57.07
ATT, 0.00, 1.09, -11.15, -5.24, 0.00, 123.99, 123.81
CTUN, 499, 0.00, 2.71, 0.000000, 0.00, 2, 36, 580, 0
ATT, 0.00, -0.29, -11.64, -5.78, 0.00, 123.95, 123.81
CTUN, 499, 0.00, 2.73, 0.000000, 0.00, 2, 35, 580, 0
GPS, 3, 352210400, 10, 1.79, -33.7851103, 151.0661741, 2.89, 85.39, 0.80, 66.68
ATT, 0.00, -1.15, -10.91, -6.03, 0.00, 123.84, 123.81
DU32, 7, 8569
CURR, 499, 91451, 1096, 1288, 4752, 63.88300
CTUN, 499, 0.00, 2.75, 0.000000, 0.00, 2, 35, 580, 0
ATT, 0.00, -1.36, -9.80, -6.07, 0.00, 123.59, 123.81
CTUN, 499, 0.00, 2.65, 0.000000, 0.00, 2, 35, 580, 0
GPS, 3, 352210600, 10, 1.79, -33.7851104, 151.0661759, 2.94, 85.43, 0.83, 76.85
ATT, 0.00, -1.19, -3.92, -4.62, 0.00, 123.14, 123.81
CTUN, 499, 0.00, 2.78, 0.000000, 0.00, 0, 35, 578, 0
ATT, 0.00, -0.33, -0.36, -0.68, 0.00, 122.67, 123.81
CTUN, 499, 0.00, 2.93, 0.000000, 0.00, 0, 34, 578, 0
GPS, 3, 352210800, 10, 1.79, -33.7851107, 151.0661781, 2.99, 85.48, 1.00, 87.15
ATT, 0.00, 0.22, 0.00, 3.62, 0.00, 122.30, 123.81
CTUN, 499, 0.00, 2.88, 0.000000, 0.00, 1, 33, 579, 0
ATT, 0.00, 0.50, 0.00, 5.90, 0.00, 122.06, 123.81
CTUN, 499, 0.00, 2.93, 0.000000, 0.00, 2, 35, 580, 0
GPS, 3, 352211000, 11, 1.75, -33.7851111, 151.0661802, 3.04, 85.52, 0.96, 90.88
ATT, 0.00, 0.15, 0.00, 6.61, 0.00, 121.90, 123.81
CTUN, 499, 0.00, 2.96, 0.000000, 0.00, 3, 34, 581, 0
ATT, 0.00, -0.30, 0.00, 6.90, 0.49, 121.88, 123.83
CTUN, 499, 0.00, 2.69, 0.000000, 0.00, 3, 34, 581, 0
GPS, 3, 352211200, 11, 1.75, -33.7851115, 151.0661819, 3.09, 85.56, 0.82, 91.61
ATT, 0.00, -0.83, 0.00, 7.02, 1.48, 122.15, 124.31
CTUN, 498, 0.00, 2.72, 0.000000, 0.00, 3, 33, 580, 0
ATT, 0.00, -0.58, 0.00, 7.25, 3.09, 122.88, 125.33
CTUN, 499, 0.00, 2.87, 0.000000, 0.00, 3, 32, 581, 0
GPS, 3, 352211400, 11, 1.75, -33.7851113, 151.0661832, 3.12, 85.60, 0.65, 78.92
ATT, 0.00, -0.04, 0.00, 7.03, 1.73, 124.18, 126.17
DU32, 7, 8569
CURR, 499, 97255, 1091, 1332, 4712, 67.50292
CTUN, 499, 0.00, 2.93, 0.000000, 0.00, 3, 31, 581, 0
ATT, 0.00, 0.23, -0.49, 6.48, 1.48, 125.58, 126.80
CTUN, 499, 0.00, 3.01, 0.000000, 0.00, 2, 27, 580, 0
GPS, 3, 352211600, 11, 1.75, -33.7851108, 151.0661841, 3.15, 85.66, 0.51, 67.49
ATT, 0.00, 0.18, -0.24, 5.74, 0.00, 126.91, 126.90
CTUN, 499, 0.00, 3.16, 0.000000, 0.00, 2, 26, 580, 0
ATT, 0.00, 0.65, 0.00, 5.06, 0.00, 127.77, 126.90
CTUN, 499, 0.00, 3.10, 0.000000, 0.00, 1, 20, 579, 0
GPS, 3, 352211800, 11, 1.75, -33.7851100, 151.0661846, 3.19, 85.72, 0.57, 42.01
ATT, 0.00, 1.20, 0.00, 4.59, 0.00, 128.36, 126.90
CTUN, 499, 0.00, 3.15, 0.000000, 0.00, 1, 16, 579, 0
ATT, 0.00, 1.54, 0.00, 4.21, 0.37, 128.69, 126.92
CTUN, 499, 0.00, 3.05, 0.000000, 0.00, 1, 12, 579, 0
GPS, 3, 352212000, 11, 1.75, -33.7851091, 151.0661846, 3.21, 85.72, 0.61, 18.36
ATT, 0.00, 0.94, 0.00, 4.07, 0.00, 128.92, 127.07
CTUN, 499, 0.00, 3.16, 0.000000, 0.00, 1, 7, 579, 0
ATT, 0.00, 0.37, 0.00, 3.95, 0.00, 128.93, 127.07
CTUN, 499, 0.00, 3.12, 0.000000, 0.00, 1, 5, 579, 0
GPS, 3, 352212200, 11, 1.75, -33.7851081, 151.0661845, 3.22, 85.74, 0.64, 5.94
ATT, 0.00, 0.13, 0.00, 3.37, 0.00, 128.64, 127.07
CTUN, 499, 0.00, 3.16, 0.000000, 0.00, 0, 0, 578, 0
ATT, 0.00, 0.19, 0.00, 3.17, 0.00, 128.06, 127.07
CTUN, 499, 0.00, 3.06, 0.000000, 0.00, 0, -2, 578, 0
GPS, 3, 352212400, 11, 1.75, -33.7851070, 151.0661840, 3.21, 85.72, 0.73, 353.16
ATT, 0.00, 0.48, 0.00, 2.97, 0.00, 127.41, 127.07
DU32, 7, 8569
CURR, 499, 103047, 1091, 1285, 4712, 71.05684
CTUN, 499, 0.00, 2.88, 0.000000, 0.00, 0, -4, 578, 0
ATT, 0.00, 0.41, 0.00, 3.02, 0.00, 126.66, 127.07
CTUN, 499, 0.00, 3.02, 0.000000, 0.00, 0, -8, 578, 0
GPS, 3, 352212600, 11, 1.75, -33.7851059, 151.0661833, 3.16, 85.73, 0.78, 345.58
ATT, 0.00, -0.02, 0.00, 2.97, 0.00, 126.03, 127.07
CTUN, 499, 0.00, 2.95, 0.000000, 0.00, 0, -11, 578, 0
ATT, 0.00, -0.67, 0.00, 2.87, 0.00, 125.65, 127.07
CTUN, 499, 0.00, 2.77, 0.000000, 0.00, 0, -17, 578, 0
GPS, 3, 352212800, 11, 1.75, -33.7851047, 151.0661825, 3.11, 85.71, 0.82, 338.23
ATT, 0.00, -0.94, 0.00, 2.53, 0.00, 125.51, 127.07
CTUN, 499, 0.00, 2.99, 0.000000, 0.00, 0, -21, 578, 0
ATT, 0.00, -1.08, 0.00, 2.40, 0.00, 125.46, 127.07
CTUN, 499, 0.00, 2.85, 0.000000, 0.00, 0, -26, 578, 0
GPS, 3, 352213000, 11, 1.75, -33.7851035, 151.0661815, 3.04, 85.66, 0.90, 334.24
ATT, 0.00, -0.96, 0.00, 2.73, 0.00, 125.57, 127.07
CTUN, 499, 0.00, 2.56, 0.000000, 0.00, 0, -29, 578, 0
ATT, 0.00, -0.78, 0.00, 2.55, 0.00, 125.82, 127.07
CTUN, 499, 0.00, 2.71, 0.000000, 0.00, 0, -32, 578, 0
GPS, 3, 352213200, 11, 1.75, -33.7851022, 151.0661805, 2.94, 85.61, 0.91, 332.28
ATT, 0.00, -0.66, 0.00, 2.19, 0.00, 126.03, 127.07
CTUN, 499, 0.00, 2.79, 0.000000, 0.00, 0, -36, 578, 0
ATT, 0.00, -1.02, 0.00, 2.12, 0.00, 126.21, 127.07
CTUN, 499, 0.00, 2.56, 0.000000, 0.00, 0, -40, 578, 0
GPS, 3, 352213400, 11, 1.75, -33.7851008, 151.0661794, 2.84, 85.56, 1.01, 331.60
ATT, 0.00, -1.67, 0.00, 2.27, 0.00, 126.44, 127.07
DU32, 7, 8569
CURR, 499, 108826, 1093, 1259, 4732, 74.57927
CTUN, 499, 0.00, 2.70, 0.000000, 0.00, 0, -43, 578, 0
ATT, 0.00, -1.56, 0.00, 2.64, 0.00, 126.64, 127.07
CTUN, 499, 0.00, 2.53, 0.000000, 0.00, 0, -45, 578, 0
GPS, 3, 352213600, 11, 1.75, -33.7850996, 151.0661782, 2.73, 85.46, 0.95, 329.44
ATT, 0.00, -1.36, 0.00, 2.76, 0.00, 126.73, 127.07
CTUN, 498, 0.00, 2.47, 0.000000, 0.00, 0, -48, 577, 0
ATT, 0.00, -1.24, 0.00, 2.72, 0.00, 126.71, 127.07
CTUN, 499, 0.00, 2.48, 0.000000, 0.00, 0, -52, 578, 0
GPS, 3, 352213800, 11, 1.75, -33.7850982, 151.0661771, 2.60, 85.38, 1.04, 330.40
ATT, 0.00, -1.42, 0.00, 2.49, 0.00, 126.62, 127.07
CTUN, 504, 0.00, 2.39, 0.000000, 0.00, 0, -55, 583, 0
ATT, 0.00, -2.16, 0.00, 2.75, 0.00, 126.49, 127.07
CTUN, 522, 0.00, 2.42, 0.000000, 0.00, 0, -57, 598, 0
GPS, 3, 352214000, 11, 1.75, -33.7850967, 151.0661759, 2.47, 85.28, 1.05, 330.02
ATT, 0.00, -2.27, 0.00, 3.30, 0.00, 126.38, 127.07
CTUN, 526, 0.00, 2.34, 0.000000, 0.00, 1, -57, 602, 0
ATT, 0.00, -1.30, 0.00, 3.18, 0.00, 126.54, 127.07
CTUN, 526, 0.00, 2.35, 0.000000, 0.00, 0, -58, 601, 0
GPS, 3, 352214200, 11, 1.75, -33.7850950, 151.0661747, 2.35, 85.17, 1.17, 331.55
ATT, 0.00, 0.03, 0.00, 2.86, 0.00, 126.73, 127.07
CTUN, 526, 0.00, 2.30, 0.000000, 0.00, 0, -57, 601, 0
ATT, 0.00, 0.46, 0.00, 2.03, 0.00, 126.75, 127.07
CTUN, 529, 0.00, 2.27, 0.000000, 0.00, 0, -56, 604, 0
GPS, 3, 352214400, 10, 1.79, -33.7850932, 151.0661734, 2.23, 85.09, 1.22, 331.78
ATT, 0.00, 0.02, 0.00, 2.40, 0.00, 126.69, 127.07
DU32, 7, 8569
CURR, 529, 114722, 1085, 1357, 4772, 78.19332
CTUN, 529, 0.00, 2.10, 0.000000, 0.00, 0, -56, 604, 0
ATT, 0.00, 0.22, 0.00, 2.75, 0.00, 126.76, 127.07
CTUN, 529, 0.00, 2.01, 0.000000, 0.00, 0, -57, 604, 0
GPS, 3, 352214600, 10, 1.79, -33.7850915, 151.0661720, 2.11, 84.95, 1.20, 330.17
ATT, 0.00, 0.37, -0.36, 2.99, 0.00, 126.90, 127.07
CTUN, 529, 0.00, 1.94, 0.000000, 0.00, 0, -56, 604, 0
ATT, 0.00, -0.02, -2.20, 2.94, 0.00, 127.06, 127.07
CTUN, 530, 0.00, 1.97, 0.000000, 0.00, 0, -55, 605, 0
GPS, 3, 352214800, 10, 1.79, -33.7850898, 151.0661704, 1.98, 84.85, 1.21, 328.05
ATT, 0.00, -0.70, -5.02, 1.52, 0.00, 127.25, 127.07
CTUN, 529, 0.00, 1.84, 0.000000, 0.00, 0, -54, 604, 0
ATT, 0.00, -1.37, -7.97, -0.95, 0.00, 127.44, 127.07
CTUN, 529, 0.00, 1.77, 0.000000, 0.00, 0, -53, 604, 0
GPS, 3, 352215000, 10, 1.79, -33.7850881, 151.0661688, 1.87, 84.74, 1.25, 325.52
ATT, 0.00, -1.27, -8.33, -3.87, 0.00, 127.55, 127.07
CTUN, 530, 0.00, 1.75, 0.000000, 0.00, 1, -52, 606, 0
ATT, 0.00, -0.69, -7.60, -5.28, 0.00, 127.52, 127.07
CTUN, 529, 0.00, 1.56, 0.000000, 0.00, 2, -50, 606, 0
GPS, 3, 352215200, 10, 1.79, -33.7850863, 151.0661672, 1.75, 84.65, 1.27, 325.39
ATT, 0.00, -0.07, -7.72, -4.73, 0.00, 127.46, 127.07
CTUN, 536, 0.00, 1.78, 0.000000, 0.00, 1, -49, 611, 0
ATT, 0.00, 0.14, -7.60, -3.85, 0.00, 127.41, 127.07
CTUN, 540, 0.00, 1.87, 0.000000, 0.00, 0, -47, 613, 0
GPS, 3, 352215400, 10, 1.79, -33.7850849, 151.0661659, 1.65, 84.58, 1.00, 324.61
ATT, 0.00, -0.48, -7.47, -3.17, 0.00, 127.48, 127.07
DU32, 7, 8569
CURR, 540, 120781, 1081, 1385, 4793, 81.94205
CTUN, 540, 0.00, 1.94, 0.000000, 0.00, 0, -42, 613, 0
ATT, 0.00, -1.69, -6.74, -2.54, 0.00, 127.52, 127.07
CTUN, 540, 0.00, 1.60, 0.000000, 0.00, 0, -38, 613, 0
GPS, 3, 352215600, 10, 1.79, -33.7850836, 151.0661647, 1.60, 84.50, 0.92, 324.44
ATT, 0.00, -2.32, -6.86, -2.32, 0.00, 127.57, 127.07
CTUN, 540, 0.00, 1.59, 0.000000, 0.00, 0, -34, 613, 0
ATT, 0.00, -1.87, -6.86, -1.80, 0.00, 127.63, 127.07
CTUN, 540, 0.00, 1.52, 0.000000, 0.00, 0, -31, 613, 0
GPS, 3, 352215800, 11, 1.75, -33.7850827, 151.0661638, 1.53, 84.43, 0.69, 324.94
ATT, 0.00, -1.06, -6.86, -1.94, 0.00, 127.64, 127.07
CTUN, 540, 0.00, 1.72, 0.000000, 0.00, 0, -28, 613, 0
ATT, 0.00, 0.13, -6.86, -1.99, 0.00, 127.59, 127.07
CTUN, 540, 0.00, 1.58, 0.000000, 0.00, 0, -26, 613, 0
GPS, 3, 352216000, 11, 1.75, -33.7850819, 151.0661630, 1.49, 84.39, 0.63, 325.57
ATT, 0.00, 1.48, -6.86, -2.89, 0.00, 127.55, 127.07
CTUN, 540, 0.00, 1.52, 0.000000, 0.00, 1, -26, 614, 0
ATT, 0.00, 2.03, -6.98, -4.21, 0.00, 127.62, 127.07
CTUN, 540, 0.00, 1.50, 0.000000, 0.00, 1, -26, 614, 0
GPS, 3, 352216200, 11, 1.75, -33.7850811, 151.0661623, 1.44, 84.32, 0.57, 326.78
ATT, 0.00, 1.92, -6.74, -4.38, 0.00, 127.76, 127.07
CTUN, 540, 0.00, 1.59, 0.000000, 0.00, 1, -22, 614, 0
ATT, 0.00, 1.62, -6.74, -4.15, 0.00, 127.73, 127.07
CTUN, 540, 0.00, 1.30, 0.000000, 0.00, 1, -18, 614, 0
GPS, 3, 352216400, 10, 1.79, -33.7850807, 151.0661618, 1.41, 84.29, 0.37, 325.40
ATT, 0.00, 1.01, -6.74, -3.63, 0.00, 127.84, 127.07
DU32, 7, 8569
CURR, 540, 126914, 1084, 1383, 4732, 85.78481
CTUN, 540, 0.00, 1.29, 0.000000, 0.00, 0, -14, 613, 0
ATT, -0.23, 0.79, -6.00, -2.68, 0.00, 127.88, 127.07
CTUN, 540, 0.00, 1.44, 0.000000, 0.00, 0, -9, 613, 0
GPS, 3, 352216600, 10, 1.79, -33.7850807, 151.0661614, 1.37, 84.26, 0.21, 325.40
ATT, -2.10, 0.69, -6.00, -2.13, 0.00, 127.97, 127.07
CTUN, 540, 0.00, 1.40, 0.000000, 0.00, 0, -4, 613, 0
ATT, -2.22, -0.71, -5.88, -1.63, 0.00, 128.01, 127.07
CTUN, 540, 0.00, 1.38, 0.000000, 0.00, 0, 0, 613, 0
GPS, 3, 352216800, 10, 1.79, -33.7850808, 151.0661610, 1.37, 84.25, 0.16, 325.40
ATT, -2.46, -1.65, -6.00, -1.18, 0.00, 127.95, 127.07
CTUN, 540, 0.00, 1.44, 0.000000, 0.00, 0, 2, 613, 0
ATT, -3.51, -1.92, -6.00, -0.98, 0.00, 127.87, 127.07
CTUN, 540, 0.00, 1.40, 0.000000, 0.00, 0, 5, 613, 0
GPS, 3, 352217000, 11, 1.75, -33.7850811, 151.0661607, 1.38, 84.26, 0.18, 325.40
ATT, -4.80, -3.17, -6.37, -1.22, 0.00, 127.76, 127.07
CTUN, 540, 0.00, 1.30, 0.000000, 0.00, 1, 6, 614, 0
ATT, -4.80, -4.55, -6.86, -1.87, 0.00, 127.63, 127.07
CTUN, 540, 0.00, 1.29, 0.000000, 0.00, 2, 8, 615, 0
GPS, 3, 352217200, 11, 1.75, -33.7850812, 151.0661605, 1.39, 84.29, 0.12, 325.40
ATT, -4.80, -5.86, -7.23, -2.21, 0.00, 127.38, 127.07
CTUN, 540, 0.00, 1.42, 0.000000, 0.00, 3, 11, 616, 0
ATT, -4.80, -6.93, -7.35, -2.10, 0.00, 127.08, 127.07
CTUN, 540, 0.00, 1.26, 0.000000, 0.00, 4, 15, 617, 0
GPS, 3, 352217400, 11, 1.75, -33.7850814, 151.0661606, 1.41, 84.33, 0.10, 325.40
ATT, -4.10, -7.35, -7.72, -2.38, 0.00, 126.89, 127.07
DU32, 7, 8569
CURR, 540, 133049, 1077, 1375, 4712, 89.65880
CTUN, 540, 0.00, 1.31, 0.000000, 0.00, 4, 18, 617, 0
ATT, -3.04, -5.95, -7.84, -3.10, 0.00, 126.80, 127.07
CTUN, 540, 0.00, 1.51, 0.000000, 0.00, 2, 23, 615, 0
GPS, 3, 352217600, 11, 1.75, -33.7850815, 151.0661612, 1.44, 84.37, 0.26, 347.65
ATT, -1.87, -3.72, -7.72, -3.12, 0.00, 126.63, 127.07
CTUN, 540, 0.00, 1.48, 0.000000, 0.00, 1, 29, 614, 0
ATT, 0.00, -1.16, -7.72, -3.06, 0.00, 126.63, 127.07
CTUN, 540, 0.00, 1.59, 0.000000, 0.00, 0, 32, 613, 0
GPS, 3, 352217800, 11, 1.75, -33.7850815, 151.0661622, 1.51, 84.45, 0.48, 62.01
ATT, 0.00, 0.98, -7.84, -3.26, 0.00, 126.84, 127.07
CTUN, 540, 0.00, 1.55, 0.000000, 0.00, 0, 35, 613, 0
ATT, 0.00, 1.53, -7.60, -3.78, 0.00, 127.21, 127.07
CTUN, 540, 0.00, 1.55, 0.000000, 0.00, 1, 34, 614, 0
GPS, 3, 352218000, 11, 1.75, -33.7850817, 151.0661634, 1.58, 84.55, 0.55, 77.44
ATT, 0.00, 2.21, -6.98, -3.76, 0.00, 127.57, 127.07
CTUN, 540, 0.00, 1.63, 0.000000, 0.00, 1, 33, 614, 0
ATT, 0.00, 2.30, -6.13, -3.40, 0.00, 127.90, 127.07
CTUN, 540, 0.00, 1.70, 0.000000, 0.00, 1, 34, 614, 0
GPS, 3, 352218200, 11, 1.75, -33.7850820, 151.0661646, 1.65, 84.61, 0.56, 91.49
ATT, 0.00, 1.75, -5.51, -2.06, 0.00, 128.17, 127.07
CTUN, 540, 0.00, 1.79, 0.000000, 0.00, 0, 35, 613, 0
ATT, 0.00, 1.41, -5.88, -1.00, 0.00, 128.32, 127.07
CTUN, 540, 0.00, 1.96, 0.000000, 0.00, 0, 35, 613, 0
GPS, 3, 352218400, 11, 1.75, -33.7850827, 151.0661658, 1.74, 84.67, 0.61, 105.86
ATT, 0.00, 1.28, -5.39, -0.60, 0.00, 128.41, 127.07
DU32, 7, 8569
CURR, 540, 139190, 1081, 1349, 4772, 93.53374
CTUN, 540, 0.00, 1.94, 0.000000, 0.00, 0, 37, 613, 0
ATT, 0.00, 1.11, -5.27, -0.33, 0.00, 128.37, 127.07
CTUN, 536, 0.00, 1.88, 0.000000, 0.00, 0, 40, 610, 0
GPS, 3, 352218600, 10, 1.79, -33.7850833, 151.0661668, 1.84, 84.76, 0.58, 113.82
ATT, 0.00, 0.77, -5.39, -0.66, 0.00, 128.23, 127.07
CTUN, 536, 0.00, 2.05, 0.000000, 0.00, 0, 41, 610, 0
ATT, 0.00, 0.47, -5.27, -0.62, 0.00, 128.00, 127.07
CTUN, 534, 0.00, 2.07, 0.000000, 0.00, 0, 44, 608, 0
GPS, 3, 352218800, 10, 1.79, -33.7850842, 151.0661677, 1.94, 84.85, 0.63, 128.23
ATT, 0.00, 0.01, -5.39, -0.33, 0.00, 127.94, 127.07
CTUN, 536, 0.00, 2.23, 0.000000, 0.00, 0, 48, 610, 0
ATT, 0.00, 0.21, -5.39, 0.22, 0.00, 127.92, 127.07
CTUN, 532, 0.00, 2.16, 0.000000, 0.00, 0, 52, 606, 0
GPS, 3, 352219000, 10, 1.79, -33.7850851, 151.0661686, 2.06, 84.95, 0.58, 132.41
ATT, 0.00, 0.44, -5.39, 0.27, 0.00, 127.92, 127.07
CTUN, 532, 0.00, 2.33, 0.000000, 0.00, 0, 56, 606, 0
ATT, 0.00, 0.48, -5.27, 0.65, 0.00, 127.89, 127.07
CTUN, 489, 0.00, 2.36, 0.000000, 0.00, 0, 60, 566, 0
GPS, 3, 352219200, 11, 1.75, -33.7850860, 151.0661693, 2.20, 85.06, 0.55, 137.42
ATT, 0.00, 0.65, -5.27, 0.90, 0.00, 127.80, 127.07
CTUN, 472, 0.00, 2.29, 0.000000, 0.00, 0, 56, 545, 0
ATT, 0.00, 0.58, -5.39, 1.04, 0.00, 127.77, 127.07
CTUN, 471, 0.00, 2.46, 0.000000, 0.00, 0, 46, 544, 0
GPS, 3, 352219400, 10, 1.79, -33.7850869, 151.0661698, 2.32, 85.20, 0.53, 143.77
ATT, 0.00, -0.02, -5.02, 0.02, 0.00, 127.78, 127.07
DU32, 7, 8569
CURR, 471, 145135, 1096, 1168, 4752, 97.23925
PM, 0, 0, 50, 0, 1000, 10255, 10, 0
CTUN, 472, 0.00, 2.49, 0.000000, 0.00, 0, 34, 545, 0
ATT, 0.00, -1.14, -4.78, -0.83, 0.00, 128.01, 127.07
CTUN, 471, 0.00, 2.49, 0.000000, 0.00, 0, 23, 544, 0
GPS, 3, 352219600, 10, 1.79, -33.7850877, 151.0661702, 2.40, 85.30, 0.44, 148.98
ATT, 0.00, -1.52, -3.92, -0.65, 0.00, 128.17, 127.07
CTUN, 472, 0.00, 2.55, 0.000000, 0.00, 0, 13, 545, 0
ATT, 0.00, -1.02, -1.22, 0.28, 0.00, 128.27, 127.07
CTUN, 471, 0.00, 2.46, 0.000000, 0.00, 0, 5, 544, 0
GPS, 3, 352219800, 10, 1.79, -33.7850885, 151.0661704, 2.43, 85.35, 0.36, 152.29
ATT, 0.00, -0.93, 0.00, 2.22, 0.00, 128.29, 127.07
CTUN, 471, 0.00, 2.62, 0.000000, 0.00, 0, -3, 544, 0
ATT, 0.00, -1.20, 0.00, 3.91, 0.00, 128.27, 127.07
CTUN, 471, 0.00, 2.59, 0.000000, 0.00, 1, -12, 545, 0
GPS, 3, 352220000, 10, 1.79, -33.7850893, 151.0661707, 2.43, 85.38, 0.39, 156.17
ATT, 0.00, -1.21, 0.00, 3.93, 0.00, 128.31, 127.07
CTUN, 482, 0.00, 2.47, 0.000000, 0.00, 1, -22, 559, 0
ATT, 0.00, -0.99, 0.00, 3.67, 0.00, 128.21, 127.07
CTUN, 491, 0.00, 2.34, 0.000000, 0.00, 0, -29, 569, 0
GPS, 3, 352220200, 10, 1.79, -33.7850899, 151.0661708, 2.39, 85.35, 0.27, 157.84
ATT, 0.00, -0.39, 0.00, 3.86, 0.00, 128.05, 127.07
CTUN, 493, 0.00, 2.47, 0.000000, 0.00, 1, -34, 572, 0
ATT, 0.00, 0.06, 0.00, 4.31, 0.00, 127.83, 127.07
CTUN, 491, 0.00, 2.31, 0.000000, 0.00, 1, -38, 570, 0
GPS, 3, 352220400, 11, 1.75, -33.7850904, 151.0661708, 2.32, 85.28, 0.20, 162.66
ATT, 0.00, 0.19, 0.00, 4.09, 0.00, 127.54, 127.07
DU32, 7, 8569
CURR, 491, 150668, 1087, 1261, 4712, 100.5258
CTUN, 491, 0.00, 2.21, 0.000000, 0.00, 1, -44, 570, 0
ATT, 0.00, -0.21, 0.00, 4.28, 0.00, 127.34, 127.07
CTUN, 493, 0.00, 2.40, 0.000000, 0.00, 1, -51, 572, 0
GPS, 3, 352220600, 11, 1.75, -33.7850907, 151.0661707, 2.22, 85.21, 0.13, 162.66
ATT, 0.00, -0.55, 0.00, 4.71, 0.00, 127.11, 127.07
CTUN, 493, 0.00, 2.14, 0.000000, 0.00, 1, -54, 572, 0
ATT, 0.00, -0.81, 0.00, 4.87, 0.00, 126.89, 127.07
CTUN, 491, 0.00, 2.06, 0.000000, 0.00, 1, -59, 570, 0
GPS, 3, 352220801, 11, 1.75, -33.7850907, 151.0661703, 2.11, 85.15, 0.18, 162.66
ATT, -4.21, -1.13, 0.00, 4.64, 0.00, 126.66, 127.07
CTUN, 491, 0.00, 2.22, 0.000000, 0.00, 1, -63, 570, 0
ATT, -7.73, -2.67, -4.04, 4.52, 0.00, 126.47, 127.07
CTUN, 491, 0.00, 2.01, 0.000000, 0.00, 2, -68, 571, 0
GPS, 3, 352221000, 11, 1.75, -33.7850908, 151.0661697, 1.99, 85.01, 0.28, 208.23
ATT, -11.01, -6.15, -7.60, 2.05, 0.00, 126.58, 127.07
CTUN, 493, 0.00, 1.92, 0.000000, 0.00, 3, -73, 574, 0
ATT, -14.53, -9.35, -7.60, -1.41, 0.00, 126.84, 127.07
CTUN, 504, 0.00, 1.98, 0.000000, 0.00, 7, -77, 590, 0
GPS, 3, 352221200, 11, 1.75, -33.7850905, 151.0661691, 1.84, 84.90, 0.36, 276.11
ATT, -16.75, -12.80, -7.35, -2.81, 0.00, 126.78, 127.07
CTUN, 520, 0.00, 1.96, 0.000000, 0.00, 14, -81, 610, 0
ATT, -15.11, -15.23, -7.35, -2.85, 0.00, 126.48, 127.07
CTUN, 540, 0.00, 1.93, 0.000000, 0.00, 18, -83, 631, 0
GPS, 3, 352221400, 11, 1.75, -33.7850899, 151.0661688, 1.69, 84.74, 0.39, 319.38
ATT, -17.22, -15.39, -6.74, -2.60, 0.00, 126.21, 127.07
DU32, 7, 8569
CURR, 553, 156480, 1080, 1386, 4732, 104.0405
CTUN, 553, 0.00, 1.93, 0.000000, 0.00, 19, -79, 643, 0
ATT, -16.40, -15.57, -6.74, -1.76, 0.00, 126.01, 127.07
CTUN, 562, 0.00, 1.71, 0.000000, 0.00, 18, -76, 650, 0
GPS, 3, 352221600, 11, 1.75, -33.7850889, 151.0661692, 1.56, 84.60, 0.63, 0.96
ATT, -16.40, -14.50, -6.62, -1.31, 0.00, 125.95, 127.07
CTUN, 567, 0.00, 1.70, 0.000000, 0.00, 15, -69, 651, 0
ATT, -16.28, -13.61, -6.49, -1.06, 0.00, 125.97, 127.07
CTUN, 572, 0.00, 1.60, 0.000000, 0.00, 14, -63, 654, 0
GPS, 3, 352221800, 11, 1.75, -33.7850876, 151.0661705, 1.45, 84.45, 0.97, 24.77
ATT, -14.64, -12.81, -7.23, -0.72, 0.00, 125.94, 127.07
CTUN, 582, 0.00, 1.80, 0.000000, 0.00, 12, -56, 660, 0
ATT, -14.76, -12.19, -7.23, -0.64, 0.00, 125.90, 127.07
CTUN, 584, 0.00, 1.60, 0.000000, 0.00, 11, -48, 661, 0
GPS, 3, 352222000, 11, 1.75, -33.7850859, 151.0661726, 1.37, 84.30, 1.42, 36.90
ATT, -13.82, -11.76, -8.21, -0.59, 0.00, 126.06, 127.07
CTUN, 584, 0.00, 1.49, 0.000000, 0.00, 10, -41, 660, 0
ATT, -15.11, -10.84, -8.95, -1.29, 0.00, 126.33, 127.07
CTUN, 584, 0.00, 1.60, 0.000000, 0.00, 9, -32, 659, 0
GPS, 3, 352222200, 11, 1.75, -33.7850835, 151.0661754, 1.32, 84.21, 1.79, 40.99
ATT, -14.06, -11.24, -10.91, -2.35, 0.00, 126.67, 127.07
CTUN, 584, 0.00, 1.21, 0.000000, 0.00, 10, -26, 660, 0
ATT, -11.83, -10.53, -12.99, -4.47, 0.00, 127.17, 127.07
CTUN, 584, 0.00, 1.06, 0.000000, 0.00, 10, -19, 660, 0
GPS, 3, 352222400, 11, 1.75, -33.7850809, 151.0661786, 1.27, 84.13, 2.09, 43.31
ATT, -10.07, -9.21, -14.10, -6.26, 0.00, 127.61, 127.07
DU32, 7, 8569
CURR, 584, 163035, 1071, 1549, 4732, 108.2774
CTUN, 583, 0.00, 1.23, 0.000000, 0.00, 10, -15, 659, 0
ATT, -8.08, -7.58, -15.32, -8.23, 0.00, 127.95, 127.07
CTUN, 584, 0.00, 1.18, 0.000000, 0.00, 9, -9, 659, 0
GPS, 3, 352222600, 11, 1.75, -33.7850781, 151.0661825, 1.24, 84.09, 2.32, 46.25
ATT, -4.92, -5.24, -16.55, -9.53, 0.00, 128.16, 127.07
CTUN, 584, 0.00, 1.42, 0.000000, 0.00, 9, -1, 659, 0
ATT, -1.75, -2.26, -17.77, -11.05, 0.00, 128.31, 127.07
CTUN, 583, 0.00, 1.60, 0.000000, 0.00, 10, 5, 659, 0
GPS, 3, 352222800, 10, 1.84, -33.7850755, 151.0661870, 1.26, 84.06, 2.54, 48.66
ATT, 0.00, 0.24, -18.88, -11.89, 0.00, 128.44, 127.07
CTUN, 585, 0.00, 1.45, 0.000000, 0.00, 12, 15, 663, 0
ATT, 0.00, 2.38, -18.51, -12.70, 0.00, 128.60, 127.07
CTUN, 584, 0.00, 1.41, 0.000000, 0.00, 13, 22, 663, 0
GPS, 3, 352223000, 10, 1.84, -33.7850729, 151.0661915, 1.32, 83.99, 2.55, 49.93
ATT, 0.00, 2.93, -17.90, -12.69, 0.00, 128.80, 127.07
CTUN, 584, 0.00, 1.42, 0.000000, 0.00, 13, 32, 663, 0
ATT, 0.00, 2.77, -15.94, -11.80, 0.00, 128.97, 127.07
CTUN, 584, 0.00, 1.38, 0.000000, 0.00, 11, 40, 661, 0
GPS, 3, 352223200, 10, 1.84, -33.7850714, 151.0661969, 1.40, 84.00, 2.60, 63.96
ATT, 0.00, 2.08, -14.46, -10.52, 0.00, 129.11, 127.07
CTUN, 584, 0.00, 1.53, 0.000000, 0.00, 8, 51, 658, 0
ATT, 0.00, 1.56, -12.38, -9.07, 0.00, 129.00, 127.07
CTUN, 584, 0.00, 1.54, 0.000000, 0.00, 5, 58, 655, 0
GPS, 3, 352223400, 10, 1.84, -33.7850707, 151.0662023, 1.51, 84.06, 2.52, 75.28
ATT, 3.43, 1.09, -12.26, -7.51, 0.00, 128.85, 127.07
DU32, 7, 8569
CURR, 584, 169632, 1068, 1556, 4772, 112.5435
CTUN, 584, 0.00, 1.19, 0.000000, 0.00, 4, 63, 654, 0
ATT, 14.54, 2.55, -13.85, -7.29, 0.00, 128.59, 127.07
CTUN, 584, 0.00, 1.22, 0.000000, 0.00, 5, 70, 655, 0
GPS, 3, 352223600, 10, 1.84, -33.7850705, 151.0662077, 1.62, 84.16, 2.50, 81.32
ATT, 17.51, 8.09, -14.34, -8.32, 0.00, 128.19, 127.07
CTUN, 584, 0.00, 1.49, 0.000000, 0.00, 14, 72, 664, 0
ATT, 19.80, 13.92, -14.83, -8.51, 0.00, 128.17, 127.07
CTUN, 584, 0.00, 1.72, 0.000000, 0.00, 24, 76, 674, 0
GPS, 3, 352223800, 10, 1.84, -33.7850708, 151.0662128, 1.74, 84.32, 2.43, 88.34
ATT, 20.03, 17.14, -14.59, -8.71, 0.00, 128.40, 127.07
CTUN, 584, 0.00, 1.81, 0.000000, 0.00, 33, 81, 683, 0
ATT, 21.18, 18.60, -13.11, -8.72, 0.00, 128.85, 127.07
CTUN, 577, 0.00, 1.93, 0.000000, 0.00, 34, 86, 678, 0
GPS, 3, 352224000, 10, 1.84, -33.7850720, 151.0662175, 1.91, 84.52, 2.30, 98.73
ATT, 22.55, 18.29, -11.64, -7.80, 0.00, 129.49, 127.07
CTUN, 545, 0.00, 1.89, 0.000000, 0.00, 29, 91, 646, 0
ATT, 25.41, 18.06, -6.62, -6.13, 0.00, 130.16, 127.07
CTUN, 524, 0.00, 1.93, 0.000000, 0.00, 27, 89, 627, 0
GPS, 3, 352224200, 10, 1.84, -33.7850743, 151.0662215, 2.09, 84.74, 2.24, 114.59
ATT, 27.48, 19.45, -3.06, -2.68, 0.00, 130.92, 127.07
CTUN, 520, 0.00, 2.22, 0.000000, 0.00, 29, 87, 625, 0
ATT, 28.05, 21.18, -1.83, 0.51, 0.00, 131.38, 127.07
CTUN, 520, 0.00, 2.26, 0.000000, 0.00, 35, 81, 631, 0
GPS, 3, 352224400, 10, 1.84, -33.7850778, 151.0662242, 2.26, 84.94, 2.26, 130.58
ATT, 28.39, 22.47, -2.08, 3.11, 0.00, 131.67, 127.07
DU32, 7, 8569
CURR, 520, 176171, 1074, 1410, 4752, 116.7565
CTUN, 520, 0.00, 2.34, 0.000000, 0.00, 39, 77, 635, 0
ATT, 29.54, 22.06, -0.36, 4.40, 0.00, 131.59, 127.07
CTUN, 520, 0.00, 2.76, 0.000000, 0.00, 37, 74, 633, 0
GPS, 3, 352224600, 10, 1.84, -33.7850815, 151.0662260, 2.42, 85.16, 2.23, 138.00
ATT, 29.42, 21.63, 0.00, 5.69, 0.00, 131.30, 127.07
CTUN, 520, 0.00, 2.58, 0.000000, 0.00, 38, 71, 634, 0
ATT, 30.11, 21.40, 0.00, 6.56, 0.00, 130.75, 127.07
CTUN, 523, 0.00, 2.56, 0.000000, 0.00, 36, 66, 635, 0
GPS, 3, 352224800, 10, 1.84, -33.7850860, 151.0662258, 2.58, 85.35, 2.42, 163.87
ATT, 30.11, 20.32, 0.00, 6.80, 0.00, 129.95, 127.07
CTUN, 520, 0.00, 2.46, 0.000000, 0.00, 33, 60, 629, 0
ATT, 29.77, 19.11, 0.00, 6.18, 0.00, 128.88, 127.07
CTUN, 520, 0.00, 2.46, 0.000000, 0.00, 29, 54, 625, 0
GPS, 3, 352225000, 10, 1.84, -33.7850903, 151.0662250, 2.68, 85.54, 2.36, 165.86
ATT, 29.77, 18.51, 0.00, 5.79, 0.00, 127.76, 127.07
CTUN, 523, 0.00, 2.44, 0.000000, 0.00, 27, 48, 626, 0
ATT, 27.59, 18.13, 0.00, 5.28, 0.00, 126.64, 127.07
CTUN, 522, 0.00, 2.40, 0.000000, 0.00, 25, 40, 623, 0
GPS, 3, 352225200, 10, 1.84, -33.7850922, 151.0662227, 2.74, 85.71, 1.65, 176.16
ATT, 24.96, 16.72, 0.00, 4.62, 0.00, 125.55, 127.07
CTUN, 520, 0.00, 2.43, 0.000000, 0.00, 20, 32, 616, 0
ATT, 24.84, 14.71, 0.00, 4.24, 0.00, 124.79, 127.07
CTUN, 512, 0.00, 2.33, 0.000000, 0.00, 15, 23, 605, 0
GPS, 3, 352225400, 10, 1.84, -33.7850957, 151.0662188, 2.76, 85.88, 2.31, 203.33
ATT, 24.73, 13.28, 0.00, 3.67, 0.00, 124.16, 127.07
DU32, 7, 8569
CURR, 512, 182440, 1075, 1399, 4752, 120.7429
CTUN, 512, 0.00, 2.66, 0.000000, 0.00, 12, 15, 602, 0
ATT, 25.07, 12.89, 0.00, 3.39, 0.00, 123.71, 127.07
CTUN, 512, 0.00, 2.58, 0.000000, 0.00, 13, 8, 603, 0
GPS, 3, 352225600, 10, 1.84, -33.7850989, 151.0662139, 2.76, 86.04, 2.69, 216.38
ATT, 24.27, 13.71, 0.46, 3.17, 0.00, 123.23, 127.07
CTUN, 512, 0.00, 2.52, 0.000000, 0.00, 14, 1, 604, 0
ATT, 21.18, 13.42, 4.63, 3.38, 0.00, 122.80, 127.07
CTUN, 512, 0.00, 2.87, 0.000000, 0.00, 12, -1, 602, 0
GPS, 3, 352225800, 10, 1.84, -33.7851009, 151.0662076, 2.74, 86.16, 2.89, 228.72
ATT, 15.45, 11.06, 5.10, 5.80, 0.00, 122.52, 127.07
CTUN, 512, 0.00, 2.85, 0.000000, 0.00, 10, -6, 600, 0
ATT, 9.61, 7.56, 6.03, 7.32, 0.00, 122.17, 127.07
CTUN, 512, 0.00, 2.95, 0.000000, 0.00, 6, -12, 596, 0
GPS, 3, 352226000, 10, 1.84, -33.7851060, 151.0662010, 2.74, 86.27, 3.58, 232.08
ATT, 4.69, 3.21, 6.72, 7.80, 0.00, 121.85, 127.07
CTUN, 512, 0.00, 3.12, 0.000000, 0.00, 4, -17, 594, 0
ATT, 0.00, -1.49, 6.72, 8.31, 0.00, 121.49, 127.07
CTUN, 513, 0.00, 2.85, 0.000000, 0.00, 5, -22, 595, 0
GPS, 3, 352226200, 9, 1.93, -33.7851137, 151.0661945, 2.73, 86.31, 4.39, 225.82
ATT, 0.00, -5.98, 6.26, 8.10, 0.00, 121.23, 127.07
CTUN, 513, 0.00, 2.85, 0.000000, 0.00, 7, -25, 597, 0
ATT, 0.00, -7.78, 6.26, 7.48, 0.00, 120.91, 127.07
CTUN, 512, 0.00, 2.80, 0.000000, 0.00, 8, -32, 598, 0
GPS, 3, 352226400, 9, 1.93, -33.7851199, 151.0661875, 2.69, 86.25, 4.50, 225.16
ATT, 0.00, -7.26, 6.49, 7.93, 0.00, 120.46, 127.07
DU32, 7, 8569
CURR, 517, 188433, 1075, 1357, 4772, 124.5442
CTUN, 517, 0.00, 2.79, 0.000000, 0.00, 7, -38, 601, 0
ATT, 0.00, -6.16, 6.26, 7.77, 0.00, 120.30, 127.07
CTUN, 522, 0.00, 2.69, 0.000000, 0.00, 6, -45, 604, 0
GPS, 3, 352226600, 9, 1.93, -33.7851257, 151.0661824, 2.62, 86.29, 3.95, 224.02
ATT, 0.00, -5.59, 6.26, 6.64, 0.00, 120.38, 127.07
CTUN, 524, 0.00, 2.73, 0.000000, 0.00, 4, -50, 604, 0
ATT, -4.92, -5.46, 6.26, 5.27, 0.00, 120.64, 127.07
CTUN, 526, 0.00, 2.74, 0.000000, 0.00, 4, -52, 605, 0
GPS, 3, 352226800, 9, 1.93, -33.7851312, 151.0661878, 2.53, 87.10, 3.21, 199.72
ATT, -5.27, -6.57, 6.49, 4.57, 0.00, 121.02, 127.07
CTUN, 536, 0.00, 2.79, 0.000000, 0.00, 5, -56, 615, 0
ATT, -8.43, -8.10, 7.53, 3.73, 0.00, 121.40, 127.07
CTUN, 542, 0.00, 2.79, 0.000000, 0.00, 6, -62, 621, 0
GPS, 3, 352227000, 9, 1.93, -33.7851367, 151.0661919, 2.45, 88.58, 3.60, 180.00
ATT, -13.71, -9.48, 7.88, 3.63, 0.00, 121.84, 127.07
CTUN, 545, 0.00, 2.78, 0.000000, 0.00, 8, -62, 625, 0
ATT, -14.64, -11.54, 7.42, 4.50, 0.00, 122.38, 127.07
CTUN, 548, 0.00, 2.63, 0.000000, 0.00, 13, -60, 633, 0
GPS, 3, 352227200, 9, 1.93, -33.7851370, 151.0661959, 2.36, 90.76, 2.07, 171.94
ATT, -14.64, -13.64, 6.03, 4.99, 0.00, 123.21, 127.07
CTUN, 551, 0.00, 2.70, 0.000000, 0.00, 16, -61, 638, 0
ATT, -18.51, -14.12, 5.91, 4.80, 0.00, 123.85, 127.07
CTUN, 559, 0.00, 2.52, 0.000000, 0.00, 18, -61, 647, 0
GPS, 3, 352227400, 9, 1.93, -33.7851350, 151.0661994, 2.28, 92.13, 1.56, 171.94
ATT, -19.92, -15.79, 5.68, 4.95, 0.00, 124.20, 127.07
DU32, 7, 8569
CURR, 561, 194618, 1066, 1486, 4752, 128.4068
CTUN, 561, 0.00, 2.32, 0.000000, 0.00, 22, -57, 653, 0
ATT, -21.44, -16.95, 5.91, 5.04, 0.00, 124.44, 127.07
CTUN, 561, 0.00, 2.28, 0.000000, 0.00, 25, -54, 656, 0
GPS, 3, 352227600, 9, 1.93, -33.7851336, 151.0662059, 2.18, 94.25, 2.49, 171.94
ATT, -21.79, -17.76, 6.49, 5.11, 0.00, 124.68, 127.07
CTUN, 562, 0.00, 2.33, 0.000000, 0.00, 27, -49, 659, 0
ATT, -22.03, -17.51, 6.03, 5.08, 0.00, 124.99, 127.07
CTUN, 561, 0.00, 2.17, 0.000000, 0.00, 25, -45, 656, 0
GPS, 3, 352227800, 9, 1.93, -33.7851319, 151.0662096, 2.10, 94.97, 2.25, 171.94
ATT, -22.38, -16.80, 6.26, 4.98, 0.00, 125.38, 127.07
CTUN, 561, 0.00, 2.20, 0.000000, 0.00, 24, -42, 655, 0
ATT, -22.85, -16.15, 6.95, 5.51, 0.00, 125.78, 127.07
CTUN, 561, 0.00, 2.26, 0.000000, 0.00, 22, -36, 653, 0
GPS, 3, 352228000, 9, 1.93, -33.7851306, 151.0662160, 2.03, 95.40, 3.30, 171.94
ATT, -22.85, -15.60, 7.30, 5.80, 0.00, 126.41, 127.07
CTUN, 561, 0.00, 2.08, 0.000000, 0.00, 21, -32, 652, 0
ATT, -23.20, -15.33, 7.53, 5.84, 0.00, 127.32, 127.07
CTUN, 561, 0.00, 2.18, 0.000000, 0.00, 21, -30, 652, 0
GPS, 3, 352228200, 10, 1.84, -33.7851345, 151.0662272, 1.98, 95.92, 5.28, 116.78
ATT, -23.20, -14.73, 7.88, 6.47, 0.00, 128.32, 127.07
CTUN, 562, 0.00, 2.31, 0.000000, 0.00, 19, -26, 651, 0
ATT, -24.37, -13.34, 8.23, 7.23, 0.00, 129.65, 127.07
CTUN, 562, 0.00, 2.39, 0.000000, 0.00, 17, -20, 649, 0
GPS, 3, 352228400, 10, 1.84, -33.7851338, 151.0662316, 1.97, 97.93, 2.13, 113.87
ATT, -24.96, -12.18, 7.88, 7.64, 0.00, 131.06, 127.07
DU32, 7, 8569
CURR, 561, 201153, 1066, 1471, 4752, 132.6093
CTUN, 562, 0.00, 2.31, 0.000000, 0.00, 15, -16, 647, 0
ATT, -24.72, -12.34, 7.53, 7.63, 0.00, 132.15, 127.07
CTUN, 562, 0.00, 2.21, 0.000000, 0.00, 16, -12, 648, 0
GPS, 3, 352228600, 10, 1.84, -33.7851343, 151.0662362, 1.98, 98.79, 2.34, 113.87
ATT, -24.49, -14.12, 6.37, 6.44, 0.00, 132.84, 127.07
CTUN, 562, 0.00, 2.24, 0.000000, 0.00, 20, -7, 652, 0
ATT, -23.90, -15.61, 3.71, 5.48, 0.00, 132.96, 127.07
CTUN, 562, 0.00, 2.27, 0.000000, 0.00, 22, -5, 654, 0
GPS, 3, 352228800, 10, 1.84, -33.7851331, 151.0662399, 2.00, 99.84, 1.97, 113.87
ATT, -18.86, -15.41, 0.00, 4.30, 0.00, 132.73, 127.07
CTUN, 561, 0.00, 2.50, 0.000000, 0.00, 17, -3, 648, 0
ATT, -18.86, -11.93, 0.00, 2.05, 0.00, 132.39, 127.07
CTUN, 561, 0.00, 2.44, 0.000000, 0.00, 10, 0, 641, 0
